{"features": [{"geometry": {"type": "Point", "coordinates": [138.747886, -34.594537]}, "properties": {"stop_I": "1", "name": "Gawler Central Railway Station"}, "type": "Feature", "id": "0"}, {"geometry": {"type": "Point", "coordinates": [138.7412, -34.59514]}, "properties": {"stop_I": "2", "name": "Gawler Oval Railway Station"}, "type": "Feature", "id": "1"}, {"geometry": {"type": "Point", "coordinates": [138.739819, -34.608171]}, "properties": {"stop_I": "3", "name": "Gawler Railway Station"}, "type": "Feature", "id": "2"}, {"geometry": {"type": "Point", "coordinates": [138.732799, -34.620412]}, "properties": {"stop_I": "4", "name": "Evanston Railway Station"}, "type": "Feature", "id": "3"}, {"geometry": {"type": "Point", "coordinates": [138.726211, -34.628232]}, "properties": {"stop_I": "5", "name": "Tambelin Railway Station"}, "type": "Feature", "id": "4"}, {"geometry": {"type": "Point", "coordinates": [138.706875, -34.651587]}, "properties": {"stop_I": "6", "name": "Kudla Railway Station"}, "type": "Feature", "id": "5"}, {"geometry": {"type": "Point", "coordinates": [138.697971, -34.666058]}, "properties": {"stop_I": "7", "name": "Munno Para Railway Station"}, "type": "Feature", "id": "6"}, {"geometry": {"type": "Point", "coordinates": [138.68706, -34.681885]}, "properties": {"stop_I": "8", "name": "Smithfield Railway Station"}, "type": "Feature", "id": "7"}, {"geometry": {"type": "Point", "coordinates": [138.67431, -34.695677]}, "properties": {"stop_I": "9", "name": "Broadmeadows Railway Station"}, "type": "Feature", "id": "8"}, {"geometry": {"type": "Point", "coordinates": [138.670099, -34.703986]}, "properties": {"stop_I": "10", "name": "Womma Railway Station"}, "type": "Feature", "id": "9"}, {"geometry": {"type": "Point", "coordinates": [138.66493, -34.716984]}, "properties": {"stop_I": "11", "name": "Elizabeth Railway Station"}, "type": "Feature", "id": "10"}, {"geometry": {"type": "Point", "coordinates": [138.656154, -34.730852]}, "properties": {"stop_I": "12", "name": "Elizabeth South Railway Station"}, "type": "Feature", "id": "11"}, {"geometry": {"type": "Point", "coordinates": [138.643973, -34.751234]}, "properties": {"stop_I": "13", "name": "Nurlutta Railway Station"}, "type": "Feature", "id": "12"}, {"geometry": {"type": "Point", "coordinates": [138.642389, -34.762408]}, "properties": {"stop_I": "14", "name": "Salisbury Railway Station"}, "type": "Feature", "id": "13"}, {"geometry": {"type": "Point", "coordinates": [138.638379, -34.774439]}, "properties": {"stop_I": "15", "name": "Chidda Railway Station"}, "type": "Feature", "id": "14"}, {"geometry": {"type": "Point", "coordinates": [138.631028, -34.782731]}, "properties": {"stop_I": "16", "name": "Parafield Railway Station"}, "type": "Feature", "id": "15"}, {"geometry": {"type": "Point", "coordinates": [138.623675, -34.79097]}, "properties": {"stop_I": "17", "name": "Parafield Gardens Railway Station"}, "type": "Feature", "id": "16"}, {"geometry": {"type": "Point", "coordinates": [138.616835, -34.798737]}, "properties": {"stop_I": "18", "name": "Greenfields Railway Station"}, "type": "Feature", "id": "17"}, {"geometry": {"type": "Point", "coordinates": [138.612338, -34.803742]}, "properties": {"stop_I": "19", "name": "Mawson Lakes Railway Station"}, "type": "Feature", "id": "18"}, {"geometry": {"type": "Point", "coordinates": [138.586008, -34.834494]}, "properties": {"stop_I": "20", "name": "Dry Creek Railway Station"}, "type": "Feature", "id": "19"}, {"geometry": {"type": "Point", "coordinates": [138.57844, -34.859874]}, "properties": {"stop_I": "21", "name": "Kilburn Railway Station"}, "type": "Feature", "id": "20"}, {"geometry": {"type": "Point", "coordinates": [138.581819, -34.875218]}, "properties": {"stop_I": "22", "name": "Islington Railway Station"}, "type": "Feature", "id": "21"}, {"geometry": {"type": "Point", "coordinates": [138.583321, -34.884747]}, "properties": {"stop_I": "23", "name": "Dudley Park Railway Station"}, "type": "Feature", "id": "22"}, {"geometry": {"type": "Point", "coordinates": [138.584382, -34.895664]}, "properties": {"stop_I": "24", "name": "Ovingham Railway Station"}, "type": "Feature", "id": "23"}, {"geometry": {"type": "Point", "coordinates": [138.596794, -34.9209]}, "properties": {"stop_I": "25", "name": "Adelaide Railway Station"}, "type": "Feature", "id": "24"}, {"geometry": {"type": "Point", "coordinates": [138.58182, -34.905757]}, "properties": {"stop_I": "26", "name": "North Adelaide Railway Station"}, "type": "Feature", "id": "25"}, {"geometry": {"type": "Point", "coordinates": [138.584277, -34.89626]}, "properties": {"stop_I": "27", "name": "Ovingham Railway Station"}, "type": "Feature", "id": "26"}, {"geometry": {"type": "Point", "coordinates": [138.583284, -34.885406]}, "properties": {"stop_I": "28", "name": "Dudley Park Railway Station"}, "type": "Feature", "id": "27"}, {"geometry": {"type": "Point", "coordinates": [138.58175, -34.875058]}, "properties": {"stop_I": "29", "name": "Islington Railway Station"}, "type": "Feature", "id": "28"}, {"geometry": {"type": "Point", "coordinates": [138.578279, -34.859289]}, "properties": {"stop_I": "30", "name": "Kilburn Railway Station"}, "type": "Feature", "id": "29"}, {"geometry": {"type": "Point", "coordinates": [138.585469, -34.835131]}, "properties": {"stop_I": "31", "name": "Dry Creek Railway Station"}, "type": "Feature", "id": "30"}, {"geometry": {"type": "Point", "coordinates": [138.611812, -34.804203]}, "properties": {"stop_I": "32", "name": "Mawson Lakes Railway Station"}, "type": "Feature", "id": "31"}, {"geometry": {"type": "Point", "coordinates": [138.616281, -34.799245]}, "properties": {"stop_I": "33", "name": "Greenfields Railway Station"}, "type": "Feature", "id": "32"}, {"geometry": {"type": "Point", "coordinates": [138.623043, -34.791591]}, "properties": {"stop_I": "34", "name": "Parafield Gardens Railway Station"}, "type": "Feature", "id": "33"}, {"geometry": {"type": "Point", "coordinates": [138.630904, -34.782865]}, "properties": {"stop_I": "35", "name": "Parafield Railway Station"}, "type": "Feature", "id": "34"}, {"geometry": {"type": "Point", "coordinates": [138.637954, -34.774833]}, "properties": {"stop_I": "36", "name": "Chidda Railway Station"}, "type": "Feature", "id": "35"}, {"geometry": {"type": "Point", "coordinates": [138.642302, -34.763132]}, "properties": {"stop_I": "37", "name": "Salisbury Railway Station"}, "type": "Feature", "id": "36"}, {"geometry": {"type": "Point", "coordinates": [138.644207, -34.750328]}, "properties": {"stop_I": "38", "name": "Nurlutta Railway Station"}, "type": "Feature", "id": "37"}, {"geometry": {"type": "Point", "coordinates": [138.655752, -34.731354]}, "properties": {"stop_I": "39", "name": "Elizabeth South Railway Station"}, "type": "Feature", "id": "38"}, {"geometry": {"type": "Point", "coordinates": [138.664455, -34.717596]}, "properties": {"stop_I": "40", "name": "Elizabeth Railway Station"}, "type": "Feature", "id": "39"}, {"geometry": {"type": "Point", "coordinates": [138.66993, -34.704596]}, "properties": {"stop_I": "41", "name": "Womma Railway Station"}, "type": "Feature", "id": "40"}, {"geometry": {"type": "Point", "coordinates": [138.673934, -34.696074]}, "properties": {"stop_I": "42", "name": "Broadmeadows Railway Station"}, "type": "Feature", "id": "41"}, {"geometry": {"type": "Point", "coordinates": [138.686275, -34.682357]}, "properties": {"stop_I": "43", "name": "Smithfield Railway Station"}, "type": "Feature", "id": "42"}, {"geometry": {"type": "Point", "coordinates": [138.697257, -34.667114]}, "properties": {"stop_I": "44", "name": "Munno Para Railway Station"}, "type": "Feature", "id": "43"}, {"geometry": {"type": "Point", "coordinates": [138.706433, -34.652062]}, "properties": {"stop_I": "45", "name": "Kudla Railway Station"}, "type": "Feature", "id": "44"}, {"geometry": {"type": "Point", "coordinates": [138.725765, -34.628644]}, "properties": {"stop_I": "46", "name": "Tambelin Railway Station"}, "type": "Feature", "id": "45"}, {"geometry": {"type": "Point", "coordinates": [138.732437, -34.620747]}, "properties": {"stop_I": "47", "name": "Evanston Railway Station"}, "type": "Feature", "id": "46"}, {"geometry": {"type": "Point", "coordinates": [138.739627, -34.609032]}, "properties": {"stop_I": "48", "name": "Gawler Railway Station"}, "type": "Feature", "id": "47"}, {"geometry": {"type": "Point", "coordinates": [138.740476, -34.595313]}, "properties": {"stop_I": "49", "name": "Gawler Oval Railway Station"}, "type": "Feature", "id": "48"}, {"geometry": {"type": "Point", "coordinates": [138.74767, -34.594513]}, "properties": {"stop_I": "50", "name": "Gawler Central Railway Station"}, "type": "Feature", "id": "49"}, {"geometry": {"type": "Point", "coordinates": [138.581548, -34.906355]}, "properties": {"stop_I": "51", "name": "North Adelaide Railway Station"}, "type": "Feature", "id": "50"}, {"geometry": {"type": "Point", "coordinates": [138.483444, -35.189967]}, "properties": {"stop_I": "52", "name": "Seaford Railway Station"}, "type": "Feature", "id": "51"}, {"geometry": {"type": "Point", "coordinates": [138.487287, -35.179365]}, "properties": {"stop_I": "53", "name": "Seaford Meadows Railway Station"}, "type": "Feature", "id": "52"}, {"geometry": {"type": "Point", "coordinates": [138.492252, -35.140482]}, "properties": {"stop_I": "54", "name": "Noarlunga Railway Station"}, "type": "Feature", "id": "53"}, {"geometry": {"type": "Point", "coordinates": [138.496121, -35.129631]}, "properties": {"stop_I": "55", "name": "Christie Downs Railway Station"}, "type": "Feature", "id": "54"}, {"geometry": {"type": "Point", "coordinates": [138.491799, -35.109667]}, "properties": {"stop_I": "56", "name": "Lonsdale Railway Station"}, "type": "Feature", "id": "55"}, {"geometry": {"type": "Point", "coordinates": [138.50173, -35.079833]}, "properties": {"stop_I": "57", "name": "Hallett Cove Beach Railway Station"}, "type": "Feature", "id": "56"}, {"geometry": {"type": "Point", "coordinates": [138.505489, -35.066644]}, "properties": {"stop_I": "58", "name": "Hallett Cove Railway Station"}, "type": "Feature", "id": "57"}, {"geometry": {"type": "Point", "coordinates": [138.512465, -35.046341]}, "properties": {"stop_I": "59", "name": "Marino Rocks Railway Station"}, "type": "Feature", "id": "58"}, {"geometry": {"type": "Point", "coordinates": [138.516915, -35.042558]}, "properties": {"stop_I": "60", "name": "Marino Railway Station"}, "type": "Feature", "id": "59"}, {"geometry": {"type": "Point", "coordinates": [138.521378, -35.0328]}, "properties": {"stop_I": "61", "name": "Seacliff Railway Station"}, "type": "Feature", "id": "60"}, {"geometry": {"type": "Point", "coordinates": [138.519312, -35.021758]}, "properties": {"stop_I": "62", "name": "Brighton Railway Station"}, "type": "Feature", "id": "61"}, {"geometry": {"type": "Point", "coordinates": [138.523477, -35.012223]}, "properties": {"stop_I": "63", "name": "Hove Railway Station"}, "type": "Feature", "id": "62"}, {"geometry": {"type": "Point", "coordinates": [138.533019, -35.011263]}, "properties": {"stop_I": "64", "name": "Warradale Railway Station"}, "type": "Feature", "id": "63"}, {"geometry": {"type": "Point", "coordinates": [138.540667, -35.009361]}, "properties": {"stop_I": "65", "name": "Oaklands Railway Station"}, "type": "Feature", "id": "64"}, {"geometry": {"type": "Point", "coordinates": [138.552831, -34.99891]}, "properties": {"stop_I": "66", "name": "Marion Railway Station"}, "type": "Feature", "id": "65"}, {"geometry": {"type": "Point", "coordinates": [138.560921, -34.991167]}, "properties": {"stop_I": "67", "name": "Ascot Park Railway Station"}, "type": "Feature", "id": "66"}, {"geometry": {"type": "Point", "coordinates": [138.566961, -34.983287]}, "properties": {"stop_I": "68", "name": "Woodlands Park Railway Station"}, "type": "Feature", "id": "67"}, {"geometry": {"type": "Point", "coordinates": [138.571203, -34.972519]}, "properties": {"stop_I": "69", "name": "Edwardstown Railway Station"}, "type": "Feature", "id": "68"}, {"geometry": {"type": "Point", "coordinates": [138.573636, -34.966671]}, "properties": {"stop_I": "70", "name": "Emerson Railway Station"}, "type": "Feature", "id": "69"}, {"geometry": {"type": "Point", "coordinates": [138.580038, -34.961666]}, "properties": {"stop_I": "71", "name": "Clarence Park Railway Station"}, "type": "Feature", "id": "70"}, {"geometry": {"type": "Point", "coordinates": [138.585083, -34.95186]}, "properties": {"stop_I": "72", "name": "Goodwood Railway Station"}, "type": "Feature", "id": "71"}, {"geometry": {"type": "Point", "coordinates": [138.58311, -34.94379]}, "properties": {"stop_I": "73", "name": "Adelaide Showground Railway Station"}, "type": "Feature", "id": "72"}, {"geometry": {"type": "Point", "coordinates": [138.580271, -34.925309]}, "properties": {"stop_I": "74", "name": "Mile End Railway Station"}, "type": "Feature", "id": "73"}, {"geometry": {"type": "Point", "coordinates": [138.580273, -34.924633]}, "properties": {"stop_I": "75", "name": "Mile End Railway Station"}, "type": "Feature", "id": "74"}, {"geometry": {"type": "Point", "coordinates": [138.58326, -34.94365]}, "properties": {"stop_I": "76", "name": "Adelaide Showground Railway Station"}, "type": "Feature", "id": "75"}, {"geometry": {"type": "Point", "coordinates": [138.584845, -34.950922]}, "properties": {"stop_I": "77", "name": "Goodwood Railway Station"}, "type": "Feature", "id": "76"}, {"geometry": {"type": "Point", "coordinates": [138.580767, -34.961158]}, "properties": {"stop_I": "78", "name": "Clarence Park Railway Station"}, "type": "Feature", "id": "77"}, {"geometry": {"type": "Point", "coordinates": [138.574283, -34.966209]}, "properties": {"stop_I": "79", "name": "Emerson Railway Station"}, "type": "Feature", "id": "78"}, {"geometry": {"type": "Point", "coordinates": [138.571233, -34.97175]}, "properties": {"stop_I": "80", "name": "Edwardstown Railway Station"}, "type": "Feature", "id": "79"}, {"geometry": {"type": "Point", "coordinates": [138.567483, -34.9825]}, "properties": {"stop_I": "81", "name": "Woodlands Park Railway Station"}, "type": "Feature", "id": "80"}, {"geometry": {"type": "Point", "coordinates": [138.561528, -34.990544]}, "properties": {"stop_I": "82", "name": "Ascot Park Railway Station"}, "type": "Feature", "id": "81"}, {"geometry": {"type": "Point", "coordinates": [138.553246, -34.998638]}, "properties": {"stop_I": "83", "name": "Marion Railway Station"}, "type": "Feature", "id": "82"}, {"geometry": {"type": "Point", "coordinates": [138.541083, -35.009123]}, "properties": {"stop_I": "84", "name": "Oaklands Railway Station"}, "type": "Feature", "id": "83"}, {"geometry": {"type": "Point", "coordinates": [138.534156, -35.011272]}, "properties": {"stop_I": "85", "name": "Warradale Railway Station"}, "type": "Feature", "id": "84"}, {"geometry": {"type": "Point", "coordinates": [138.524309, -35.012121]}, "properties": {"stop_I": "86", "name": "Hove Railway Station"}, "type": "Feature", "id": "85"}, {"geometry": {"type": "Point", "coordinates": [138.519154, -35.021038]}, "properties": {"stop_I": "87", "name": "Brighton Railway Station"}, "type": "Feature", "id": "86"}, {"geometry": {"type": "Point", "coordinates": [138.521449, -35.032025]}, "properties": {"stop_I": "88", "name": "Seacliff Railway Station"}, "type": "Feature", "id": "87"}, {"geometry": {"type": "Point", "coordinates": [138.517749, -35.041901]}, "properties": {"stop_I": "89", "name": "Marino Railway Station"}, "type": "Feature", "id": "88"}, {"geometry": {"type": "Point", "coordinates": [138.513157, -35.045904]}, "properties": {"stop_I": "90", "name": "Marino Rocks Railway Station"}, "type": "Feature", "id": "89"}, {"geometry": {"type": "Point", "coordinates": [138.505828, -35.065852]}, "properties": {"stop_I": "91", "name": "Hallett Cove Railway Station"}, "type": "Feature", "id": "90"}, {"geometry": {"type": "Point", "coordinates": [138.50221, -35.079132]}, "properties": {"stop_I": "92", "name": "Hallett Cove Beach Railway Station"}, "type": "Feature", "id": "91"}, {"geometry": {"type": "Point", "coordinates": [138.491489, -35.108956]}, "properties": {"stop_I": "93", "name": "Lonsdale Railway Station"}, "type": "Feature", "id": "92"}, {"geometry": {"type": "Point", "coordinates": [138.496381, -35.128749]}, "properties": {"stop_I": "94", "name": "Christie Downs Railway Station"}, "type": "Feature", "id": "93"}, {"geometry": {"type": "Point", "coordinates": [138.492614, -35.139741]}, "properties": {"stop_I": "95", "name": "Noarlunga Railway Station"}, "type": "Feature", "id": "94"}, {"geometry": {"type": "Point", "coordinates": [138.487813, -35.178377]}, "properties": {"stop_I": "96", "name": "Seaford Meadows Railway Station"}, "type": "Feature", "id": "95"}, {"geometry": {"type": "Point", "coordinates": [138.483534, -35.188857]}, "properties": {"stop_I": "97", "name": "Seaford Railway Station"}, "type": "Feature", "id": "96"}, {"geometry": {"type": "Point", "coordinates": [138.483889, -34.778803]}, "properties": {"stop_I": "98", "name": "Outer Harbor Railway Station"}, "type": "Feature", "id": "97"}, {"geometry": {"type": "Point", "coordinates": [138.494555, -34.786172]}, "properties": {"stop_I": "99", "name": "North Haven Railway Station"}, "type": "Feature", "id": "98"}, {"geometry": {"type": "Point", "coordinates": [138.499184, -34.792808]}, "properties": {"stop_I": "100", "name": "Osborne Railway Station"}, "type": "Feature", "id": "99"}, {"geometry": {"type": "Point", "coordinates": [138.499144, -34.79913]}, "properties": {"stop_I": "101", "name": "Midlunga Railway Station"}, "type": "Feature", "id": "100"}, {"geometry": {"type": "Point", "coordinates": [138.499091, -34.805356]}, "properties": {"stop_I": "102", "name": "Taperoo Railway Station"}, "type": "Feature", "id": "101"}, {"geometry": {"type": "Point", "coordinates": [138.498977, -34.814091]}, "properties": {"stop_I": "103", "name": "Draper Railway Station"}, "type": "Feature", "id": "102"}, {"geometry": {"type": "Point", "coordinates": [138.495133, -34.819784]}, "properties": {"stop_I": "104", "name": "Largs North Railway Station"}, "type": "Feature", "id": "103"}, {"geometry": {"type": "Point", "coordinates": [138.491116, -34.82728]}, "properties": {"stop_I": "105", "name": "Largs Railway Station"}, "type": "Feature", "id": "104"}, {"geometry": {"type": "Point", "coordinates": [138.491938, -34.834511]}, "properties": {"stop_I": "106", "name": "Peterhead Railway Station"}, "type": "Feature", "id": "105"}, {"geometry": {"type": "Point", "coordinates": [138.493475, -34.842075]}, "properties": {"stop_I": "107", "name": "Glanville Railway Station"}, "type": "Feature", "id": "106"}, {"geometry": {"type": "Point", "coordinates": [138.494932, -34.848532]}, "properties": {"stop_I": "108", "name": "Ethelton Railway Station"}, "type": "Feature", "id": "107"}, {"geometry": {"type": "Point", "coordinates": [138.507387, -34.849148]}, "properties": {"stop_I": "109", "name": "Port Adelaide Railway Station"}, "type": "Feature", "id": "108"}, {"geometry": {"type": "Point", "coordinates": [138.518158, -34.857716]}, "properties": {"stop_I": "110", "name": "Alberton Railway Station"}, "type": "Feature", "id": "109"}, {"geometry": {"type": "Point", "coordinates": [138.524286, -34.865428]}, "properties": {"stop_I": "111", "name": "Cheltenham Railway Station"}, "type": "Feature", "id": "110"}, {"geometry": {"type": "Point", "coordinates": [138.52934, -34.87042]}, "properties": {"stop_I": "112", "name": "St Clair Railway Station"}, "type": "Feature", "id": "111"}, {"geometry": {"type": "Point", "coordinates": [138.537473, -34.876763]}, "properties": {"stop_I": "113", "name": "Woodville Railway Station"}, "type": "Feature", "id": "112"}, {"geometry": {"type": "Point", "coordinates": [138.543347, -34.881262]}, "properties": {"stop_I": "114", "name": "Woodville Park Railway Station"}, "type": "Feature", "id": "113"}, {"geometry": {"type": "Point", "coordinates": [138.549483, -34.885983]}, "properties": {"stop_I": "115", "name": "Kilkenny Railway Station"}, "type": "Feature", "id": "114"}, {"geometry": {"type": "Point", "coordinates": [138.55669, -34.891507]}, "properties": {"stop_I": "116", "name": "West Croydon Railway Station"}, "type": "Feature", "id": "115"}, {"geometry": {"type": "Point", "coordinates": [138.563616, -34.896818]}, "properties": {"stop_I": "117", "name": "Croydon Railway Station"}, "type": "Feature", "id": "116"}, {"geometry": {"type": "Point", "coordinates": [138.575267, -34.905741]}, "properties": {"stop_I": "118", "name": "Bowden Railway Station"}, "type": "Feature", "id": "117"}, {"geometry": {"type": "Point", "coordinates": [138.491103, -34.900136]}, "properties": {"stop_I": "119", "name": "Grange Railway Station"}, "type": "Feature", "id": "118"}, {"geometry": {"type": "Point", "coordinates": [138.501417, -34.899252]}, "properties": {"stop_I": "120", "name": "East Grange Railway Station"}, "type": "Feature", "id": "119"}, {"geometry": {"type": "Point", "coordinates": [138.514855, -34.890613]}, "properties": {"stop_I": "121", "name": "Seaton Park Railway Station"}, "type": "Feature", "id": "120"}, {"geometry": {"type": "Point", "coordinates": [138.522911, -34.881876]}, "properties": {"stop_I": "122", "name": "Albert Park Railway Station"}, "type": "Feature", "id": "121"}, {"geometry": {"type": "Point", "coordinates": [138.576063, -34.906453]}, "properties": {"stop_I": "123", "name": "Bowden Railway Station"}, "type": "Feature", "id": "122"}, {"geometry": {"type": "Point", "coordinates": [138.564183, -34.897355]}, "properties": {"stop_I": "124", "name": "Croydon Railway Station"}, "type": "Feature", "id": "123"}, {"geometry": {"type": "Point", "coordinates": [138.557182, -34.891995]}, "properties": {"stop_I": "125", "name": "West Croydon Railway Station"}, "type": "Feature", "id": "124"}, {"geometry": {"type": "Point", "coordinates": [138.549899, -34.886406]}, "properties": {"stop_I": "126", "name": "Kilkenny Railway Station"}, "type": "Feature", "id": "125"}, {"geometry": {"type": "Point", "coordinates": [138.543845, -34.881706]}, "properties": {"stop_I": "127", "name": "Woodville Park Railway Station"}, "type": "Feature", "id": "126"}, {"geometry": {"type": "Point", "coordinates": [138.537997, -34.877333]}, "properties": {"stop_I": "128", "name": "Woodville Railway Station"}, "type": "Feature", "id": "127"}, {"geometry": {"type": "Point", "coordinates": [138.52933, -34.87055]}, "properties": {"stop_I": "129", "name": "St Clair Railway Station"}, "type": "Feature", "id": "128"}, {"geometry": {"type": "Point", "coordinates": [138.524748, -34.866038]}, "properties": {"stop_I": "130", "name": "Cheltenham Railway Station"}, "type": "Feature", "id": "129"}, {"geometry": {"type": "Point", "coordinates": [138.518555, -34.858368]}, "properties": {"stop_I": "131", "name": "Alberton Railway Station"}, "type": "Feature", "id": "130"}, {"geometry": {"type": "Point", "coordinates": [138.507894, -34.849159]}, "properties": {"stop_I": "132", "name": "Port Adelaide Railway Station"}, "type": "Feature", "id": "131"}, {"geometry": {"type": "Point", "coordinates": [138.494925, -34.849143]}, "properties": {"stop_I": "133", "name": "Ethelton Railway Station"}, "type": "Feature", "id": "132"}, {"geometry": {"type": "Point", "coordinates": [138.493398, -34.842566]}, "properties": {"stop_I": "134", "name": "Glanville Railway Station"}, "type": "Feature", "id": "133"}, {"geometry": {"type": "Point", "coordinates": [138.492034, -34.835049]}, "properties": {"stop_I": "135", "name": "Peterhead Railway Station"}, "type": "Feature", "id": "134"}, {"geometry": {"type": "Point", "coordinates": [138.491083, -34.82776]}, "properties": {"stop_I": "136", "name": "Largs Railway Station"}, "type": "Feature", "id": "135"}, {"geometry": {"type": "Point", "coordinates": [138.494638, -34.820121]}, "properties": {"stop_I": "137", "name": "Largs North Railway Station"}, "type": "Feature", "id": "136"}, {"geometry": {"type": "Point", "coordinates": [138.498975, -34.814727]}, "properties": {"stop_I": "138", "name": "Draper Railway Station"}, "type": "Feature", "id": "137"}, {"geometry": {"type": "Point", "coordinates": [138.499101, -34.805862]}, "properties": {"stop_I": "139", "name": "Taperoo Railway Station"}, "type": "Feature", "id": "138"}, {"geometry": {"type": "Point", "coordinates": [138.499095, -34.79993]}, "properties": {"stop_I": "140", "name": "Midlunga Railway Station"}, "type": "Feature", "id": "139"}, {"geometry": {"type": "Point", "coordinates": [138.499175, -34.793276]}, "properties": {"stop_I": "141", "name": "Osborne Railway Station"}, "type": "Feature", "id": "140"}, {"geometry": {"type": "Point", "coordinates": [138.495027, -34.786393]}, "properties": {"stop_I": "142", "name": "North Haven Railway Station"}, "type": "Feature", "id": "141"}, {"geometry": {"type": "Point", "coordinates": [138.483906, -34.778839]}, "properties": {"stop_I": "143", "name": "Outer Harbor Railway Station"}, "type": "Feature", "id": "142"}, {"geometry": {"type": "Point", "coordinates": [138.523371, -34.881391]}, "properties": {"stop_I": "144", "name": "Albert Park Railway Station"}, "type": "Feature", "id": "143"}, {"geometry": {"type": "Point", "coordinates": [138.515176, -34.890261]}, "properties": {"stop_I": "145", "name": "Seaton Park Railway Station"}, "type": "Feature", "id": "144"}, {"geometry": {"type": "Point", "coordinates": [138.502011, -34.899222]}, "properties": {"stop_I": "146", "name": "East Grange Railway Station"}, "type": "Feature", "id": "145"}, {"geometry": {"type": "Point", "coordinates": [138.491105, -34.900106]}, "properties": {"stop_I": "147", "name": "Grange Railway Station"}, "type": "Feature", "id": "146"}, {"geometry": {"type": "Point", "coordinates": [138.632404, -34.998108]}, "properties": {"stop_I": "148", "name": "Belair Railway Station"}, "type": "Feature", "id": "147"}, {"geometry": {"type": "Point", "coordinates": [138.624193, -35.00084]}, "properties": {"stop_I": "149", "name": "Pinera Railway Station"}, "type": "Feature", "id": "148"}, {"geometry": {"type": "Point", "coordinates": [138.62318, -35.011412]}, "properties": {"stop_I": "150", "name": "Glenalta Railway Station"}, "type": "Feature", "id": "149"}, {"geometry": {"type": "Point", "coordinates": [138.619168, -35.020925]}, "properties": {"stop_I": "151", "name": "Blackwood Railway Station"}, "type": "Feature", "id": "150"}, {"geometry": {"type": "Point", "coordinates": [138.613981, -35.025127]}, "properties": {"stop_I": "152", "name": "Coromandel Railway Station"}, "type": "Feature", "id": "151"}, {"geometry": {"type": "Point", "coordinates": [138.594374, -35.021636]}, "properties": {"stop_I": "153", "name": "Eden Hills Railway Station"}, "type": "Feature", "id": "152"}, {"geometry": {"type": "Point", "coordinates": [138.605757, -34.995313]}, "properties": {"stop_I": "154", "name": "Lynton Railway Station"}, "type": "Feature", "id": "153"}, {"geometry": {"type": "Point", "coordinates": [138.611081, -34.984123]}, "properties": {"stop_I": "155", "name": "Torrens Park Railway Station"}, "type": "Feature", "id": "154"}, {"geometry": {"type": "Point", "coordinates": [138.608857, -34.977575]}, "properties": {"stop_I": "156", "name": "Mitcham Railway Station"}, "type": "Feature", "id": "155"}, {"geometry": {"type": "Point", "coordinates": [138.598, -34.966647]}, "properties": {"stop_I": "157", "name": "Unley Park Railway Station"}, "type": "Feature", "id": "156"}, {"geometry": {"type": "Point", "coordinates": [138.590686, -34.958948]}, "properties": {"stop_I": "158", "name": "Millswood Railway Station"}, "type": "Feature", "id": "157"}, {"geometry": {"type": "Point", "coordinates": [138.590485, -34.958721]}, "properties": {"stop_I": "159", "name": "Millswood Railway Station"}, "type": "Feature", "id": "158"}, {"geometry": {"type": "Point", "coordinates": [138.597601, -34.966235]}, "properties": {"stop_I": "160", "name": "Unley Park Railway Station"}, "type": "Feature", "id": "159"}, {"geometry": {"type": "Point", "coordinates": [138.608251, -34.976877]}, "properties": {"stop_I": "161", "name": "Mitcham Railway Station"}, "type": "Feature", "id": "160"}, {"geometry": {"type": "Point", "coordinates": [138.61112, -34.983718]}, "properties": {"stop_I": "162", "name": "Torrens Park Railway Station"}, "type": "Feature", "id": "161"}, {"geometry": {"type": "Point", "coordinates": [138.605991, -34.994993]}, "properties": {"stop_I": "163", "name": "Lynton Railway Station"}, "type": "Feature", "id": "162"}, {"geometry": {"type": "Point", "coordinates": [138.594342, -35.020654]}, "properties": {"stop_I": "164", "name": "Eden Hills Railway Station"}, "type": "Feature", "id": "163"}, {"geometry": {"type": "Point", "coordinates": [138.614472, -35.025154]}, "properties": {"stop_I": "165", "name": "Coromandel Railway Station"}, "type": "Feature", "id": "164"}, {"geometry": {"type": "Point", "coordinates": [138.619065, -35.020554]}, "properties": {"stop_I": "166", "name": "Blackwood Railway Station"}, "type": "Feature", "id": "165"}, {"geometry": {"type": "Point", "coordinates": [138.6232, -35.011097]}, "properties": {"stop_I": "167", "name": "Glenalta Railway Station"}, "type": "Feature", "id": "166"}, {"geometry": {"type": "Point", "coordinates": [138.62438, -35.000591]}, "properties": {"stop_I": "168", "name": "Pinera Railway Station"}, "type": "Feature", "id": "167"}, {"geometry": {"type": "Point", "coordinates": [138.632399, -34.998073]}, "properties": {"stop_I": "169", "name": "Belair Railway Station"}, "type": "Feature", "id": "168"}, {"geometry": {"type": "Point", "coordinates": [138.566333, -35.015028]}, "properties": {"stop_I": "170", "name": "Tonsley Railway Station"}, "type": "Feature", "id": "169"}, {"geometry": {"type": "Point", "coordinates": [138.567193, -35.007654]}, "properties": {"stop_I": "171", "name": "Clovelly Park Railway Station"}, "type": "Feature", "id": "170"}, {"geometry": {"type": "Point", "coordinates": [138.566733, -35.001966]}, "properties": {"stop_I": "172", "name": "Mitchell Park Railway Station"}, "type": "Feature", "id": "171"}, {"geometry": {"type": "Point", "coordinates": [138.566576, -35.001408]}, "properties": {"stop_I": "173", "name": "Mitchell Park Railway Station"}, "type": "Feature", "id": "172"}, {"geometry": {"type": "Point", "coordinates": [138.567149, -35.00713]}, "properties": {"stop_I": "174", "name": "Clovelly Park Railway Station"}, "type": "Feature", "id": "173"}, {"geometry": {"type": "Point", "coordinates": [138.566286, -35.01501]}, "properties": {"stop_I": "175", "name": "Tonsley Railway Station"}, "type": "Feature", "id": "174"}, {"geometry": {"type": "Point", "coordinates": [138.538155, -34.975696]}, "properties": {"stop_I": "176", "name": "Stop 12 Morphett Rd"}, "type": "Feature", "id": "175"}, {"geometry": {"type": "Point", "coordinates": [138.547536, -34.970948]}, "properties": {"stop_I": "177", "name": "Stop 11 Plympton Park"}, "type": "Feature", "id": "176"}, {"geometry": {"type": "Point", "coordinates": [138.555326, -34.967003]}, "properties": {"stop_I": "178", "name": "Stop 10 Marion Rd"}, "type": "Feature", "id": "177"}, {"geometry": {"type": "Point", "coordinates": [138.559666, -34.964805]}, "properties": {"stop_I": "179", "name": "Stop 9 South Plympton"}, "type": "Feature", "id": "178"}, {"geometry": {"type": "Point", "coordinates": [138.563883, -34.962675]}, "properties": {"stop_I": "180", "name": "Stop 8 Beckman St"}, "type": "Feature", "id": "179"}, {"geometry": {"type": "Point", "coordinates": [138.56813, -34.960522]}, "properties": {"stop_I": "181", "name": "Stop 7 Glandore"}, "type": "Feature", "id": "180"}, {"geometry": {"type": "Point", "coordinates": [138.572128, -34.958546]}, "properties": {"stop_I": "182", "name": "Stop 6 South Rd"}, "type": "Feature", "id": "181"}, {"geometry": {"type": "Point", "coordinates": [138.57692, -34.956159]}, "properties": {"stop_I": "183", "name": "Stop 5 Black Forest"}, "type": "Feature", "id": "182"}, {"geometry": {"type": "Point", "coordinates": [138.581688, -34.953642]}, "properties": {"stop_I": "184", "name": "Stop 4 Forestville"}, "type": "Feature", "id": "183"}, {"geometry": {"type": "Point", "coordinates": [138.589872, -34.94951]}, "properties": {"stop_I": "185", "name": "Stop 3 Goodwood Rd"}, "type": "Feature", "id": "184"}, {"geometry": {"type": "Point", "coordinates": [138.593998, -34.947409]}, "properties": {"stop_I": "186", "name": "Stop 2 Wayville"}, "type": "Feature", "id": "185"}, {"geometry": {"type": "Point", "coordinates": [138.600063, -34.941824]}, "properties": {"stop_I": "187", "name": "Stop 1 Greenhill Rd"}, "type": "Feature", "id": "186"}, {"geometry": {"type": "Point", "coordinates": [138.600283, -34.936625]}, "properties": {"stop_I": "188", "name": "Stop Tram South Terrace"}, "type": "Feature", "id": "187"}, {"geometry": {"type": "Point", "coordinates": [138.600285, -34.933237]}, "properties": {"stop_I": "189", "name": "Stop Tram City South"}, "type": "Feature", "id": "188"}, {"geometry": {"type": "Point", "coordinates": [138.599355, -34.929148]}, "properties": {"stop_I": "190", "name": "Stop Tram Victoria Square"}, "type": "Feature", "id": "189"}, {"geometry": {"type": "Point", "coordinates": [138.599697, -34.925579]}, "properties": {"stop_I": "191", "name": "Stop Tram Pirie St"}, "type": "Feature", "id": "190"}, {"geometry": {"type": "Point", "coordinates": [138.599485, -34.922827]}, "properties": {"stop_I": "192", "name": "Stop Tram Rundle Mall"}, "type": "Feature", "id": "191"}, {"geometry": {"type": "Point", "coordinates": [138.597596, -34.921676]}, "properties": {"stop_I": "193", "name": "Stop Tram Adelaide Railway Station"}, "type": "Feature", "id": "192"}, {"geometry": {"type": "Point", "coordinates": [138.592896, -34.921879]}, "properties": {"stop_I": "194", "name": "Stop Tram City West"}, "type": "Feature", "id": "193"}, {"geometry": {"type": "Point", "coordinates": [138.588056, -34.922104]}, "properties": {"stop_I": "195", "name": "Stop Tram West Tce"}, "type": "Feature", "id": "194"}, {"geometry": {"type": "Point", "coordinates": [138.578537, -34.9177]}, "properties": {"stop_I": "196", "name": "Stop Tram Thebarton"}, "type": "Feature", "id": "195"}, {"geometry": {"type": "Point", "coordinates": [138.577783, -34.91327]}, "properties": {"stop_I": "197", "name": "Stop Tram Bonython Park"}, "type": "Feature", "id": "196"}, {"geometry": {"type": "Point", "coordinates": [138.575041, -34.907292]}, "properties": {"stop_I": "198", "name": "Stop Tram Entertainment Centre"}, "type": "Feature", "id": "197"}, {"geometry": {"type": "Point", "coordinates": [138.512008, -34.980404]}, "properties": {"stop_I": "199", "name": "Stop 17 Moseley Square"}, "type": "Feature", "id": "198"}, {"geometry": {"type": "Point", "coordinates": [138.516592133235, -34.9801606956209]}, "properties": {"stop_I": "200", "name": "Stop 16 Jetty Rd - North side"}, "type": "Feature", "id": "199"}, {"geometry": {"type": "Point", "coordinates": [138.52059, -34.979969]}, "properties": {"stop_I": "201", "name": "Stop 15 Dunbar Tce - Brighton Rd"}, "type": "Feature", "id": "200"}, {"geometry": {"type": "Point", "coordinates": [138.525271, -34.97972]}, "properties": {"stop_I": "202", "name": "Stop 14 Glenelg East"}, "type": "Feature", "id": "201"}, {"geometry": {"type": "Point", "coordinates": [138.531744, -34.978766]}, "properties": {"stop_I": "203", "name": "Stop 13 Glengowrie"}, "type": "Feature", "id": "202"}, {"geometry": {"type": "Point", "coordinates": [138.531129, -34.978873]}, "properties": {"stop_I": "204", "name": "Stop 13 Glengowrie"}, "type": "Feature", "id": "203"}, {"geometry": {"type": "Point", "coordinates": [138.525912, -34.979759]}, "properties": {"stop_I": "205", "name": "Stop 14 Glenelg East"}, "type": "Feature", "id": "204"}, {"geometry": {"type": "Point", "coordinates": [138.520692, -34.980034]}, "properties": {"stop_I": "206", "name": "Stop 15 Dunbar Tce - Brighton Rd"}, "type": "Feature", "id": "205"}, {"geometry": {"type": "Point", "coordinates": [138.517073202622, -34.9802179395797]}, "properties": {"stop_I": "207", "name": "Stop 16/21D Jetty Rd - South side"}, "type": "Feature", "id": "206"}, {"geometry": {"type": "Point", "coordinates": [138.511824, -34.980414]}, "properties": {"stop_I": "208", "name": "Stop 17 Moseley Square"}, "type": "Feature", "id": "207"}, {"geometry": {"type": "Point", "coordinates": [138.574931, -34.907213]}, "properties": {"stop_I": "209", "name": "Stop Tram Entertainment Centre"}, "type": "Feature", "id": "208"}, {"geometry": {"type": "Point", "coordinates": [138.577755, -34.912829]}, "properties": {"stop_I": "210", "name": "Stop Tram Bonython Park"}, "type": "Feature", "id": "209"}, {"geometry": {"type": "Point", "coordinates": [138.578503, -34.917543]}, "properties": {"stop_I": "211", "name": "Stop Tram Thebarton"}, "type": "Feature", "id": "210"}, {"geometry": {"type": "Point", "coordinates": [138.587951, -34.922105]}, "properties": {"stop_I": "212", "name": "Stop Tram West Tce"}, "type": "Feature", "id": "211"}, {"geometry": {"type": "Point", "coordinates": [138.592567, -34.92184]}, "properties": {"stop_I": "213", "name": "Stop Tram City West"}, "type": "Feature", "id": "212"}, {"geometry": {"type": "Point", "coordinates": [138.597188, -34.921635]}, "properties": {"stop_I": "214", "name": "Stop Tram Adelaide Railway Station"}, "type": "Feature", "id": "213"}, {"geometry": {"type": "Point", "coordinates": [138.599515, -34.922566]}, "properties": {"stop_I": "215", "name": "Stop Tram Rundle Mall"}, "type": "Feature", "id": "214"}, {"geometry": {"type": "Point", "coordinates": [138.599729, -34.925359]}, "properties": {"stop_I": "216", "name": "Stop Tram Pirie St"}, "type": "Feature", "id": "215"}, {"geometry": {"type": "Point", "coordinates": [138.599288, -34.929029]}, "properties": {"stop_I": "217", "name": "Stop Tram Victoria Square"}, "type": "Feature", "id": "216"}, {"geometry": {"type": "Point", "coordinates": [138.600253, -34.932543]}, "properties": {"stop_I": "218", "name": "Stop Tram City South"}, "type": "Feature", "id": "217"}, {"geometry": {"type": "Point", "coordinates": [138.600339, -34.936437]}, "properties": {"stop_I": "219", "name": "Stop Tram South Terrace"}, "type": "Feature", "id": "218"}, {"geometry": {"type": "Point", "coordinates": [138.600236, -34.941614]}, "properties": {"stop_I": "220", "name": "Stop 1 Greenhill Rd"}, "type": "Feature", "id": "219"}, {"geometry": {"type": "Point", "coordinates": [138.594525284071, -34.94721778]}, "properties": {"stop_I": "221", "name": "Stop 2 Wayville"}, "type": "Feature", "id": "220"}, {"geometry": {"type": "Point", "coordinates": [138.589367, -34.949815]}, "properties": {"stop_I": "222", "name": "Stop 3 Goodwood Rd"}, "type": "Feature", "id": "221"}, {"geometry": {"type": "Point", "coordinates": [138.581083, -34.954046]}, "properties": {"stop_I": "223", "name": "Stop 4 Forestville"}, "type": "Feature", "id": "222"}, {"geometry": {"type": "Point", "coordinates": [138.576341, -34.956363]}, "properties": {"stop_I": "224", "name": "Stop 5 Black Forest"}, "type": "Feature", "id": "223"}, {"geometry": {"type": "Point", "coordinates": [138.572479, -34.958416]}, "properties": {"stop_I": "225", "name": "Stop 6 South Rd"}, "type": "Feature", "id": "224"}, {"geometry": {"type": "Point", "coordinates": [138.56871, -34.960313]}, "properties": {"stop_I": "226", "name": "Stop 7 Glandore"}, "type": "Feature", "id": "225"}, {"geometry": {"type": "Point", "coordinates": [138.563219, -34.96309]}, "properties": {"stop_I": "227", "name": "Stop 8 Beckman St"}, "type": "Feature", "id": "226"}, {"geometry": {"type": "Point", "coordinates": [138.560242, -34.964604]}, "properties": {"stop_I": "228", "name": "Stop 9 South Plympton"}, "type": "Feature", "id": "227"}, {"geometry": {"type": "Point", "coordinates": [138.554638, -34.96744]}, "properties": {"stop_I": "229", "name": "Stop 10 Marion Rd"}, "type": "Feature", "id": "228"}, {"geometry": {"type": "Point", "coordinates": [138.548119, -34.970741]}, "properties": {"stop_I": "230", "name": "Stop 11 Plympton Park"}, "type": "Feature", "id": "229"}, {"geometry": {"type": "Point", "coordinates": [138.536884, -34.976425]}, "properties": {"stop_I": "231", "name": "Stop 12 Morphett Rd"}, "type": "Feature", "id": "230"}, {"geometry": {"type": "Point", "coordinates": [138.85443, -35.0643]}, "properties": {"stop_I": "235", "name": "Stop 63 Adelaide Rd - West side"}, "type": "Feature", "id": "231"}, {"geometry": {"type": "Point", "coordinates": [138.852230990964, -35.0603961376455]}, "properties": {"stop_I": "236", "name": "Stop 62 Adelaide Rd - West side"}, "type": "Feature", "id": "232"}, {"geometry": {"type": "Point", "coordinates": [138.85177, -35.05444]}, "properties": {"stop_I": "237", "name": "Stop 61 Mt Barker Rd - South side"}, "type": "Feature", "id": "233"}, {"geometry": {"type": "Point", "coordinates": [138.84414, -35.05207]}, "properties": {"stop_I": "238", "name": "Stop 60 Mt Barker Rd - South West side"}, "type": "Feature", "id": "234"}, {"geometry": {"type": "Point", "coordinates": [138.838804695587, -35.0488917249599]}, "properties": {"stop_I": "239", "name": "Stop 59 Mt Barker Rd - South West side"}, "type": "Feature", "id": "235"}, {"geometry": {"type": "Point", "coordinates": [138.83404, -35.04532]}, "properties": {"stop_I": "240", "name": "Stop 58 Mt Barker Rd - West side"}, "type": "Feature", "id": "236"}, {"geometry": {"type": "Point", "coordinates": [138.81777, -35.03761]}, "properties": {"stop_I": "241", "name": "Stop 57 Mt Barker Rd - South side"}, "type": "Feature", "id": "237"}, {"geometry": {"type": "Point", "coordinates": [138.813055, -35.033915]}, "properties": {"stop_I": "242", "name": "Stop 56 Mt Barker Rd - West side"}, "type": "Feature", "id": "238"}, {"geometry": {"type": "Point", "coordinates": [138.810501, -35.030034]}, "properties": {"stop_I": "244", "name": "Stop 55 Mt Barker Rd - East side"}, "type": "Feature", "id": "239"}, {"geometry": {"type": "Point", "coordinates": [138.81321, -35.03397]}, "properties": {"stop_I": "245", "name": "Stop 56 Mt Barker Rd - East side"}, "type": "Feature", "id": "240"}, {"geometry": {"type": "Point", "coordinates": [138.81794, -35.03759]}, "properties": {"stop_I": "246", "name": "Stop 57 Mt Barker Rd - North side"}, "type": "Feature", "id": "241"}, {"geometry": {"type": "Point", "coordinates": [138.83496, -35.04595]}, "properties": {"stop_I": "247", "name": "Stop 58 Mt Barker Rd - East side"}, "type": "Feature", "id": "242"}, {"geometry": {"type": "Point", "coordinates": [138.838611354919, -35.0485273597312]}, "properties": {"stop_I": "248", "name": "Stop 59 Mt Barker Rd - North East side"}, "type": "Feature", "id": "243"}, {"geometry": {"type": "Point", "coordinates": [138.843934988489, -35.0518541762057]}, "properties": {"stop_I": "249", "name": "Stop 60 Mt Barker Rd - North East side"}, "type": "Feature", "id": "244"}, {"geometry": {"type": "Point", "coordinates": [138.85176, -35.05423]}, "properties": {"stop_I": "250", "name": "Stop 61 Mt Barker Rd - North side"}, "type": "Feature", "id": "245"}, {"geometry": {"type": "Point", "coordinates": [138.8526, -35.06052]}, "properties": {"stop_I": "251", "name": "Stop 62 Adelaide Rd - East side"}, "type": "Feature", "id": "246"}, {"geometry": {"type": "Point", "coordinates": [138.85469, -35.06438]}, "properties": {"stop_I": "252", "name": "Stop 63 Adelaide Rd - East side"}, "type": "Feature", "id": "247"}, {"geometry": {"type": "Point", "coordinates": [138.495256, -35.139636]}, "properties": {"stop_I": "254", "name": "Zone A Colonnades Interchange"}, "type": "Feature", "id": "248"}, {"geometry": {"type": "Point", "coordinates": [138.499519537616, -35.1388272828431]}, "properties": {"stop_I": "255", "name": "Stop 64A Alexander Kelly Dr - North side"}, "type": "Feature", "id": "249"}, {"geometry": {"type": "Point", "coordinates": [138.50395, -35.13769]}, "properties": {"stop_I": "256", "name": "Stop 64 Beach Rd - North side"}, "type": "Feature", "id": "250"}, {"geometry": {"type": "Point", "coordinates": [138.508112340798, -35.1374908059788]}, "properties": {"stop_I": "257", "name": "Stop 63 Beach Rd - North side"}, "type": "Feature", "id": "251"}, {"geometry": {"type": "Point", "coordinates": [138.51239, -35.13725]}, "properties": {"stop_I": "258", "name": "Stop 62 Beach Rd - North side"}, "type": "Feature", "id": "252"}, {"geometry": {"type": "Point", "coordinates": [138.515496035217, -35.1371191652585]}, "properties": {"stop_I": "259", "name": "Stop 61 Beach Rd - North side"}, "type": "Feature", "id": "253"}, {"geometry": {"type": "Point", "coordinates": [138.519465323035, -35.136922092866]}, "properties": {"stop_I": "260", "name": "Stop 60 Beach Rd - North side"}, "type": "Feature", "id": "254"}, {"geometry": {"type": "Point", "coordinates": [138.52239, -35.13675]}, "properties": {"stop_I": "261", "name": "Stop 59 Beach Rd - North side"}, "type": "Feature", "id": "255"}, {"geometry": {"type": "Point", "coordinates": [138.524081589671, -35.1350801606532]}, "properties": {"stop_I": "262", "name": "Stop 58 Main South Rd - West side"}, "type": "Feature", "id": "256"}, {"geometry": {"type": "Point", "coordinates": [138.523843, -35.13181]}, "properties": {"stop_I": "263", "name": "Stop 57 Main South Rd - West side"}, "type": "Feature", "id": "257"}, {"geometry": {"type": "Point", "coordinates": [138.52363357623, -35.1293283356113]}, "properties": {"stop_I": "264", "name": "Stop 56 Main South Rd - West side"}, "type": "Feature", "id": "258"}, {"geometry": {"type": "Point", "coordinates": [138.52330858353, -35.1251866610653]}, "properties": {"stop_I": "265", "name": "Stop 55 Main South Rd - West side"}, "type": "Feature", "id": "259"}, {"geometry": {"type": "Point", "coordinates": [138.523047792489, -35.1214283699814]}, "properties": {"stop_I": "266", "name": "Stop 54 Main South Rd - West side"}, "type": "Feature", "id": "260"}, {"geometry": {"type": "Point", "coordinates": [138.52289, -35.1192]}, "properties": {"stop_I": "267", "name": "Stop 53 Main South Rd - West side"}, "type": "Feature", "id": "261"}, {"geometry": {"type": "Point", "coordinates": [138.522541537423, -35.1148846189568]}, "properties": {"stop_I": "268", "name": "Stop 52 Main South Rd - West side"}, "type": "Feature", "id": "262"}, {"geometry": {"type": "Point", "coordinates": [138.52242, -35.11282]}, "properties": {"stop_I": "269", "name": "Stop 51 Main South Rd - West side"}, "type": "Feature", "id": "263"}, {"geometry": {"type": "Point", "coordinates": [138.523132426423, -35.1093168120081]}, "properties": {"stop_I": "270", "name": "Stop 50 Main South Rd - North West side"}, "type": "Feature", "id": "264"}, {"geometry": {"type": "Point", "coordinates": [138.52491, -35.10743]}, "properties": {"stop_I": "271", "name": "Stop 49 Main South Rd - North West side"}, "type": "Feature", "id": "265"}, {"geometry": {"type": "Point", "coordinates": [138.52839, -35.10373]}, "properties": {"stop_I": "272", "name": "Stop 48 Main South Rd - North West side"}, "type": "Feature", "id": "266"}, {"geometry": {"type": "Point", "coordinates": [138.531305710541, -35.100672910045]}, "properties": {"stop_I": "273", "name": "Stop 47 Main South Rd - North West side"}, "type": "Feature", "id": "267"}, {"geometry": {"type": "Point", "coordinates": [138.53317, -35.09872]}, "properties": {"stop_I": "274", "name": "Stop 46 Main South Rd - North West side"}, "type": "Feature", "id": "268"}, {"geometry": {"type": "Point", "coordinates": [138.535646, -35.094121]}, "properties": {"stop_I": "275", "name": "Stop 45A Grant Rd - North side"}, "type": "Feature", "id": "269"}, {"geometry": {"type": "Point", "coordinates": [138.537942320108, -35.0955009301346]}, "properties": {"stop_I": "276", "name": "Zone B Old Reynella Interchange"}, "type": "Feature", "id": "270"}, {"geometry": {"type": "Point", "coordinates": [138.539813106001, -35.0928113135692]}, "properties": {"stop_I": "277", "name": "Stop 44 Old South Rd - West side"}, "type": "Feature", "id": "271"}, {"geometry": {"type": "Point", "coordinates": [138.54151, -35.08893]}, "properties": {"stop_I": "278", "name": "Stop 43 Old South Rd - North West side"}, "type": "Feature", "id": "272"}, {"geometry": {"type": "Point", "coordinates": [138.544135808473, -35.0866308976936]}, "properties": {"stop_I": "279", "name": "Stop 42 Old South Rd - West side"}, "type": "Feature", "id": "273"}, {"geometry": {"type": "Point", "coordinates": [138.546174, -35.082051]}, "properties": {"stop_I": "280", "name": "Stop 40 Old South Rd - West side"}, "type": "Feature", "id": "274"}, {"geometry": {"type": "Point", "coordinates": [138.548173108872, -35.078030019836]}, "properties": {"stop_I": "281", "name": "Stop 39 Main South Rd - West side"}, "type": "Feature", "id": "275"}, {"geometry": {"type": "Point", "coordinates": [138.551044832073, -35.0745139848723]}, "properties": {"stop_I": "282", "name": "Stop 38 Main South Rd - North West side"}, "type": "Feature", "id": "276"}, {"geometry": {"type": "Point", "coordinates": [138.553430054051, -35.0715597227615]}, "properties": {"stop_I": "283", "name": "Stop 37 Main South Rd - West side"}, "type": "Feature", "id": "277"}, {"geometry": {"type": "Point", "coordinates": [138.55445, -35.06836]}, "properties": {"stop_I": "284", "name": "Stop 36 Main South Rd - West side"}, "type": "Feature", "id": "278"}, {"geometry": {"type": "Point", "coordinates": [138.554673691594, -35.0659477215404]}, "properties": {"stop_I": "285", "name": "Stop 35 Main South Rd - West side"}, "type": "Feature", "id": "279"}, {"geometry": {"type": "Point", "coordinates": [138.558122281463, -35.0616131707932]}, "properties": {"stop_I": "286", "name": "Stop 34 Main South Rd - West side"}, "type": "Feature", "id": "280"}, {"geometry": {"type": "Point", "coordinates": [138.559543, -35.056387]}, "properties": {"stop_I": "287", "name": "Stop 33 Main South Rd - West side"}, "type": "Feature", "id": "281"}, {"geometry": {"type": "Point", "coordinates": [138.559127446045, -35.0516780096491]}, "properties": {"stop_I": "288", "name": "Stop 32 Main South Rd - West side"}, "type": "Feature", "id": "282"}, {"geometry": {"type": "Point", "coordinates": [138.5602, -35.04686]}, "properties": {"stop_I": "289", "name": "Stop 31 Main South Rd - West side"}, "type": "Feature", "id": "283"}, {"geometry": {"type": "Point", "coordinates": [138.55532173319, -35.0278404721966]}, "properties": {"stop_I": "290", "name": "Stop 31D Diagonal Rd - South West side"}, "type": "Feature", "id": "284"}, {"geometry": {"type": "Point", "coordinates": [138.553744472678, -35.0260294920473]}, "properties": {"stop_I": "291", "name": "Stop 32D Diagonal Rd - South West side"}, "type": "Feature", "id": "285"}, {"geometry": {"type": "Point", "coordinates": [138.551237695327, -35.0231283689429]}, "properties": {"stop_I": "292", "name": "Stop 33D Diagonal Rd - South West side"}, "type": "Feature", "id": "286"}, {"geometry": {"type": "Point", "coordinates": [138.54992, -35.02063]}, "properties": {"stop_I": "293", "name": "Stop 31 Diagonal Rd - West side"}, "type": "Feature", "id": "287"}, {"geometry": {"type": "Point", "coordinates": [138.54976, -35.01899]}, "properties": {"stop_I": "294", "name": "Stop 32 Diagonal Rd - West side"}, "type": "Feature", "id": "288"}, {"geometry": {"type": "Point", "coordinates": [138.54552, -35.017518]}, "properties": {"stop_I": "295", "name": "Zone C Marion Interchange - North side"}, "type": "Feature", "id": "289"}, {"geometry": {"type": "Point", "coordinates": [138.5512, -35.01744]}, "properties": {"stop_I": "296", "name": "Stop 29D Sturt Rd - North side"}, "type": "Feature", "id": "290"}, {"geometry": {"type": "Point", "coordinates": [138.553707081491, -35.0173088852809]}, "properties": {"stop_I": "297", "name": "Stop 29C Sturt Rd - North side"}, "type": "Feature", "id": "291"}, {"geometry": {"type": "Point", "coordinates": [138.5564705487, -35.0171647837157]}, "properties": {"stop_I": "298", "name": "Stop 29B Sturt Rd - North side"}, "type": "Feature", "id": "292"}, {"geometry": {"type": "Point", "coordinates": [138.561553, -35.016901]}, "properties": {"stop_I": "299", "name": "Stop 29A Sturt Rd - North side"}, "type": "Feature", "id": "293"}, {"geometry": {"type": "Point", "coordinates": [138.563977, -35.016799]}, "properties": {"stop_I": "300", "name": "Stop 28 Sturt Rd - North side"}, "type": "Feature", "id": "294"}, {"geometry": {"type": "Point", "coordinates": [138.567776903888, -35.0165897583361]}, "properties": {"stop_I": "301", "name": "Stop 27 Sturt Rd - North side"}, "type": "Feature", "id": "295"}, {"geometry": {"type": "Point", "coordinates": [138.57099674465, -35.0153348157682]}, "properties": {"stop_I": "302", "name": "Stop 26 Main South Rd - North West side"}, "type": "Feature", "id": "296"}, {"geometry": {"type": "Point", "coordinates": [138.573102143661, -35.0135005217193]}, "properties": {"stop_I": "303", "name": "Stop 25B Main South Rd - North West side"}, "type": "Feature", "id": "297"}, {"geometry": {"type": "Point", "coordinates": [138.574385737586, -35.012326138252]}, "properties": {"stop_I": "304", "name": "Stop 25A Main South Rd - North West side"}, "type": "Feature", "id": "298"}, {"geometry": {"type": "Point", "coordinates": [138.57582, -35.00928]}, "properties": {"stop_I": "305", "name": "Stop 25 South Rd - West side"}, "type": "Feature", "id": "299"}, {"geometry": {"type": "Point", "coordinates": [138.575721202502, -35.0073541284016]}, "properties": {"stop_I": "306", "name": "Stop 24A South Rd - West side"}, "type": "Feature", "id": "300"}, {"geometry": {"type": "Point", "coordinates": [138.575629968428, -35.0045464845164]}, "properties": {"stop_I": "307", "name": "Stop 24 South Rd - West side"}, "type": "Feature", "id": "301"}, {"geometry": {"type": "Point", "coordinates": [138.57548, -35.00228]}, "properties": {"stop_I": "308", "name": "Stop 23 South Rd - West side"}, "type": "Feature", "id": "302"}, {"geometry": {"type": "Point", "coordinates": [138.57533, -35.00024]}, "properties": {"stop_I": "309", "name": "Stop 22 South Rd - West side"}, "type": "Feature", "id": "303"}, {"geometry": {"type": "Point", "coordinates": [138.575095455195, -34.9975466667464]}, "properties": {"stop_I": "310", "name": "Stop 21 South Rd - West side"}, "type": "Feature", "id": "304"}, {"geometry": {"type": "Point", "coordinates": [138.57489, -34.99466]}, "properties": {"stop_I": "311", "name": "Stop 20 South Rd - West side"}, "type": "Feature", "id": "305"}, {"geometry": {"type": "Point", "coordinates": [138.574686074493, -34.9919651147003]}, "properties": {"stop_I": "312", "name": "Stop 19 South Rd - West side"}, "type": "Feature", "id": "306"}, {"geometry": {"type": "Point", "coordinates": [138.574503535212, -34.9894582047615]}, "properties": {"stop_I": "313", "name": "Stop 18 South Rd - West side"}, "type": "Feature", "id": "307"}, {"geometry": {"type": "Point", "coordinates": [138.57426, -34.98666]}, "properties": {"stop_I": "314", "name": "Stop 17 South Rd - West side"}, "type": "Feature", "id": "308"}, {"geometry": {"type": "Point", "coordinates": [138.57405771397, -34.9836843954792]}, "properties": {"stop_I": "315", "name": "Stop 16 South Rd - West side"}, "type": "Feature", "id": "309"}, {"geometry": {"type": "Point", "coordinates": [138.573860957532, -34.9812731319021]}, "properties": {"stop_I": "316", "name": "Stop 15 South Rd - West side"}, "type": "Feature", "id": "310"}, {"geometry": {"type": "Point", "coordinates": [138.57357433208, -34.977408884447]}, "properties": {"stop_I": "317", "name": "Stop 14 South Rd - West side"}, "type": "Feature", "id": "311"}, {"geometry": {"type": "Point", "coordinates": [138.57349, -34.97577]}, "properties": {"stop_I": "318", "name": "Stop 13 South Rd - West side"}, "type": "Feature", "id": "312"}, {"geometry": {"type": "Point", "coordinates": [138.573261859975, -34.972840722363]}, "properties": {"stop_I": "319", "name": "Stop 12 South Rd - West side"}, "type": "Feature", "id": "313"}, {"geometry": {"type": "Point", "coordinates": [138.57313, -34.97093]}, "properties": {"stop_I": "320", "name": "Stop 11 South Rd - West side"}, "type": "Feature", "id": "314"}, {"geometry": {"type": "Point", "coordinates": [138.57285, -34.9689]}, "properties": {"stop_I": "321", "name": "Stop 10 South Rd - West side"}, "type": "Feature", "id": "315"}, {"geometry": {"type": "Point", "coordinates": [138.57257, -34.96466]}, "properties": {"stop_I": "322", "name": "Stop 9 South Rd - West side"}, "type": "Feature", "id": "316"}, {"geometry": {"type": "Point", "coordinates": [138.572435410927, -34.9614434153598]}, "properties": {"stop_I": "323", "name": "Stop 8 South Rd - West side"}, "type": "Feature", "id": "317"}, {"geometry": {"type": "Point", "coordinates": [138.572211, -34.958671]}, "properties": {"stop_I": "324", "name": "Stop 7 South Rd - West side"}, "type": "Feature", "id": "318"}, {"geometry": {"type": "Point", "coordinates": [138.57129, -34.95407]}, "properties": {"stop_I": "325", "name": "Stop 6 South Rd - West side"}, "type": "Feature", "id": "319"}, {"geometry": {"type": "Point", "coordinates": [138.57391815, -34.951418792]}, "properties": {"stop_I": "326", "name": "Stop 4 Anzac Hwy - North West side"}, "type": "Feature", "id": "320"}, {"geometry": {"type": "Point", "coordinates": [138.576567204, -34.949330692]}, "properties": {"stop_I": "327", "name": "Stop 3 Anzac Hwy - North West side"}, "type": "Feature", "id": "321"}, {"geometry": {"type": "Point", "coordinates": [138.57926876, -34.946188862]}, "properties": {"stop_I": "328", "name": "Stop 2 Anzac Hwy - North West side"}, "type": "Feature", "id": "322"}, {"geometry": {"type": "Point", "coordinates": [138.58346360502, -34.9411725848847]}, "properties": {"stop_I": "329", "name": "Stop 1 Anzac Hwy - North West side"}, "type": "Feature", "id": "323"}, {"geometry": {"type": "Point", "coordinates": [138.587948532697, -34.9338457634043]}, "properties": {"stop_I": "330", "name": "Stop R1 West Tce - West side"}, "type": "Feature", "id": "324"}, {"geometry": {"type": "Point", "coordinates": [138.588532752638, -34.9290924455468]}, "properties": {"stop_I": "331", "name": "Stop B1 Grote St - North side"}, "type": "Feature", "id": "325"}, {"geometry": {"type": "Point", "coordinates": [138.591800063577, -34.9289205164883]}, "properties": {"stop_I": "332", "name": "Stop B2 Grote St - North side"}, "type": "Feature", "id": "326"}, {"geometry": {"type": "Point", "coordinates": [138.595154757644, -34.9287480281756]}, "properties": {"stop_I": "333", "name": "Stop D1 Grote St - North side"}, "type": "Feature", "id": "327"}, {"geometry": {"type": "Point", "coordinates": [138.596949259223, -34.9286805727236]}, "properties": {"stop_I": "334", "name": "Stop D2 Grote St - North side"}, "type": "Feature", "id": "328"}, {"geometry": {"type": "Point", "coordinates": [138.599306149146, -34.9277079698949]}, "properties": {"stop_I": "335", "name": "Stop U1 Victoria Sq - North West side"}, "type": "Feature", "id": "329"}, {"geometry": {"type": "Point", "coordinates": [138.599485201363, -34.924715901029]}, "properties": {"stop_I": "336", "name": "Stop W2 King William St - West side"}, "type": "Feature", "id": "330"}, {"geometry": {"type": "Point", "coordinates": [138.599279872209, -34.9219210388771]}, "properties": {"stop_I": "337", "name": "Stop Y2 King William St - West side"}, "type": "Feature", "id": "331"}, {"geometry": {"type": "Point", "coordinates": [138.599196819126, -34.9206180224544]}, "properties": {"stop_I": "338", "name": "Stop Z2 King William Rd - West side"}, "type": "Feature", "id": "332"}, {"geometry": {"type": "Point", "coordinates": [138.599461124131, -34.9202201433748]}, "properties": {"stop_I": "339", "name": "Stop A1 King William Rd - East side"}, "type": "Feature", "id": "333"}, {"geometry": {"type": "Point", "coordinates": [138.599591096317, -34.9220497181882]}, "properties": {"stop_I": "340", "name": "Stop B1 King William St - East side"}, "type": "Feature", "id": "334"}, {"geometry": {"type": "Point", "coordinates": [138.599724222691, -34.923706546644]}, "properties": {"stop_I": "341", "name": "Stop C2 King William St - East side"}, "type": "Feature", "id": "335"}, {"geometry": {"type": "Point", "coordinates": [138.59984013168, -34.9251280496958]}, "properties": {"stop_I": "342", "name": "Stop D2 King William St - East side"}, "type": "Feature", "id": "336"}, {"geometry": {"type": "Point", "coordinates": [138.598514, -34.928834]}, "properties": {"stop_I": "343", "name": "Stop W Grote St - South side"}, "type": "Feature", "id": "337"}, {"geometry": {"type": "Point", "coordinates": [138.592361083842, -34.9291636624229]}, "properties": {"stop_I": "344", "name": "Stop X1 Grote St - South side"}, "type": "Feature", "id": "338"}, {"geometry": {"type": "Point", "coordinates": [138.58916151543, -34.9293219697508]}, "properties": {"stop_I": "345", "name": "Stop Y1 Grote St - South side"}, "type": "Feature", "id": "339"}, {"geometry": {"type": "Point", "coordinates": [138.588222892015, -34.931411978443]}, "properties": {"stop_I": "346", "name": "Stop H1 West Tce - East side"}, "type": "Feature", "id": "340"}, {"geometry": {"type": "Point", "coordinates": [138.588446621961, -34.9346039796886]}, "properties": {"stop_I": "347", "name": "Stop J1 West Tce - East side"}, "type": "Feature", "id": "341"}, {"geometry": {"type": "Point", "coordinates": [138.584131481011, -34.9411569727974]}, "properties": {"stop_I": "348", "name": "Stop 1 Anzac Hwy - South East side"}, "type": "Feature", "id": "342"}, {"geometry": {"type": "Point", "coordinates": [138.58013, -34.94566]}, "properties": {"stop_I": "349", "name": "Stop 2 Anzac Hwy - South East side"}, "type": "Feature", "id": "343"}, {"geometry": {"type": "Point", "coordinates": [138.577647633495, -34.9485748125417]}, "properties": {"stop_I": "350", "name": "Stop 3 Anzac Hwy - South East side"}, "type": "Feature", "id": "344"}, {"geometry": {"type": "Point", "coordinates": [138.575129883682, -34.9509889994115]}, "properties": {"stop_I": "351", "name": "Stop 4 Anzac Hwy - South East side"}, "type": "Feature", "id": "345"}, {"geometry": {"type": "Point", "coordinates": [138.572923287419, -34.9524620717598]}, "properties": {"stop_I": "352", "name": "Stop 5 Anzac Hwy - South East side"}, "type": "Feature", "id": "346"}, {"geometry": {"type": "Point", "coordinates": [138.5721266186, -34.9547337400797]}, "properties": {"stop_I": "353", "name": "Stop 6 South Rd - East side"}, "type": "Feature", "id": "347"}, {"geometry": {"type": "Point", "coordinates": [138.572401, -34.958361]}, "properties": {"stop_I": "354", "name": "Stop 7 South Rd - East side"}, "type": "Feature", "id": "348"}, {"geometry": {"type": "Point", "coordinates": [138.57262, -34.96132]}, "properties": {"stop_I": "355", "name": "Stop 8 South Rd - East side"}, "type": "Feature", "id": "349"}, {"geometry": {"type": "Point", "coordinates": [138.572950230953, -34.964705948206]}, "properties": {"stop_I": "356", "name": "Stop 9 South Rd - East side"}, "type": "Feature", "id": "350"}, {"geometry": {"type": "Point", "coordinates": [138.57321, -34.96807]}, "properties": {"stop_I": "357", "name": "Stop 10 South Rd - East side"}, "type": "Feature", "id": "351"}, {"geometry": {"type": "Point", "coordinates": [138.57335, -34.97125]}, "properties": {"stop_I": "358", "name": "Stop 11 South Rd - East side"}, "type": "Feature", "id": "352"}, {"geometry": {"type": "Point", "coordinates": [138.57352707621, -34.9736235260758]}, "properties": {"stop_I": "359", "name": "Stop 12 South Rd - East side"}, "type": "Feature", "id": "353"}, {"geometry": {"type": "Point", "coordinates": [138.573673007615, -34.9755484201865]}, "properties": {"stop_I": "360", "name": "Stop 13 South Rd - East side"}, "type": "Feature", "id": "354"}, {"geometry": {"type": "Point", "coordinates": [138.573809351302, -34.9774326654318]}, "properties": {"stop_I": "361", "name": "Stop 14 South Rd - East side"}, "type": "Feature", "id": "355"}, {"geometry": {"type": "Point", "coordinates": [138.574082394468, -34.9812595150094]}, "properties": {"stop_I": "362", "name": "Stop 15 South Rd - East side"}, "type": "Feature", "id": "356"}, {"geometry": {"type": "Point", "coordinates": [138.5743, -34.98385]}, "properties": {"stop_I": "363", "name": "Stop 16 South Rd - East side"}, "type": "Feature", "id": "357"}, {"geometry": {"type": "Point", "coordinates": [138.574497554947, -34.9865030239212]}, "properties": {"stop_I": "364", "name": "Stop 17 South Rd - East side"}, "type": "Feature", "id": "358"}, {"geometry": {"type": "Point", "coordinates": [138.57478932119, -34.9900637668092]}, "properties": {"stop_I": "365", "name": "Stop 18 South Rd - East side"}, "type": "Feature", "id": "359"}, {"geometry": {"type": "Point", "coordinates": [138.575092078856, -34.9945181624236]}, "properties": {"stop_I": "366", "name": "Stop 20 South Rd - East side"}, "type": "Feature", "id": "360"}, {"geometry": {"type": "Point", "coordinates": [138.575269865819, -34.9969771145502]}, "properties": {"stop_I": "367", "name": "Stop 21 South Rd - East side"}, "type": "Feature", "id": "361"}, {"geometry": {"type": "Point", "coordinates": [138.575508870676, -35.0000439910973]}, "properties": {"stop_I": "368", "name": "Stop 22 South Rd - East side"}, "type": "Feature", "id": "362"}, {"geometry": {"type": "Point", "coordinates": [138.575786224096, -35.0036629675021]}, "properties": {"stop_I": "369", "name": "Stop 23 South Rd - East side"}, "type": "Feature", "id": "363"}, {"geometry": {"type": "Point", "coordinates": [138.575990438824, -35.0065224615681]}, "properties": {"stop_I": "370", "name": "Stop 24A South Rd - East side"}, "type": "Feature", "id": "364"}, {"geometry": {"type": "Point", "coordinates": [138.57625, -35.00939]}, "properties": {"stop_I": "371", "name": "Stop 25 South Rd - East side"}, "type": "Feature", "id": "365"}, {"geometry": {"type": "Point", "coordinates": [138.574683558951, -35.0125947493681]}, "properties": {"stop_I": "372", "name": "Stop 25A Main South Rd - South East side"}, "type": "Feature", "id": "366"}, {"geometry": {"type": "Point", "coordinates": [138.572931301769, -35.0141268285781]}, "properties": {"stop_I": "373", "name": "Stop 25B Main South Rd - South East side"}, "type": "Feature", "id": "367"}, {"geometry": {"type": "Point", "coordinates": [138.571265, -35.015606]}, "properties": {"stop_I": "374", "name": "Stop 26 Main South Rd - South East side"}, "type": "Feature", "id": "368"}, {"geometry": {"type": "Point", "coordinates": [138.568211, -35.016808]}, "properties": {"stop_I": "375", "name": "Stop 27 Sturt Rd - South side"}, "type": "Feature", "id": "369"}, {"geometry": {"type": "Point", "coordinates": [138.56326, -35.017026]}, "properties": {"stop_I": "376", "name": "Stop 29 Sturt Rd - South side"}, "type": "Feature", "id": "370"}, {"geometry": {"type": "Point", "coordinates": [138.560933, -35.017168]}, "properties": {"stop_I": "377", "name": "Stop 29A Sturt Rd - South side"}, "type": "Feature", "id": "371"}, {"geometry": {"type": "Point", "coordinates": [138.556379, -35.0173371]}, "properties": {"stop_I": "378", "name": "Stop 29B Sturt Rd - South side"}, "type": "Feature", "id": "372"}, {"geometry": {"type": "Point", "coordinates": [138.553906, -35.017462]}, "properties": {"stop_I": "379", "name": "Stop 29C Sturt Rd - South side"}, "type": "Feature", "id": "373"}, {"geometry": {"type": "Point", "coordinates": [138.551223, -35.017592]}, "properties": {"stop_I": "380", "name": "Stop 29D Sturt Rd - South side"}, "type": "Feature", "id": "374"}, {"geometry": {"type": "Point", "coordinates": [138.549973768103, -35.0186367008925]}, "properties": {"stop_I": "381", "name": "Stop 32 Diagonal Rd - East side"}, "type": "Feature", "id": "375"}, {"geometry": {"type": "Point", "coordinates": [138.550144314884, -35.0209351374554]}, "properties": {"stop_I": "382", "name": "Stop 31 Diagonal Rd - East side"}, "type": "Feature", "id": "376"}, {"geometry": {"type": "Point", "coordinates": [138.551290551171, -35.0228492451385]}, "properties": {"stop_I": "383", "name": "Stop 33D Diagonal Rd - North East side"}, "type": "Feature", "id": "377"}, {"geometry": {"type": "Point", "coordinates": [138.553922847339, -35.0259053722609]}, "properties": {"stop_I": "384", "name": "Stop 32D Diagonal Rd - North East side"}, "type": "Feature", "id": "378"}, {"geometry": {"type": "Point", "coordinates": [138.555623622702, -35.0278576181584]}, "properties": {"stop_I": "385", "name": "Stop 31D Diagonal Rd - North East side"}, "type": "Feature", "id": "379"}, {"geometry": {"type": "Point", "coordinates": [138.557040354794, -35.0296387511925]}, "properties": {"stop_I": "386", "name": "Stop 30A Main South Rd - South East side"}, "type": "Feature", "id": "380"}, {"geometry": {"type": "Point", "coordinates": [138.560303155796, -35.0477391741534]}, "properties": {"stop_I": "387", "name": "Stop 31 Main South Rd - South East side"}, "type": "Feature", "id": "381"}, {"geometry": {"type": "Point", "coordinates": [138.55961, -35.05228]}, "properties": {"stop_I": "388", "name": "Stop 32 Main South Rd - East side"}, "type": "Feature", "id": "382"}, {"geometry": {"type": "Point", "coordinates": [138.560001, -35.05689]}, "properties": {"stop_I": "389", "name": "Stop 33 Main South Rd - East side"}, "type": "Feature", "id": "383"}, {"geometry": {"type": "Point", "coordinates": [138.558623871173, -35.0617137431171]}, "properties": {"stop_I": "390", "name": "Stop 34 Main South Rd - East side"}, "type": "Feature", "id": "384"}, {"geometry": {"type": "Point", "coordinates": [138.55511, -35.06617]}, "properties": {"stop_I": "391", "name": "Stop 35 Main South Rd - East side"}, "type": "Feature", "id": "385"}, {"geometry": {"type": "Point", "coordinates": [138.55499, -35.06784]}, "properties": {"stop_I": "392", "name": "Stop 36 Main South Rd - East side"}, "type": "Feature", "id": "386"}, {"geometry": {"type": "Point", "coordinates": [138.55421, -35.07107]}, "properties": {"stop_I": "393", "name": "Stop 37 Main South Rd - East side"}, "type": "Feature", "id": "387"}, {"geometry": {"type": "Point", "coordinates": [138.55208, -35.07382]}, "properties": {"stop_I": "394", "name": "Stop 38 Main South Rd - South East side"}, "type": "Feature", "id": "388"}, {"geometry": {"type": "Point", "coordinates": [138.548719019042, -35.0780212298099]}, "properties": {"stop_I": "395", "name": "Stop 39 Main South Rd - East side"}, "type": "Feature", "id": "389"}, {"geometry": {"type": "Point", "coordinates": [138.54659, -35.08262]}, "properties": {"stop_I": "396", "name": "Stop 40 Panalatinga Rd - East side"}, "type": "Feature", "id": "390"}, {"geometry": {"type": "Point", "coordinates": [138.544218606304, -35.0867699848041]}, "properties": {"stop_I": "397", "name": "Stop 42 Old South Rd - East side"}, "type": "Feature", "id": "391"}, {"geometry": {"type": "Point", "coordinates": [138.54168776145, -35.0889362503757]}, "properties": {"stop_I": "398", "name": "Stop 43 Old South Rd - East side"}, "type": "Feature", "id": "392"}, {"geometry": {"type": "Point", "coordinates": [138.53994, -35.09293]}, "properties": {"stop_I": "399", "name": "Stop 44 Old South Rd - East side"}, "type": "Feature", "id": "393"}, {"geometry": {"type": "Point", "coordinates": [138.537710859004, -35.0955936251095]}, "properties": {"stop_I": "400", "name": "Zone C Old Reynella Interchange"}, "type": "Feature", "id": "394"}, {"geometry": {"type": "Point", "coordinates": [138.53651, -35.09655]}, "properties": {"stop_I": "401", "name": "Stop 45A Old South Rd - South East side"}, "type": "Feature", "id": "395"}, {"geometry": {"type": "Point", "coordinates": [138.53417, -35.0983]}, "properties": {"stop_I": "402", "name": "Stop 46 Main South Rd - South East side"}, "type": "Feature", "id": "396"}, {"geometry": {"type": "Point", "coordinates": [138.531175282625, -35.1011802776775]}, "properties": {"stop_I": "403", "name": "Stop 47 Main South Rd - South East side"}, "type": "Feature", "id": "397"}, {"geometry": {"type": "Point", "coordinates": [138.52846, -35.10415]}, "properties": {"stop_I": "404", "name": "Stop 48 Main South Rd - East side"}, "type": "Feature", "id": "398"}, {"geometry": {"type": "Point", "coordinates": [138.52537, -35.10738]}, "properties": {"stop_I": "405", "name": "Stop 49 Main South Rd - South East side"}, "type": "Feature", "id": "399"}, {"geometry": {"type": "Point", "coordinates": [138.52386, -35.10891]}, "properties": {"stop_I": "406", "name": "Stop 50 Main South Rd - South East side"}, "type": "Feature", "id": "400"}, {"geometry": {"type": "Point", "coordinates": [138.52273, -35.11293]}, "properties": {"stop_I": "407", "name": "Stop 51 Main South Rd - East side"}, "type": "Feature", "id": "401"}, {"geometry": {"type": "Point", "coordinates": [138.52301, -35.1166]}, "properties": {"stop_I": "408", "name": "Stop 52 Main South Rd - East side"}, "type": "Feature", "id": "402"}, {"geometry": {"type": "Point", "coordinates": [138.523261818745, -35.1201977892058]}, "properties": {"stop_I": "409", "name": "Stop 53 Main South Rd - East side"}, "type": "Feature", "id": "403"}, {"geometry": {"type": "Point", "coordinates": [138.523396058877, -35.1220807721433]}, "properties": {"stop_I": "410", "name": "Stop 54 Main South Rd - East side"}, "type": "Feature", "id": "404"}, {"geometry": {"type": "Point", "coordinates": [138.523661987693, -35.125677665972]}, "properties": {"stop_I": "411", "name": "Stop 55 Main South Rd - East side"}, "type": "Feature", "id": "405"}, {"geometry": {"type": "Point", "coordinates": [138.523921488345, -35.129121256883]}, "properties": {"stop_I": "412", "name": "Stop 56 Main South Rd - East side"}, "type": "Feature", "id": "406"}, {"geometry": {"type": "Point", "coordinates": [138.52413607733, -35.1320549937447]}, "properties": {"stop_I": "413", "name": "Stop 57 Main South Rd - East side"}, "type": "Feature", "id": "407"}, {"geometry": {"type": "Point", "coordinates": [138.5243, -35.1343]}, "properties": {"stop_I": "414", "name": "Stop 58 Main South Rd - East side"}, "type": "Feature", "id": "408"}, {"geometry": {"type": "Point", "coordinates": [138.52268218663, -35.1369128642066]}, "properties": {"stop_I": "415", "name": "Stop 59 Beach Rd - South side"}, "type": "Feature", "id": "409"}, {"geometry": {"type": "Point", "coordinates": [138.51891, -35.13714]}, "properties": {"stop_I": "416", "name": "Stop 60 Beach Rd - South side"}, "type": "Feature", "id": "410"}, {"geometry": {"type": "Point", "coordinates": [138.51536, -35.13729]}, "properties": {"stop_I": "417", "name": "Stop 61 Beach Rd - South side"}, "type": "Feature", "id": "411"}, {"geometry": {"type": "Point", "coordinates": [138.5124, -35.13744]}, "properties": {"stop_I": "418", "name": "Stop 62 Beach Rd - South side"}, "type": "Feature", "id": "412"}, {"geometry": {"type": "Point", "coordinates": [138.507299548157, -35.1376718475417]}, "properties": {"stop_I": "419", "name": "Stop 63 Beach Rd - South side"}, "type": "Feature", "id": "413"}, {"geometry": {"type": "Point", "coordinates": [138.503622564905, -35.1378612447254]}, "properties": {"stop_I": "420", "name": "Stop 64 Beach Rd - South side"}, "type": "Feature", "id": "414"}, {"geometry": {"type": "Point", "coordinates": [138.499220238718, -35.1389763935759]}, "properties": {"stop_I": "421", "name": "Stop 64A Alexander Kelly Dr - South side"}, "type": "Feature", "id": "415"}, {"geometry": {"type": "Point", "coordinates": [138.496095876429, -35.1397309259623]}, "properties": {"stop_I": "422", "name": "Zone D Colonnades Interchange"}, "type": "Feature", "id": "416"}, {"geometry": {"type": "Point", "coordinates": [138.479488300706, -35.191361072275]}, "properties": {"stop_I": "423", "name": "Stop 85 The Parade - South side"}, "type": "Feature", "id": "417"}, {"geometry": {"type": "Point", "coordinates": [138.47709, -35.18669]}, "properties": {"stop_I": "424", "name": "Stop 84 Commercial Rd - West side"}, "type": "Feature", "id": "418"}, {"geometry": {"type": "Point", "coordinates": [138.476827160805, -35.183425290747]}, "properties": {"stop_I": "425", "name": "Stop 83 Commercial Rd - West side"}, "type": "Feature", "id": "419"}, {"geometry": {"type": "Point", "coordinates": [138.476663205763, -35.1814880422381]}, "properties": {"stop_I": "426", "name": "Stop 82 Commercial Rd - West side"}, "type": "Feature", "id": "420"}, {"geometry": {"type": "Point", "coordinates": [138.476302495512, -35.1768930672044]}, "properties": {"stop_I": "427", "name": "Stop 81 Commercial Rd - West side"}, "type": "Feature", "id": "421"}, {"geometry": {"type": "Point", "coordinates": [138.47611, -35.17414]}, "properties": {"stop_I": "428", "name": "Stop 80 Commercial Rd - West side"}, "type": "Feature", "id": "422"}, {"geometry": {"type": "Point", "coordinates": [138.475860500763, -35.1712446925284]}, "properties": {"stop_I": "429", "name": "Stop 79 Commercial Rd - West side"}, "type": "Feature", "id": "423"}, {"geometry": {"type": "Point", "coordinates": [138.47571, -35.16893]}, "properties": {"stop_I": "430", "name": "Stop 78 Commercial Rd - West side"}, "type": "Feature", "id": "424"}, {"geometry": {"type": "Point", "coordinates": [138.47536, -35.16519]}, "properties": {"stop_I": "431", "name": "Stop 77 Commercial Rd - West side"}, "type": "Feature", "id": "425"}, {"geometry": {"type": "Point", "coordinates": [138.475071656663, -35.1611088726757]}, "properties": {"stop_I": "432", "name": "Stop 76 Commercial Rd - West side"}, "type": "Feature", "id": "426"}, {"geometry": {"type": "Point", "coordinates": [138.474893478821, -35.1588638299057]}, "properties": {"stop_I": "433", "name": "Stop 75 Commercial Rd - West side"}, "type": "Feature", "id": "427"}, {"geometry": {"type": "Point", "coordinates": [138.47402, -35.1536]}, "properties": {"stop_I": "434", "name": "Stop 74 Saltfleet St - South West side"}, "type": "Feature", "id": "428"}, {"geometry": {"type": "Point", "coordinates": [138.471765, -35.150642]}, "properties": {"stop_I": "435", "name": "Stop 73 Saltfleet St - South West side"}, "type": "Feature", "id": "429"}, {"geometry": {"type": "Point", "coordinates": [138.470228336873, -35.1481848315698]}, "properties": {"stop_I": "436", "name": "Stop 72A Witton Rd - West side"}, "type": "Feature", "id": "430"}, {"geometry": {"type": "Point", "coordinates": [138.46970028248, -35.1472260139175]}, "properties": {"stop_I": "437", "name": "Stop 72 Witton Rd - South West side"}, "type": "Feature", "id": "431"}, {"geometry": {"type": "Point", "coordinates": [138.469495715958, -35.1446591427062]}, "properties": {"stop_I": "438", "name": "Stop 71 Witton Rd - West side"}, "type": "Feature", "id": "432"}, {"geometry": {"type": "Point", "coordinates": [138.47043, -35.14215]}, "properties": {"stop_I": "439", "name": "Stop 70 Witton Rd - North West side"}, "type": "Feature", "id": "433"}, {"geometry": {"type": "Point", "coordinates": [138.47141, -35.14085]}, "properties": {"stop_I": "440", "name": "Stop 69A Witton Rd - West side"}, "type": "Feature", "id": "434"}, {"geometry": {"type": "Point", "coordinates": [138.47268, -35.1393]}, "properties": {"stop_I": "441", "name": "Stop 69 Beach Rd - North side"}, "type": "Feature", "id": "435"}, {"geometry": {"type": "Point", "coordinates": [138.476700339863, -35.1390964677729]}, "properties": {"stop_I": "442", "name": "Stop 68 Beach Rd - North side"}, "type": "Feature", "id": "436"}, {"geometry": {"type": "Point", "coordinates": [138.48128, -35.13888]}, "properties": {"stop_I": "443", "name": "Stop 67 Beach Rd - North side"}, "type": "Feature", "id": "437"}, {"geometry": {"type": "Point", "coordinates": [138.484929491496, -35.1386749491128]}, "properties": {"stop_I": "444", "name": "Stop 66 Beach Rd - North side"}, "type": "Feature", "id": "438"}, {"geometry": {"type": "Point", "coordinates": [138.48868, -35.13845]}, "properties": {"stop_I": "445", "name": "Stop 65 Beach Rd - North side"}, "type": "Feature", "id": "439"}, {"geometry": {"type": "Point", "coordinates": [138.534870972191, -35.0942820211654]}, "properties": {"stop_I": "446", "name": "Stop 45A Grant Rd - South side"}, "type": "Feature", "id": "440"}, {"geometry": {"type": "Point", "coordinates": [138.489311615531, -35.1385878234686]}, "properties": {"stop_I": "447", "name": "Stop 65 Beach Rd - South side"}, "type": "Feature", "id": "441"}, {"geometry": {"type": "Point", "coordinates": [138.483641566464, -35.1389261073074]}, "properties": {"stop_I": "448", "name": "Stop 66 Beach Rd - South side"}, "type": "Feature", "id": "442"}, {"geometry": {"type": "Point", "coordinates": [138.48021, -35.13909]}, "properties": {"stop_I": "449", "name": "Stop 67 Beach Rd - South side"}, "type": "Feature", "id": "443"}, {"geometry": {"type": "Point", "coordinates": [138.477385436204, -35.1392330831762]}, "properties": {"stop_I": "450", "name": "Stop 68 Beach Rd - South side"}, "type": "Feature", "id": "444"}, {"geometry": {"type": "Point", "coordinates": [138.473051819331, -35.1394366553685]}, "properties": {"stop_I": "451", "name": "Stop 69 Beach Rd - South side"}, "type": "Feature", "id": "445"}, {"geometry": {"type": "Point", "coordinates": [138.471794052545, -35.1400401366067]}, "properties": {"stop_I": "452", "name": "Stop 69A Witton Rd - East side"}, "type": "Feature", "id": "446"}, {"geometry": {"type": "Point", "coordinates": [138.470392580231, -35.1423151227015]}, "properties": {"stop_I": "453", "name": "Stop 70 Witton Rd - South East side"}, "type": "Feature", "id": "447"}, {"geometry": {"type": "Point", "coordinates": [138.46964, -35.14493]}, "properties": {"stop_I": "454", "name": "Stop 71 Witton Rd - East side"}, "type": "Feature", "id": "448"}, {"geometry": {"type": "Point", "coordinates": [138.470069854005, -35.1475616149146]}, "properties": {"stop_I": "455", "name": "Stop 72 Witton Rd - North East side"}, "type": "Feature", "id": "449"}, {"geometry": {"type": "Point", "coordinates": [138.471268783536, -35.1495511497667]}, "properties": {"stop_I": "456", "name": "Stop 73 Saltfleet St - North East side"}, "type": "Feature", "id": "450"}, {"geometry": {"type": "Point", "coordinates": [138.474130994736, -35.1535206923744]}, "properties": {"stop_I": "457", "name": "Stop 74 Saltfleet St - North East side"}, "type": "Feature", "id": "451"}, {"geometry": {"type": "Point", "coordinates": [138.475075658856, -35.1588543763439]}, "properties": {"stop_I": "458", "name": "Stop 75 Commercial Rd - East side"}, "type": "Feature", "id": "452"}, {"geometry": {"type": "Point", "coordinates": [138.475309037611, -35.1612469099587]}, "properties": {"stop_I": "459", "name": "Stop 76 Commercial Rd - East side"}, "type": "Feature", "id": "453"}, {"geometry": {"type": "Point", "coordinates": [138.475593106738, -35.1650397910907]}, "properties": {"stop_I": "460", "name": "Stop 77 Commercial Rd - East side"}, "type": "Feature", "id": "454"}, {"geometry": {"type": "Point", "coordinates": [138.475897964153, -35.1687103987738]}, "properties": {"stop_I": "461", "name": "Stop 78 Commercial Rd - East side"}, "type": "Feature", "id": "455"}, {"geometry": {"type": "Point", "coordinates": [138.476081778409, -35.1710601104472]}, "properties": {"stop_I": "462", "name": "Stop 79 Commercial Rd - East side"}, "type": "Feature", "id": "456"}, {"geometry": {"type": "Point", "coordinates": [138.476307397725, -35.1740291257528]}, "properties": {"stop_I": "463", "name": "Stop 80 Commercial Rd - East side"}, "type": "Feature", "id": "457"}, {"geometry": {"type": "Point", "coordinates": [138.476531720888, -35.1768299380044]}, "properties": {"stop_I": "464", "name": "Stop 81 Commercial Rd - East side"}, "type": "Feature", "id": "458"}, {"geometry": {"type": "Point", "coordinates": [138.476814701898, -35.1798190045973]}, "properties": {"stop_I": "465", "name": "Stop 82 Commercial Rd - East side"}, "type": "Feature", "id": "459"}, {"geometry": {"type": "Point", "coordinates": [138.477040637528, -35.1834371926907]}, "properties": {"stop_I": "466", "name": "Stop 83 Commercial Rd - East side"}, "type": "Feature", "id": "460"}, {"geometry": {"type": "Point", "coordinates": [138.477246469201, -35.1863308286256]}, "properties": {"stop_I": "467", "name": "Stop 84 Commercial Rd - East side"}, "type": "Feature", "id": "461"}, {"geometry": {"type": "Point", "coordinates": [138.479095235567, -35.19120638879]}, "properties": {"stop_I": "468", "name": "Stop 85 The Parade - North side"}, "type": "Feature", "id": "462"}, {"geometry": {"type": "Point", "coordinates": [138.863399, -35.064101]}, "properties": {"stop_I": "469", "name": "Zone A Dutton Rd Park 'n' Ride"}, "type": "Feature", "id": "463"}, {"geometry": {"type": "Point", "coordinates": [138.859491, -35.06597]}, "properties": {"stop_I": "470", "name": "Stop 64 Hutchinson St - West side"}, "type": "Feature", "id": "464"}, {"geometry": {"type": "Point", "coordinates": [138.852477, -35.069576]}, "properties": {"stop_I": "471", "name": "Zone A Dumas St Park 'n' Ride"}, "type": "Feature", "id": "465"}, {"geometry": {"type": "Point", "coordinates": [138.810625, -35.030483]}, "properties": {"stop_I": "472", "name": "Stop 55 Mt Barker Rd - West side"}, "type": "Feature", "id": "466"}, {"geometry": {"type": "Point", "coordinates": [138.809113476655, -35.0282418349391]}, "properties": {"stop_I": "473", "name": "Stop 54A Mt Barker Rd - West side"}, "type": "Feature", "id": "467"}, {"geometry": {"type": "Point", "coordinates": [138.807426141812, -35.0258344280006]}, "properties": {"stop_I": "474", "name": "Stop 54 Mt Barker Rd - West side"}, "type": "Feature", "id": "468"}, {"geometry": {"type": "Point", "coordinates": [138.805352508891, -35.0229628597288]}, "properties": {"stop_I": "475", "name": "Stop 53 Mt Barker Rd - West side"}, "type": "Feature", "id": "469"}, {"geometry": {"type": "Point", "coordinates": [138.800041680921, -35.0204947416242]}, "properties": {"stop_I": "476", "name": "Stop 52 Mt Barker Rd - South side"}, "type": "Feature", "id": "470"}, {"geometry": {"type": "Point", "coordinates": [138.79461, -35.02055]}, "properties": {"stop_I": "477", "name": "Stop 51 Mt Barker Rd - South side"}, "type": "Feature", "id": "471"}, {"geometry": {"type": "Point", "coordinates": [138.78698, -35.01775]}, "properties": {"stop_I": "478", "name": "Stop 50 Mt Barker Rd - South side"}, "type": "Feature", "id": "472"}, {"geometry": {"type": "Point", "coordinates": [138.785281458985, -35.015680066976]}, "properties": {"stop_I": "479", "name": "Stop 49 Mt Barker Rd - West side"}, "type": "Feature", "id": "473"}, {"geometry": {"type": "Point", "coordinates": [138.78264, -35.01548]}, "properties": {"stop_I": "480", "name": "Stop 48A Mt Barker Rd - South side"}, "type": "Feature", "id": "474"}, {"geometry": {"type": "Point", "coordinates": [138.77121, -35.01306]}, "properties": {"stop_I": "481", "name": "Stop 48 Mt Barker Rd - South side"}, "type": "Feature", "id": "475"}, {"geometry": {"type": "Point", "coordinates": [138.76791, -35.01027]}, "properties": {"stop_I": "482", "name": "Stop 47 Mt Barker Rd - South side"}, "type": "Feature", "id": "476"}, {"geometry": {"type": "Point", "coordinates": [138.759768, -35.009876]}, "properties": {"stop_I": "483", "name": "Stop 46 Mt Barker Rd - South side"}, "type": "Feature", "id": "477"}, {"geometry": {"type": "Point", "coordinates": [138.74722, -35.01125]}, "properties": {"stop_I": "484", "name": "Stop 45 Mt Barker Rd - South side"}, "type": "Feature", "id": "478"}, {"geometry": {"type": "Point", "coordinates": [138.743595374044, -35.0122578940426]}, "properties": {"stop_I": "485", "name": "Stop 44 Mt Barker Rd - South side"}, "type": "Feature", "id": "479"}, {"geometry": {"type": "Point", "coordinates": [138.740459, -35.013176]}, "properties": {"stop_I": "486", "name": "Stop 43 Mt Barker Rd - South East side"}, "type": "Feature", "id": "480"}, {"geometry": {"type": "Point", "coordinates": [138.7353777743, -35.0147278395522]}, "properties": {"stop_I": "487", "name": "Stop 42 Mt Barker Rd - South side"}, "type": "Feature", "id": "481"}, {"geometry": {"type": "Point", "coordinates": [138.73255, -35.01353]}, "properties": {"stop_I": "488", "name": "Stop 41 Mt Barker Rd - South side"}, "type": "Feature", "id": "482"}, {"geometry": {"type": "Point", "coordinates": [138.727321, -35.008434]}, "properties": {"stop_I": "489", "name": "Stop 40 Mt Barker Rd - South side"}, "type": "Feature", "id": "483"}, {"geometry": {"type": "Point", "coordinates": [138.72481, -35.0087]}, "properties": {"stop_I": "490", "name": "Stop 39 Mt Barker Rd - South side"}, "type": "Feature", "id": "484"}, {"geometry": {"type": "Point", "coordinates": [138.720136371185, -35.00745862096]}, "properties": {"stop_I": "491", "name": "Stop 38 Mt Barker Rd - South side"}, "type": "Feature", "id": "485"}, {"geometry": {"type": "Point", "coordinates": [138.71827, -35.00666]}, "properties": {"stop_I": "492", "name": "Stop 37 Mt Barker Rd - South side"}, "type": "Feature", "id": "486"}, {"geometry": {"type": "Point", "coordinates": [138.716073471919, -35.0040162490262]}, "properties": {"stop_I": "493", "name": "Stop 36 Mt Barker Rd - West side"}, "type": "Feature", "id": "487"}, {"geometry": {"type": "Point", "coordinates": [138.70156, -34.99863]}, "properties": {"stop_I": "494", "name": "Stop 24 Crafers Ramp - South side"}, "type": "Feature", "id": "488"}, {"geometry": {"type": "Point", "coordinates": [138.65964, -34.97048]}, "properties": {"stop_I": "495", "name": "Stop 16 Adelaide Crafers Hwy - South East side"}, "type": "Feature", "id": "489"}, {"geometry": {"type": "Point", "coordinates": [138.643126058272, -34.9625836683899]}, "properties": {"stop_I": "496", "name": "Stop 13 Glen Osmond Rd - South West side"}, "type": "Feature", "id": "490"}, {"geometry": {"type": "Point", "coordinates": [138.64192, -34.96101]}, "properties": {"stop_I": "497", "name": "Stop 12 Glen Osmond Rd - South West side"}, "type": "Feature", "id": "491"}, {"geometry": {"type": "Point", "coordinates": [138.640578754554, -34.9593605009302]}, "properties": {"stop_I": "498", "name": "Stop 11 Glen Osmond Rd - South West side"}, "type": "Feature", "id": "492"}, {"geometry": {"type": "Point", "coordinates": [138.638391456906, -34.9567133272634]}, "properties": {"stop_I": "499", "name": "Stop 10 Glen Osmond Rd - South West side"}, "type": "Feature", "id": "493"}, {"geometry": {"type": "Point", "coordinates": [138.636192062574, -34.9540479813457]}, "properties": {"stop_I": "500", "name": "Stop 9 Glen Osmond Rd - South West side"}, "type": "Feature", "id": "494"}, {"geometry": {"type": "Point", "coordinates": [138.634775288845, -34.9523397735275]}, "properties": {"stop_I": "501", "name": "Stop 8 Glen Osmond Rd - South West side"}, "type": "Feature", "id": "495"}, {"geometry": {"type": "Point", "coordinates": [138.631608096159, -34.9502111411027]}, "properties": {"stop_I": "502", "name": "Stop 7 Glen Osmond Rd - South West side"}, "type": "Feature", "id": "496"}, {"geometry": {"type": "Point", "coordinates": [138.629139126001, -34.9487748754633]}, "properties": {"stop_I": "503", "name": "Stop 6 Glen Osmond Rd - South West side"}, "type": "Feature", "id": "497"}, {"geometry": {"type": "Point", "coordinates": [138.625467009356, -34.9466435078688]}, "properties": {"stop_I": "504", "name": "Stop 5 Glen Osmond Rd - South side"}, "type": "Feature", "id": "498"}, {"geometry": {"type": "Point", "coordinates": [138.623117281574, -34.945214310473]}, "properties": {"stop_I": "505", "name": "Stop 4 Glen Osmond Rd - South West side"}, "type": "Feature", "id": "499"}, {"geometry": {"type": "Point", "coordinates": [138.621606986179, -34.9442869751502]}, "properties": {"stop_I": "506", "name": "Stop 3 Glen Osmond Rd - South West side"}, "type": "Feature", "id": "500"}, {"geometry": {"type": "Point", "coordinates": [138.619195186022, -34.9428152224792]}, "properties": {"stop_I": "507", "name": "Stop 2 Glen Osmond Rd - South West side"}, "type": "Feature", "id": "501"}, {"geometry": {"type": "Point", "coordinates": [138.61646, -34.94111]}, "properties": {"stop_I": "508", "name": "Stop 1 Glen Osmond Rd - South West side"}, "type": "Feature", "id": "502"}, {"geometry": {"type": "Point", "coordinates": [138.613589213987, -34.939417100178]}, "properties": {"stop_I": "509", "name": "Stop O1 Glen Osmond Rd - South West side"}, "type": "Feature", "id": "503"}, {"geometry": {"type": "Point", "coordinates": [138.606378673556, -34.9350853703611]}, "properties": {"stop_I": "510", "name": "Stop P1 Pulteney St - West side"}, "type": "Feature", "id": "504"}, {"geometry": {"type": "Point", "coordinates": [138.606130482889, -34.9318313005242]}, "properties": {"stop_I": "511", "name": "Stop R1 Pulteney St - West side"}, "type": "Feature", "id": "505"}, {"geometry": {"type": "Point", "coordinates": [138.606008, -34.93032]}, "properties": {"stop_I": "512", "name": "Stop S1 Pulteney St - West side"}, "type": "Feature", "id": "506"}, {"geometry": {"type": "Point", "coordinates": [138.605774, -34.927361]}, "properties": {"stop_I": "513", "name": "Stop U1 Pulteney St - West side"}, "type": "Feature", "id": "507"}, {"geometry": {"type": "Point", "coordinates": [138.605566100469, -34.9244433679311]}, "properties": {"stop_I": "514", "name": "Stop W2 Pulteney St - West side"}, "type": "Feature", "id": "508"}, {"geometry": {"type": "Point", "coordinates": [138.602577, -34.924325]}, "properties": {"stop_I": "515", "name": "Stop T3 Grenfell St - South side"}, "type": "Feature", "id": "509"}, {"geometry": {"type": "Point", "coordinates": [138.598635065833, -34.9245220469605]}, "properties": {"stop_I": "516", "name": "Stop V1 Currie St - South side"}, "type": "Feature", "id": "510"}, {"geometry": {"type": "Point", "coordinates": [138.597137368834, -34.9246083989462]}, "properties": {"stop_I": "517", "name": "Stop W1 Currie St - South side"}, "type": "Feature", "id": "511"}, {"geometry": {"type": "Point", "coordinates": [138.595764838228, -34.9246766066403]}, "properties": {"stop_I": "518", "name": "Stop W3 Currie St - South side"}, "type": "Feature", "id": "512"}, {"geometry": {"type": "Point", "coordinates": [138.595116937495, -34.9245018292009]}, "properties": {"stop_I": "519", "name": "Stop D1 Currie St - North side"}, "type": "Feature", "id": "513"}, {"geometry": {"type": "Point", "coordinates": [138.598001031339, -34.9243535705876]}, "properties": {"stop_I": "520", "name": "Stop E1 Currie St - North side"}, "type": "Feature", "id": "514"}, {"geometry": {"type": "Point", "coordinates": [138.602918, -34.924113]}, "properties": {"stop_I": "521", "name": "Stop G2 Grenfell St - North side"}, "type": "Feature", "id": "515"}, {"geometry": {"type": "Point", "coordinates": [138.605839135847, -34.9248558744765]}, "properties": {"stop_I": "522", "name": "Stop D2 Pulteney St - East side"}, "type": "Feature", "id": "516"}, {"geometry": {"type": "Point", "coordinates": [138.60596848246, -34.9263936390249]}, "properties": {"stop_I": "523", "name": "Stop E1 Pulteney St - East side"}, "type": "Feature", "id": "517"}, {"geometry": {"type": "Point", "coordinates": [138.606202351766, -34.9295788602792]}, "properties": {"stop_I": "524", "name": "Stop G1 Pulteney St - East side"}, "type": "Feature", "id": "518"}, {"geometry": {"type": "Point", "coordinates": [138.606379, -34.93185]}, "properties": {"stop_I": "525", "name": "Stop I1 Pulteney St - East side"}, "type": "Feature", "id": "519"}, {"geometry": {"type": "Point", "coordinates": [138.606548349937, -34.9343425352156]}, "properties": {"stop_I": "526", "name": "Stop K1 Pulteney St - East side"}, "type": "Feature", "id": "520"}, {"geometry": {"type": "Point", "coordinates": [138.613589325451, -34.9391037870132]}, "properties": {"stop_I": "527", "name": "Stop L1 Glen Osmond Rd - North East side"}, "type": "Feature", "id": "521"}, {"geometry": {"type": "Point", "coordinates": [138.616756685315, -34.9411346121089]}, "properties": {"stop_I": "528", "name": "Stop 1 Glen Osmond Rd - North East side"}, "type": "Feature", "id": "522"}, {"geometry": {"type": "Point", "coordinates": [138.618568486297, -34.9422433738097]}, "properties": {"stop_I": "529", "name": "Stop 2 Glen Osmond Rd - North East side"}, "type": "Feature", "id": "523"}, {"geometry": {"type": "Point", "coordinates": [138.621712613536, -34.9441792754407]}, "properties": {"stop_I": "530", "name": "Stop 3 Glen Osmond Rd - North East side"}, "type": "Feature", "id": "524"}, {"geometry": {"type": "Point", "coordinates": [138.62352985211, -34.9452957537868]}, "properties": {"stop_I": "531", "name": "Stop 4 Glen Osmond Rd - North East side"}, "type": "Feature", "id": "525"}, {"geometry": {"type": "Point", "coordinates": [138.626138878953, -34.9468335326305]}, "properties": {"stop_I": "532", "name": "Stop 5 Glen Osmond Rd - North side"}, "type": "Feature", "id": "526"}, {"geometry": {"type": "Point", "coordinates": [138.629280271767, -34.9486870104883]}, "properties": {"stop_I": "533", "name": "Stop 6 Glen Osmond Rd - North East side"}, "type": "Feature", "id": "527"}, {"geometry": {"type": "Point", "coordinates": [138.632629125636, -34.9506325962721]}, "properties": {"stop_I": "534", "name": "Stop 7 Glen Osmond Rd - North East side"}, "type": "Feature", "id": "528"}, {"geometry": {"type": "Point", "coordinates": [138.63418, -34.95158]}, "properties": {"stop_I": "535", "name": "Stop 8 Glen Osmond Rd - North East side"}, "type": "Feature", "id": "529"}, {"geometry": {"type": "Point", "coordinates": [138.6365, -34.95416]}, "properties": {"stop_I": "536", "name": "Stop 9 Glen Osmond Rd - North East side"}, "type": "Feature", "id": "530"}, {"geometry": {"type": "Point", "coordinates": [138.63866, -34.95675]}, "properties": {"stop_I": "537", "name": "Stop 10 Glen Osmond Rd - North East side"}, "type": "Feature", "id": "531"}, {"geometry": {"type": "Point", "coordinates": [138.640511936515, -34.9590088750239]}, "properties": {"stop_I": "538", "name": "Stop 11 Glen Osmond Rd - North East side"}, "type": "Feature", "id": "532"}, {"geometry": {"type": "Point", "coordinates": [138.64208, -34.96088]}, "properties": {"stop_I": "539", "name": "Stop 12 Glen Osmond Rd - North East side"}, "type": "Feature", "id": "533"}, {"geometry": {"type": "Point", "coordinates": [138.643449013619, -34.962541359528]}, "properties": {"stop_I": "540", "name": "Stop 13 Glen Osmond Rd - North East side"}, "type": "Feature", "id": "534"}, {"geometry": {"type": "Point", "coordinates": [138.64532, -34.96402]}, "properties": {"stop_I": "541", "name": "Stop 14 Mt Barker Rd - North side"}, "type": "Feature", "id": "535"}, {"geometry": {"type": "Point", "coordinates": [138.66125, -34.96901]}, "properties": {"stop_I": "542", "name": "Stop 16 Adelaide Crafers Hwy - North West side"}, "type": "Feature", "id": "536"}, {"geometry": {"type": "Point", "coordinates": [138.702281, -34.997228]}, "properties": {"stop_I": "543", "name": "Stop 24A / Zone B Crafers Park N Ride"}, "type": "Feature", "id": "537"}, {"geometry": {"type": "Point", "coordinates": [138.70392, -34.99735]}, "properties": {"stop_I": "544", "name": "Stop 25 Main St - North side"}, "type": "Feature", "id": "538"}, {"geometry": {"type": "Point", "coordinates": [138.716388667457, -35.0046060021293]}, "properties": {"stop_I": "545", "name": "Stop 36 Mt Barker Rd - East side"}, "type": "Feature", "id": "539"}, {"geometry": {"type": "Point", "coordinates": [138.71893, -35.00688]}, "properties": {"stop_I": "546", "name": "Stop 37 Mt Barker Rd - North side"}, "type": "Feature", "id": "540"}, {"geometry": {"type": "Point", "coordinates": [138.720597968681, -35.0074180561399]}, "properties": {"stop_I": "547", "name": "Stop 38 Mt Barker Rd - North side"}, "type": "Feature", "id": "541"}, {"geometry": {"type": "Point", "coordinates": [138.72391, -35.00849]}, "properties": {"stop_I": "548", "name": "Stop 39 Mt Barker Rd - North side"}, "type": "Feature", "id": "542"}, {"geometry": {"type": "Point", "coordinates": [138.727718, -35.008316]}, "properties": {"stop_I": "549", "name": "Stop 40 Mt Barker Rd - North side"}, "type": "Feature", "id": "543"},