{"features": [{"id": "0", "properties": {"name": "Leip\u00e4l\u00e4ntie", "stop_I": "1"}, "geometry": {"coordinates": [22.28253381395815, 60.47248394097162], "type": "Point"}, "type": "Feature"}, {"id": "1", "properties": {"name": "Kaupunginteatteri", "stop_I": "2"}, "geometry": {"coordinates": [22.26425932975826, 60.4463368364731], "type": "Point"}, "type": "Feature"}, {"id": "2", "properties": {"name": "Marjam\u00e4entie", "stop_I": "4"}, "geometry": {"coordinates": [22.21155818906829, 60.40510427917014], "type": "Point"}, "type": "Feature"}, {"id": "3", "properties": {"name": "Vanha Moisiontie", "stop_I": "6"}, "geometry": {"coordinates": [22.29416490732527, 60.50955053589444], "type": "Point"}, "type": "Feature"}, {"id": "4", "properties": {"name": "Rotanvuori", "stop_I": "9"}, "geometry": {"coordinates": [22.23187714831202, 60.50732604754906], "type": "Point"}, "type": "Feature"}, {"id": "5", "properties": {"name": "Vartiovuori", "stop_I": "12"}, "geometry": {"coordinates": [22.28069961620661, 60.44866538720312], "type": "Point"}, "type": "Feature"}, {"id": "6", "properties": {"name": "Tammitie", "stop_I": "13"}, "geometry": {"coordinates": [22.30904224817411, 60.45567362751048], "type": "Point"}, "type": "Feature"}, {"id": "7", "properties": {"name": "Kirjokallionkatu", "stop_I": "15"}, "geometry": {"coordinates": [22.13197052977257, 60.50443948267474], "type": "Point"}, "type": "Feature"}, {"id": "8", "properties": {"name": "Pallivahan koulu", "stop_I": "17"}, "geometry": {"coordinates": [22.27798544591491, 60.48270694132054], "type": "Point"}, "type": "Feature"}, {"id": "9", "properties": {"name": "Uimalankatu", "stop_I": "18"}, "geometry": {"coordinates": [22.25372730748198, 60.42451805360294], "type": "Point"}, "type": "Feature"}, {"id": "10", "properties": {"name": "Jaaninpuisto", "stop_I": "19"}, "geometry": {"coordinates": [22.32867378330259, 60.45118590983148], "type": "Point"}, "type": "Feature"}, {"id": "11", "properties": {"name": "Kaskenkatu", "stop_I": "21"}, "geometry": {"coordinates": [22.27432216149586, 60.44346705737464], "type": "Point"}, "type": "Feature"}, {"id": "12", "properties": {"name": "Kirjurinaukio", "stop_I": "22"}, "geometry": {"coordinates": [22.34627149327392, 60.43367823523306], "type": "Point"}, "type": "Feature"}, {"id": "13", "properties": {"name": "Savonkatu", "stop_I": "23"}, "geometry": {"coordinates": [22.30019594420003, 60.4127998235571], "type": "Point"}, "type": "Feature"}, {"id": "14", "properties": {"name": "Autistenaukio", "stop_I": "24"}, "geometry": {"coordinates": [22.2654814204562, 60.4606667890785], "type": "Point"}, "type": "Feature"}, {"id": "15", "properties": {"name": "Raastuvankatu", "stop_I": "25"}, "geometry": {"coordinates": [22.35494920717156, 60.43328938449048], "type": "Point"}, "type": "Feature"}, {"id": "16", "properties": {"name": "Vaala", "stop_I": "27"}, "geometry": {"coordinates": [22.36006130691108, 60.43672231426758], "type": "Point"}, "type": "Feature"}, {"id": "17", "properties": {"name": "Borenpuisto", "stop_I": "28"}, "geometry": {"coordinates": [22.25652532157136, 60.44583646085744], "type": "Point"}, "type": "Feature"}, {"id": "18", "properties": {"name": "Brinkhall", "stop_I": "29"}, "geometry": {"coordinates": [22.2415182284598, 60.3680405394562], "type": "Point"}, "type": "Feature"}, {"id": "19", "properties": {"name": "Kankareenkuja", "stop_I": "30"}, "geometry": {"coordinates": [22.24116310483589, 60.46968925641014], "type": "Point"}, "type": "Feature"}, {"id": "20", "properties": {"name": "Pohjoiskaari", "stop_I": "31"}, "geometry": {"coordinates": [22.27247289089772, 60.48252924934046], "type": "Point"}, "type": "Feature"}, {"id": "21", "properties": {"name": "Alhainen", "stop_I": "32"}, "geometry": {"coordinates": [22.15379826931415, 60.47943886068338], "type": "Point"}, "type": "Feature"}, {"id": "22", "properties": {"name": "Piiskakuja", "stop_I": "33"}, "geometry": {"coordinates": [22.32971947697918, 60.48565587811596], "type": "Point"}, "type": "Feature"}, {"id": "23", "properties": {"name": "K\u00e4rpp\u00e4l\u00e4", "stop_I": "36"}, "geometry": {"coordinates": [22.38299487541145, 60.44610597697652], "type": "Point"}, "type": "Feature"}, {"id": "24", "properties": {"name": "K\u00e4rki", "stop_I": "37"}, "geometry": {"coordinates": [22.38485651428838, 60.39997063932626], "type": "Point"}, "type": "Feature"}, {"id": "25", "properties": {"name": "Pikikurjentie", "stop_I": "42"}, "geometry": {"coordinates": [22.20111487668163, 60.4232765728165], "type": "Point"}, "type": "Feature"}, {"id": "26", "properties": {"name": "Aunelantie", "stop_I": "43"}, "geometry": {"coordinates": [22.19625776767119, 60.45415713774802], "type": "Point"}, "type": "Feature"}, {"id": "27", "properties": {"name": "Savikatu", "stop_I": "44"}, "geometry": {"coordinates": [22.30267767779923, 60.45550299781554], "type": "Point"}, "type": "Feature"}, {"id": "28", "properties": {"name": "Nuntiuksenkuja", "stop_I": "45"}, "geometry": {"coordinates": [22.32232255510014, 60.47214424559348], "type": "Point"}, "type": "Feature"}, {"id": "29", "properties": {"name": "Patterinhaka", "stop_I": "47"}, "geometry": {"coordinates": [22.22452407266767, 60.4457701993618], "type": "Point"}, "type": "Feature"}, {"id": "30", "properties": {"name": "Prykinkuja", "stop_I": "48"}, "geometry": {"coordinates": [22.28081138524796, 60.4908268860479], "type": "Point"}, "type": "Feature"}, {"id": "31", "properties": {"name": "K\u00f6likatu", "stop_I": "49"}, "geometry": {"coordinates": [22.23680214810143, 60.42968495950498], "type": "Point"}, "type": "Feature"}, {"id": "32", "properties": {"name": "Mannerheimin puisto", "stop_I": "52"}, "geometry": {"coordinates": [22.25134303548112, 60.44991323875318], "type": "Point"}, "type": "Feature"}, {"id": "33", "properties": {"name": "Paltantie", "stop_I": "54"}, "geometry": {"coordinates": [22.40936348396888, 60.44081555696708], "type": "Point"}, "type": "Feature"}, {"id": "34", "properties": {"name": "Kela", "stop_I": "58"}, "geometry": {"coordinates": [22.26022932251061, 60.44838705707302], "type": "Point"}, "type": "Feature"}, {"id": "35", "properties": {"name": "Oskarinkuja", "stop_I": "60"}, "geometry": {"coordinates": [22.26942673627884, 60.46245244618292], "type": "Point"}, "type": "Feature"}, {"id": "36", "properties": {"name": "Luostarinm\u00e4ki", "stop_I": "63"}, "geometry": {"coordinates": [22.27228614194374, 60.44657744024228], "type": "Point"}, "type": "Feature"}, {"id": "37", "properties": {"name": "Haarlantie", "stop_I": "64"}, "geometry": {"coordinates": [22.21338088770654, 60.39247435332972], "type": "Point"}, "type": "Feature"}, {"id": "38", "properties": {"name": "Karhunaukio", "stop_I": "66"}, "geometry": {"coordinates": [22.33624742064962, 60.43089965092476], "type": "Point"}, "type": "Feature"}, {"id": "39", "properties": {"name": "Voivala", "stop_I": "68"}, "geometry": {"coordinates": [22.41199727273066, 60.41122182887182], "type": "Point"}, "type": "Feature"}, {"id": "40", "properties": {"name": "Murtomaantie", "stop_I": "69"}, "geometry": {"coordinates": [22.27132035438706, 60.4618274685221], "type": "Point"}, "type": "Feature"}, {"id": "41", "properties": {"name": "Valkiasvuorentie", "stop_I": "70"}, "geometry": {"coordinates": [22.27552291388834, 60.47885243107424], "type": "Point"}, "type": "Feature"}, {"id": "42", "properties": {"name": "Tammim\u00e4ki", "stop_I": "71"}, "geometry": {"coordinates": [22.15808732900621, 60.42899942325254], "type": "Point"}, "type": "Feature"}, {"id": "43", "properties": {"name": "Tierankatu", "stop_I": "72"}, "geometry": {"coordinates": [22.31319098301284, 60.44383548241458], "type": "Point"}, "type": "Feature"}, {"id": "44", "properties": {"name": "Panimo", "stop_I": "73"}, "geometry": {"coordinates": [22.24313951893126, 60.44044030721684], "type": "Point"}, "type": "Feature"}, {"id": "45", "properties": {"name": "Em\u00e4nn\u00e4nkatu", "stop_I": "74"}, "geometry": {"coordinates": [22.36952632649404, 60.40018353103442], "type": "Point"}, "type": "Feature"}, {"id": "46", "properties": {"name": "Forum Marinum", "stop_I": "75"}, "geometry": {"coordinates": [22.23516593119013, 60.43736762670528], "type": "Point"}, "type": "Feature"}, {"id": "47", "properties": {"name": "Assistentinkatu", "stop_I": "76"}, "geometry": {"coordinates": [22.28220060991889, 60.45975025680236], "type": "Point"}, "type": "Feature"}, {"id": "48", "properties": {"name": "Nostov\u00e4enkatu", "stop_I": "77"}, "geometry": {"coordinates": [22.25593449362329, 60.48996968670822], "type": "Point"}, "type": "Feature"}, {"id": "49", "properties": {"name": "Vitkalankatu", "stop_I": "79"}, "geometry": {"coordinates": [22.20663818585953, 60.44784212261232], "type": "Point"}, "type": "Feature"}, {"id": "50", "properties": {"name": "Poropuiston kentt\u00e4", "stop_I": "82"}, "geometry": {"coordinates": [22.33174, 60.43074], "type": "Point"}, "type": "Feature"}, {"id": "51", "properties": {"name": "Ruopanhaara", "stop_I": "83"}, "geometry": {"coordinates": [22.29386945952113, 60.49552370726192], "type": "Point"}, "type": "Feature"}, {"id": "52", "properties": {"name": "L\u00e4hteenm\u00e4entie", "stop_I": "84"}, "geometry": {"coordinates": [22.38535881981477, 60.43651471083882], "type": "Point"}, "type": "Feature"}, {"id": "53", "properties": {"name": "Hintsa Knaapin katu", "stop_I": "85"}, "geometry": {"coordinates": [22.35610213451843, 60.44151077557346], "type": "Point"}, "type": "Feature"}, {"id": "54", "properties": {"name": "Pihkalankatu", "stop_I": "86"}, "geometry": {"coordinates": [22.36399743305046, 60.44355727855856], "type": "Point"}, "type": "Feature"}, {"id": "55", "properties": {"name": "Markulanpuisto", "stop_I": "87"}, "geometry": {"coordinates": [22.26552271999146, 60.47485579385268], "type": "Point"}, "type": "Feature"}, {"id": "56", "properties": {"name": "Friskalantie", "stop_I": "88"}, "geometry": {"coordinates": [22.23632183639795, 60.39934093022738], "type": "Point"}, "type": "Feature"}, {"id": "57", "properties": {"name": "Valkiasvuorenkatu", "stop_I": "90"}, "geometry": {"coordinates": [22.28221008278262, 60.48259601245182], "type": "Point"}, "type": "Feature"}, {"id": "58", "properties": {"name": "J\u00e4\u00e4halli", "stop_I": "91"}, "geometry": {"coordinates": [22.28965604763281, 60.44074739272132], "type": "Point"}, "type": "Feature"}, {"id": "59", "properties": {"name": "Biolinja", "stop_I": "92"}, "geometry": {"coordinates": [22.32481397566842, 60.43742079234976], "type": "Point"}, "type": "Feature"}, {"id": "60", "properties": {"name": "Niemel\u00e4ntie", "stop_I": "93"}, "geometry": {"coordinates": [22.38834995414585, 60.42057124563322], "type": "Point"}, "type": "Feature"}, {"id": "61", "properties": {"name": "Hakaniitty", "stop_I": "95"}, "geometry": {"coordinates": [22.37895414595033, 60.44585778240128], "type": "Point"}, "type": "Feature"}, {"id": "62", "properties": {"name": "Kauppatori", "stop_I": "96"}, "geometry": {"coordinates": [22.26589194770744, 60.45211313083552], "type": "Point"}, "type": "Feature"}, {"id": "63", "properties": {"name": "Kukolantie", "stop_I": "98"}, "geometry": {"coordinates": [22.23631652574781, 60.40992321389784], "type": "Point"}, "type": "Feature"}, {"id": "64", "properties": {"name": "Lumparla", "stop_I": "100"}, "geometry": {"coordinates": [22.15684893068501, 60.48621266495136], "type": "Point"}, "type": "Feature"}, {"id": "65", "properties": {"name": "Kauppahalli", "stop_I": "101"}, "geometry": {"coordinates": [22.26721323322187, 60.44941794479354], "type": "Point"}, "type": "Feature"}, {"id": "66", "properties": {"name": "Telakan vanha portti", "stop_I": "103"}, "geometry": {"coordinates": [22.13252476064692, 60.45221776608118], "type": "Point"}, "type": "Feature"}, {"id": "67", "properties": {"name": "K\u00e4rs\u00e4m\u00e4en koulu", "stop_I": "104"}, "geometry": {"coordinates": [22.28796515927319, 60.48223345337578], "type": "Point"}, "type": "Feature"}, {"id": "68", "properties": {"name": "Linja-autoasema, tulolaituri", "stop_I": "110"}, "geometry": {"coordinates": [22.26661229033448, 60.45640941052888], "type": "Point"}, "type": "Feature"}, {"id": "69", "properties": {"name": "Urheilupuisto", "stop_I": "111"}, "geometry": {"coordinates": [22.26147163297659, 60.43937751360814], "type": "Point"}, "type": "Feature"}, {"id": "70", "properties": {"name": "Raision kirkko", "stop_I": "112"}, "geometry": {"coordinates": [22.1735841948349, 60.48457268311906], "type": "Point"}, "type": "Feature"}, {"id": "71", "properties": {"name": "Poliisitalo", "stop_I": "114"}, "geometry": {"coordinates": [22.25362610129865, 60.44575101105442], "type": "Point"}, "type": "Feature"}, {"id": "72", "properties": {"name": "Rakentajantie", "stop_I": "115"}, "geometry": {"coordinates": [22.38314978535812, 60.41621936553744], "type": "Point"}, "type": "Feature"}, {"id": "73", "properties": {"name": "Nosturikatu", "stop_I": "116"}, "geometry": {"coordinates": [22.23134392493673, 60.44258030963332], "type": "Point"}, "type": "Feature"}, {"id": "74", "properties": {"name": "Poronkatu", "stop_I": "117"}, "geometry": {"coordinates": [22.3369196640498, 60.40860011301688], "type": "Point"}, "type": "Feature"}, {"id": "75", "properties": {"name": "Telakkaranta", "stop_I": "118"}, "geometry": {"coordinates": [22.23932171371363, 60.43520577987736], "type": "Point"}, "type": "Feature"}, {"id": "76", "properties": {"name": "Laihasm\u00e4entie", "stop_I": "121"}, "geometry": {"coordinates": [22.26842977597757, 60.46953772087588], "type": "Point"}, "type": "Feature"}, {"id": "77", "properties": {"name": "Nosturikatu", "stop_I": "122"}, "geometry": {"coordinates": [22.22874982770324, 60.44103970086988], "type": "Point"}, "type": "Feature"}, {"id": "78", "properties": {"name": "Ymmyrsuonkatu", "stop_I": "124"}, "geometry": {"coordinates": [22.29089967643753, 60.5296191127137], "type": "Point"}, "type": "Feature"}, {"id": "79", "properties": {"name": "Alisippaantie", "stop_I": "125"}, "geometry": {"coordinates": [22.43767738480089, 60.45761164042418], "type": "Point"}, "type": "Feature"}, {"id": "80", "properties": {"name": "Sidoskatu", "stop_I": "128"}, "geometry": {"coordinates": [22.38337973948443, 60.42855274363558], "type": "Point"}, "type": "Feature"}, {"id": "81", "properties": {"name": "Kausela", "stop_I": "129"}, "geometry": {"coordinates": [22.35016826359153, 60.46757304444208], "type": "Point"}, "type": "Feature"}, {"id": "82", "properties": {"name": "Biolaakso", "stop_I": "130"}, "geometry": {"coordinates": [22.32560015078825, 60.43334878397206], "type": "Point"}, "type": "Feature"}, {"id": "83", "properties": {"name": "Hepokankare", "stop_I": "131"}, "geometry": {"coordinates": [22.20570524932935, 60.47498002378198], "type": "Point"}, "type": "Feature"}, {"id": "84", "properties": {"name": "Hein\u00e4tie", "stop_I": "132"}, "geometry": {"coordinates": [22.39238720142227, 60.41633308782786], "type": "Point"}, "type": "Feature"}, {"id": "85", "properties": {"name": "V\u00e4h\u00e4heikkil\u00e4ntie", "stop_I": "137"}, "geometry": {"coordinates": [22.25784328971373, 60.43170481370634], "type": "Point"}, "type": "Feature"}, {"id": "86", "properties": {"name": "Ilpoistentie", "stop_I": "138"}, "geometry": {"coordinates": [22.29401438358151, 60.4237295273062], "type": "Point"}, "type": "Feature"}, {"id": "87", "properties": {"name": "Tikanmaa", "stop_I": "139"}, "geometry": {"coordinates": [22.11444084997988, 60.48829547065086], "type": "Point"}, "type": "Feature"}, {"id": "88", "properties": {"name": "Honkapirtti", "stop_I": "140"}, "geometry": {"coordinates": [22.14958699729958, 60.427574594557], "type": "Point"}, "type": "Feature"}, {"id": "89", "properties": {"name": "Nahkurinkatu", "stop_I": "142"}, "geometry": {"coordinates": [22.27530082646687, 60.45587313525798], "type": "Point"}, "type": "Feature"}, {"id": "90", "properties": {"name": "Kultanummentie", "stop_I": "144"}, "geometry": {"coordinates": [22.36123679293637, 60.4605873689268], "type": "Point"}, "type": "Feature"}, {"id": "91", "properties": {"name": "Hamppukatu", "stop_I": "146"}, "geometry": {"coordinates": [22.30084086652852, 60.42116592158316], "type": "Point"}, "type": "Feature"}, {"id": "92", "properties": {"name": "Nuntiuksenkuja", "stop_I": "148"}, "geometry": {"coordinates": [22.32131572897195, 60.47243251000072], "type": "Point"}, "type": "Feature"}, {"id": "93", "properties": {"name": "L\u00e4nsikeskus", "stop_I": "149"}, "geometry": {"coordinates": [22.22664612327198, 60.4730444518083], "type": "Point"}, "type": "Feature"}, {"id": "94", "properties": {"name": "Untolankatu", "stop_I": "150"}, "geometry": {"coordinates": [22.24563343098046, 60.46130763235374], "type": "Point"}, "type": "Feature"}, {"id": "95", "properties": {"name": "Vanhalinna", "stop_I": "152"}, "geometry": {"coordinates": [22.3826857877751, 60.48051818476122], "type": "Point"}, "type": "Feature"}, {"id": "96", "properties": {"name": "Linnanrauniontie", "stop_I": "153"}, "geometry": {"coordinates": [22.39502821518275, 60.39178298915722], "type": "Point"}, "type": "Feature"}, {"id": "97", "properties": {"name": "Tierankatu", "stop_I": "155"}, "geometry": {"coordinates": [22.31306551776323, 60.44369620327822], "type": "Point"}, "type": "Feature"}, {"id": "98", "properties": {"name": "Nummenniityntie", "stop_I": "159"}, "geometry": {"coordinates": [22.39710846231062, 60.40995193091026], "type": "Point"}, "type": "Feature"}, {"id": "99", "properties": {"name": "Birkka", "stop_I": "160"}, "geometry": {"coordinates": [22.1365223192956, 60.42748390750502], "type": "Point"}, "type": "Feature"}, {"id": "100", "properties": {"name": "Kauppatori", "stop_I": "162"}, "geometry": {"coordinates": [22.26677077830156, 60.45270183640614], "type": "Point"}, "type": "Feature"}, {"id": "101", "properties": {"name": "Kuormakatu", "stop_I": "164"}, "geometry": {"coordinates": [22.32252924993429, 60.48258043094638], "type": "Point"}, "type": "Feature"}, {"id": "102", "properties": {"name": "Portsa", "stop_I": "166"}, "geometry": {"coordinates": [22.24468034170816, 60.44681607492748], "type": "Point"}, "type": "Feature"}, {"id": "103", "properties": {"name": "Hakalanm\u00e4ki", "stop_I": "167"}, "geometry": {"coordinates": [22.3532579919389, 60.40696072180262], "type": "Point"}, "type": "Feature"}, {"id": "104", "properties": {"name": "Kupittaanpuisto", "stop_I": "168"}, "geometry": {"coordinates": [22.30231548609852, 60.44505212748928], "type": "Point"}, "type": "Feature"}, {"id": "105", "properties": {"name": "Poikkitie", "stop_I": "170"}, "geometry": {"coordinates": [22.13479581540253, 60.5083282553542], "type": "Point"}, "type": "Feature"}, {"id": "106", "properties": {"name": "Korvalankatu", "stop_I": "173"}, "geometry": {"coordinates": [22.2971841297197, 60.4628880092837], "type": "Point"}, "type": "Feature"}, {"id": "107", "properties": {"name": "Teollisuuskatu", "stop_I": "175"}, "geometry": {"coordinates": [22.29811754295859, 60.45117025678606], "type": "Point"}, "type": "Feature"}, {"id": "108", "properties": {"name": "Rykmentintie", "stop_I": "177"}, "geometry": {"coordinates": [22.24605117384006, 60.4313646359331], "type": "Point"}, "type": "Feature"}, {"id": "109", "properties": {"name": "Taalintehtaankatu", "stop_I": "178"}, "geometry": {"coordinates": [22.33601744693444, 60.43655552393106], "type": "Point"}, "type": "Feature"}, {"id": "110", "properties": {"name": "Pohjanpelto", "stop_I": "179"}, "geometry": {"coordinates": [22.35293989862921, 60.41020408144496], "type": "Point"}, "type": "Feature"}, {"id": "111", "properties": {"name": "Kellukkakatu", "stop_I": "180"}, "geometry": {"coordinates": [22.3754727511006, 60.3869862998009], "type": "Point"}, "type": "Feature"}, {"id": "112", "properties": {"name": "Artturinkatu", "stop_I": "183"}, "geometry": {"coordinates": [22.2383932824104, 60.44836237312436], "type": "Point"}, "type": "Feature"}, {"id": "113", "properties": {"name": "Kraatarinkatu", "stop_I": "184"}, "geometry": {"coordinates": [22.35264012713227, 60.44752121194176], "type": "Point"}, "type": "Feature"}, {"id": "114", "properties": {"name": "Koulumestarinkatu", "stop_I": "187"}, "geometry": {"coordinates": [22.22228141724102, 60.4089428571734], "type": "Point"}, "type": "Feature"}, {"id": "115", "properties": {"name": "Haapatie", "stop_I": "188"}, "geometry": {"coordinates": [22.30931792025511, 60.45729265537042], "type": "Point"}, "type": "Feature"}, {"id": "116", "properties": {"name": "Kunnallissairaalantie", "stop_I": "190"}, "geometry": {"coordinates": [22.27896442233091, 60.44195065366834], "type": "Point"}, "type": "Feature"}, {"id": "117", "properties": {"name": "Rukkikatu", "stop_I": "191"}, "geometry": {"coordinates": [22.38302651483998, 60.44690719094804], "type": "Point"}, "type": "Feature"}, {"id": "118", "properties": {"name": "Sillil\u00e4", "stop_I": "192"}, "geometry": {"coordinates": [22.41613737006264, 60.49386448334152], "type": "Point"}, "type": "Feature"}, {"id": "119", "properties": {"name": "Kylli\u00e4isentie", "stop_I": "193"}, "geometry": {"coordinates": [22.39709518986266, 60.39219623026512], "type": "Point"}, "type": "Feature"}, {"id": "120", "properties": {"name": "Satavansilta", "stop_I": "194"}, "geometry": {"coordinates": [22.2231569090587, 60.38145242016082], "type": "Point"}, "type": "Feature"}, {"id": "121", "properties": {"name": "Forum Marinum", "stop_I": "196"}, "geometry": {"coordinates": [22.23518299095028, 60.4372513543374], "type": "Point"}, "type": "Feature"}, {"id": "122", "properties": {"name": "Messinkikatu", "stop_I": "197"}, "geometry": {"coordinates": [22.32420852078445, 60.4878628704333], "type": "Point"}, "type": "Feature"}, {"id": "123", "properties": {"name": "Ruissalonsilta", "stop_I": "199"}, "geometry": {"coordinates": [22.20452532417028, 60.44070782286242], "type": "Point"}, "type": "Feature"}, {"id": "124", "properties": {"name": "T\u00e4htitorninkatu", "stop_I": "200"}, "geometry": {"coordinates": [22.28007374307089, 60.44533458553264], "type": "Point"}, "type": "Feature"}, {"id": "125", "properties": {"name": "Kotim\u00e4en koulu", "stop_I": "201"}, "geometry": {"coordinates": [22.41459120391106, 60.44579647004228], "type": "Point"}, "type": "Feature"}, {"id": "126", "properties": {"name": "S\u00e4rkilahden koulu", "stop_I": "202"}, "geometry": {"coordinates": [22.19165734845871, 60.4145548728814], "type": "Point"}, "type": "Feature"}, {"id": "127", "properties": {"name": "Paasirinne", "stop_I": "203"}, "geometry": {"coordinates": [22.25089400430408, 60.45609196358854], "type": "Point"}, "type": "Feature"}, {"id": "128", "properties": {"name": "Haunisten liittym\u00e4", "stop_I": "204"}, "geometry": {"coordinates": [22.18846791833444, 60.49097391034302], "type": "Point"}, "type": "Feature"}, {"id": "129", "properties": {"name": "Pelttarinkatu", "stop_I": "205"}, "geometry": {"coordinates": [22.36144228458663, 60.44896121087542], "type": "Point"}, "type": "Feature"}, {"id": "130", "properties": {"name": "Kaislahdentie", "stop_I": "208"}, "geometry": {"coordinates": [22.28501492808631, 60.37206457543712], "type": "Point"}, "type": "Feature"}, {"id": "131", "properties": {"name": "Kaarinan palolaitos", "stop_I": "211"}, "geometry": {"coordinates": [22.37221425854957, 60.40657926343246], "type": "Point"}, "type": "Feature"}, {"id": "132", "properties": {"name": "Kasarminkatu", "stop_I": "213"}, "geometry": {"coordinates": [22.28240284618106, 60.45748277476142], "type": "Point"}, "type": "Feature"}, {"id": "133", "properties": {"name": "Brinkhall", "stop_I": "214"}, "geometry": {"coordinates": [22.24025603920855, 60.3676086861822], "type": "Point"}, "type": "Feature"}, {"id": "134", "properties": {"name": "Mikaelinkirkko", "stop_I": "215"}, "geometry": {"coordinates": [22.24881480874334, 60.44828550177568], "type": "Point"}, "type": "Feature"}, {"id": "135", "properties": {"name": "Arvinkatu", "stop_I": "216"}, "geometry": {"coordinates": [22.24178020284819, 60.44586719895222], "type": "Point"}, "type": "Feature"}, {"id": "136", "properties": {"name": "Kupittaankatu", "stop_I": "217"}, "geometry": {"coordinates": [22.25855631115839, 60.43741248732326], "type": "Point"}, "type": "Feature"}, {"id": "137", "properties": {"name": "Kaupungintalo", "stop_I": "218"}, "geometry": {"coordinates": [22.26911350968129, 60.4491169218915], "type": "Point"}, "type": "Feature"}, {"id": "138", "properties": {"name": "Kalevalankatu", "stop_I": "219"}, "geometry": {"coordinates": [22.37242551569969, 60.45080913214876], "type": "Point"}, "type": "Feature"}, {"id": "139", "properties": {"name": "Kaupunginsairaala", "stop_I": "221"}, "geometry": {"coordinates": [22.27594407337162, 60.4416995499998], "type": "Point"}, "type": "Feature"}, {"id": "140", "properties": {"name": "Raatimiehenkatu", "stop_I": "222"}, "geometry": {"coordinates": [22.35375085726855, 60.43505456275184], "type": "Point"}, "type": "Feature"}, {"id": "141", "properties": {"name": "Pikikurjentie", "stop_I": "223"}, "geometry": {"coordinates": [22.20003801432228, 60.41739335125198], "type": "Point"}, "type": "Feature"}, {"id": "142", "properties": {"name": "Hiidenkatu", "stop_I": "225"}, "geometry": {"coordinates": [22.28646340354212, 60.48993025293722], "type": "Point"}, "type": "Feature"}, {"id": "143", "properties": {"name": "Karjalankatu", "stop_I": "226"}, "geometry": {"coordinates": [22.30310662175852, 60.41265996474634], "type": "Point"}, "type": "Feature"}, {"id": "144", "properties": {"name": "Markulantie", "stop_I": "228"}, "geometry": {"coordinates": [22.22861384754657, 60.4718023214305], "type": "Point"}, "type": "Feature"}, {"id": "145", "properties": {"name": "Kaakelitehdas", "stop_I": "229"}, "geometry": {"coordinates": [22.23692684153647, 60.45674345516734], "type": "Point"}, "type": "Feature"}, {"id": "146", "properties": {"name": "Moikoistenkatu", "stop_I": "231"}, "geometry": {"coordinates": [22.24631255172233, 60.41478561965538], "type": "Point"}, "type": "Feature"}, {"id": "147", "properties": {"name": "Hollanterintie", "stop_I": "232"}, "geometry": {"coordinates": [22.4066568775117, 60.45120434932228], "type": "Point"}, "type": "Feature"}, {"id": "148", "properties": {"name": "Ihalan kentt\u00e4", "stop_I": "234"}, "geometry": {"coordinates": [22.17850718095704, 60.47144380730178], "type": "Point"}, "type": "Feature"}, {"id": "149", "properties": {"name": "Uittamo", "stop_I": "237"}, "geometry": {"coordinates": [22.26472774589527, 60.41729507236474], "type": "Point"}, "type": "Feature"}, {"id": "150", "properties": {"name": "Ahjokatu", "stop_I": "239"}, "geometry": {"coordinates": [22.1481135129556, 60.44864219336512], "type": "Point"}, "type": "Feature"}, {"id": "151", "properties": {"name": "Honkaistenranta", "stop_I": "240"}, "geometry": {"coordinates": [22.22775, 60.42226], "type": "Point"}, "type": "Feature"}, {"id": "152", "properties": {"name": "Suutarinkatu", "stop_I": "241"}, "geometry": {"coordinates": [22.27100363325612, 60.4627512546536], "type": "Point"}, "type": "Feature"}, {"id": "153", "properties": {"name": "Urheilutalo", "stop_I": "242"}, "geometry": {"coordinates": [22.34807775502534, 60.5168026382965], "type": "Point"}, "type": "Feature"}, {"id": "154", "properties": {"name": "Ahmankatu", "stop_I": "243"}, "geometry": {"coordinates": [22.33077089857812, 60.4118006022149], "type": "Point"}, "type": "Feature"}, {"id": "155", "properties": {"name": "Riistakatu", "stop_I": "245"}, "geometry": {"coordinates": [22.23461534080577, 60.41049159976206], "type": "Point"}, "type": "Feature"}, {"id": "156", "properties": {"name": "Margareetantie", "stop_I": "246"}, "geometry": {"coordinates": [22.18870536163858, 60.3894160395727], "type": "Point"}, "type": "Feature"}, {"id": "157", "properties": {"name": "Maanp\u00e4\u00e4ntie", "stop_I": "247"}, "geometry": {"coordinates": [22.19043551191444, 60.4159312984818], "type": "Point"}, "type": "Feature"}, {"id": "158", "properties": {"name": "Palloiluhalli", "stop_I": "248"}, "geometry": {"coordinates": [22.24931541508746, 60.47880965660638], "type": "Point"}, "type": "Feature"}, {"id": "159", "properties": {"name": "Jaaninoja", "stop_I": "249"}, "geometry": {"coordinates": [22.32770306649198, 60.44629698773464], "type": "Point"}, "type": "Feature"}, {"id": "160", "properties": {"name": "Huhkonmaantie", "stop_I": "250"}, "geometry": {"coordinates": [22.33731925357595, 60.5080565002119], "type": "Point"}, "type": "Feature"}, {"id": "161", "properties": {"name": "Eskonkatu", "stop_I": "253"}, "geometry": {"coordinates": [22.24950720656208, 60.47725207937526], "type": "Point"}, "type": "Feature"}, {"id": "162", "properties": {"name": "Suikkilantie", "stop_I": "255"}, "geometry": {"coordinates": [22.19418607686859, 60.45401037469206], "type": "Point"}, "type": "Feature"}, {"id": "163", "properties": {"name": "Lukoilantie", "stop_I": "256"}, "geometry": {"coordinates": [22.22963683052364, 60.4667050939269], "type": "Point"}, "type": "Feature"}, {"id": "164", "properties": {"name": "K\u00e4h\u00e4rintie", "stop_I": "257"}, "geometry": {"coordinates": [22.24834270629422, 60.45698087273836], "type": "Point"}, "type": "Feature"}, {"id": "165", "properties": {"name": "K\u00e4mnerinpolku", "stop_I": "258"}, "geometry": {"coordinates": [22.35074271404656, 60.4352281275511], "type": "Point"}, "type": "Feature"}, {"id": "166", "properties": {"name": "Pikisaari", "stop_I": "259"}, "geometry": {"coordinates": [22.20371884910542, 60.42658043419536], "type": "Point"}, "type": "Feature"}, {"id": "167", "properties": {"name": "Karjalankatu", "stop_I": "261"}, "geometry": {"coordinates": [22.30208344103388, 60.41256986047498], "type": "Point"}, "type": "Feature"}, {"id": "168", "properties": {"name": "Littoisten koulu", "stop_I": "262"}, "geometry": {"coordinates": [22.41129618142267, 60.45147232828534], "type": "Point"}, "type": "Feature"}, {"id": "169", "properties": {"name": "Pohjoissalmi", "stop_I": "269"}, "geometry": {"coordinates": [22.185748685957, 60.4459726799624], "type": "Point"}, "type": "Feature"}, {"id": "170", "properties": {"name": "Moikoinen", "stop_I": "270"}, "geometry": {"coordinates": [22.2352749318992, 60.41194482762026], "type": "Point"}, "type": "Feature"}, {"id": "171", "properties": {"name": "Maksla", "stop_I": "272"}, "geometry": {"coordinates": [22.23197834685255, 60.50180917004876], "type": "Point"}, "type": "Feature"}, {"id": "172", "properties": {"name": "Ilpoinen", "stop_I": "273"}, "geometry": {"coordinates": [22.28513405209567, 60.41850594791386], "type": "Point"}, "type": "Feature"}, {"id": "173", "properties": {"name": "Seuraintalo", "stop_I": "276"}, "geometry": {"coordinates": [22.16931962851913, 60.37620526280662], "type": "Point"}, "type": "Feature"}, {"id": "174", "properties": {"name": "Majakkaranta", "stop_I": "277"}, "geometry": {"coordinates": [22.23231878999859, 60.43061218327026], "type": "Point"}, "type": "Feature"}, {"id": "175", "properties": {"name": "Pernon kartano", "stop_I": "278"}, "geometry": {"coordinates": [22.15182217834426, 60.45525139942748], "type": "Point"}, "type": "Feature"}, {"id": "176", "properties": {"name": "Laukkavuori", "stop_I": "279"}, "geometry": {"coordinates": [22.32846528582332, 60.44137902618866], "type": "Point"}, "type": "Feature"}, {"id": "177", "properties": {"name": "Hovirinnan p\u00e4iv\u00e4koti", "stop_I": "280"}, "geometry": {"coordinates": [22.36469656463174, 60.40168732952322], "type": "Point"}, "type": "Feature"}, {"id": "178", "properties": {"name": "Vesivuotavantie", "stop_I": "281"}, "geometry": {"coordinates": [22.21840692485921, 60.4564117316494], "type": "Point"}, "type": "Feature"}, {"id": "179", "properties": {"name": "Aitonkuja", "stop_I": "285"}, "geometry": {"coordinates": [22.33322197100113, 60.50258170981154], "type": "Point"}, "type": "Feature"}, {"id": "180", "properties": {"name": "Verkakaari", "stop_I": "286"}, "geometry": {"coordinates": [22.41721553959534, 60.44512277122276], "type": "Point"}, "type": "Feature"}, {"id": "181", "properties": {"name": "Lyijykatu", "stop_I": "287"}, "geometry": {"coordinates": [22.31892785652738, 60.50386013029146], "type": "Point"}, "type": "Feature"}, {"id": "182", "properties": {"name": "Krossinkatu", "stop_I": "288"}, "geometry": {"coordinates": [22.38169509390361, 60.41903667395304], "type": "Point"}, "type": "Feature"}, {"id": "183", "properties": {"name": "Ilmarisenkatu", "stop_I": "289"}, "geometry": {"coordinates": [22.30989109438666, 60.44576900376596], "type": "Point"}, "type": "Feature"}, {"id": "184", "properties": {"name": "Koristo", "stop_I": "290"}, "geometry": {"coordinates": [22.35788188259288, 60.4043622978741], "type": "Point"}, "type": "Feature"}, {"id": "185", "properties": {"name": "Empola", "stop_I": "292"}, "geometry": {"coordinates": [22.38594868505562, 60.38958008241964], "type": "Point"}, "type": "Feature"}, {"id": "186", "properties": {"name": "Suutarinkatu", "stop_I": "294"}, "geometry": {"coordinates": [22.27095697553462, 60.46282152269652], "type": "Point"}, "type": "Feature"}, {"id": "187", "properties": {"name": "Skanssi", "stop_I": "298"}, "geometry": {"coordinates": [22.32303887929153, 60.42789141591328], "type": "Point"}, "type": "Feature"}, {"id": "188", "properties": {"name": "Urpontie", "stop_I": "299"}, "geometry": {"coordinates": [22.26931343549407, 60.45973319285174], "type": "Point"}, "type": "Feature"}, {"id": "189", "properties": {"name": "Kuhilastie", "stop_I": "302"}, "geometry": {"coordinates": [22.40480740449701, 60.41064983133856], "type": "Point"}, "type": "Feature"}, {"id": "190", "properties": {"name": "Kaarinan terveyskeskus", "stop_I": "303"}, "geometry": {"coordinates": [22.37512223810935, 60.40734575642778], "type": "Point"}, "type": "Feature"}, {"id": "191", "properties": {"name": "Iso-Pukintie", "stop_I": "305"}, "geometry": {"coordinates": [22.14089940529031, 60.42704152805558], "type": "Point"}, "type": "Feature"}, {"id": "192", "properties": {"name": "Kauppahalli", "stop_I": "307"}, "geometry": {"coordinates": [22.26582360588683, 60.44883803320378], "type": "Point"}, "type": "Feature"}, {"id": "193", "properties": {"name": "Kivikartiontie", "stop_I": "310"}, "geometry": {"coordinates": [22.29297444093944, 60.43618074737284], "type": "Point"}, "type": "Feature"}, {"id": "194", "properties": {"name": "Parolanpuisto", "stop_I": "312"}, "geometry": {"coordinates": [22.26105594874434, 60.49183338546786], "type": "Point"}, "type": "Feature"}, {"id": "195", "properties": {"name": "P\u00e4ssinkaari", "stop_I": "313"}, "geometry": {"coordinates": [22.24489882873232, 60.53498926136774], "type": "Point"}, "type": "Feature"}, {"id": "196", "properties": {"name": "Nuutintie", "stop_I": "314"}, "geometry": {"coordinates": [22.23871680889173, 60.44888644314608], "type": "Point"}, "type": "Feature"}, {"id": "197", "properties": {"name": "Turun linna", "stop_I": "315"}, "geometry": {"coordinates": [22.22922896171466, 60.43579710254972], "type": "Point"}, "type": "Feature"}, {"id": "198", "properties": {"name": "Nousiaistenkatu", "stop_I": "317"}, "geometry": {"coordinates": [22.29058928210258, 60.53475977706342], "type": "Point"}, "type": "Feature"}, {"id": "199", "properties": {"name": "Ojarinne", "stop_I": "318"}, "geometry": {"coordinates": [22.24493053135706, 60.43479508390576], "type": "Point"}, "type": "Feature"}, {"id": "200", "properties": {"name": "Finnberginkatu", "stop_I": "321"}, "geometry": {"coordinates": [22.24431494250469, 60.48793672635272], "type": "Point"}, "type": "Feature"}, {"id": "201", "properties": {"name": "P\u00e4\u00e4skyvuori", "stop_I": "325"}, "geometry": {"coordinates": [22.33225605504171, 60.4439934718435], "type": "Point"}, "type": "Feature"}, {"id": "202", "properties": {"name": "Orminkuja", "stop_I": "328"}, "geometry": {"coordinates": [22.35174380889303, 60.44933289885452], "type": "Point"}, "type": "Feature"}, {"id": "203", "properties": {"name": "Vaskitie", "stop_I": "329"}, "geometry": {"coordinates": [22.36677095500302, 60.44477769148198], "type": "Point"}, "type": "Feature"}, {"id": "204", "properties": {"name": "Oriniemi", "stop_I": "330"}, "geometry": {"coordinates": [22.16771441585603, 60.39509201400376], "type": "Point"}, "type": "Feature"}, {"id": "205", "properties": {"name": "Avantintie", "stop_I": "332"}, "geometry": {"coordinates": [22.40103394027525, 60.46854047075174], "type": "Point"}, "type": "Feature"}, {"id": "206", "properties": {"name": "K-Supermarket Katariina", "stop_I": "333"}, "geometry": {"coordinates": [22.36074259896995, 60.40724017179056], "type": "Point"}, "type": "Feature"}, {"id": "207", "properties": {"name": "Korppolaism\u00e4ki", "stop_I": "334"}, "geometry": {"coordinates": [22.24082801848971, 60.43249945959626], "type": "Point"}, "type": "Feature"}, {"id": "208", "properties": {"name": "Oskarinaukio", "stop_I": "336"}, "geometry": {"coordinates": [22.36801468705494, 60.40709824219196], "type": "Point"}, "type": "Feature"}, {"id": "209", "properties": {"name": "Maunu Tavastin katu", "stop_I": "338"}, "geometry": {"coordinates": [22.30856960071421, 60.4730446793815], "type": "Point"}, "type": "Feature"}, {"id": "210", "properties": {"name": "Fiskarsinkatu", "stop_I": "340"}, "geometry": {"coordinates": [22.33050203365621, 60.43480663460974], "type": "Point"}, "type": "Feature"}, {"id": "211", "properties": {"name": "Rusiininloukku", "stop_I": "341"}, "geometry": {"coordinates": [22.34871096289322, 60.37139779835688], "type": "Point"}, "type": "Feature"}, {"id": "212", "properties": {"name": "Ahjokatu", "stop_I": "343"}, "geometry": {"coordinates": [22.15335451054154, 60.44657639613864], "type": "Point"}, "type": "Feature"}, {"id": "213", "properties": {"name": "Maaherrankatu", "stop_I": "344"}, "geometry": {"coordinates": [22.22740805836939, 60.44942520552662], "type": "Point"}, "type": "Feature"}, {"id": "214", "properties": {"name": "Kappeli", "stop_I": "345"}, "geometry": {"coordinates": [22.30627368398238, 60.4282446352737], "type": "Point"}, "type": "Feature"}, {"id": "215", "properties": {"name": "Toivolankatu", "stop_I": "349"}, "geometry": {"coordinates": [22.26868027450464, 60.43785399280348], "type": "Point"}, "type": "Feature"}, {"id": "216", "properties": {"name": "Kauppatori", "stop_I": "350"}, "geometry": {"coordinates": [22.26581294948825, 60.45115729044102], "type": "Point"}, "type": "Feature"}, {"id": "217", "properties": {"name": "Kaivoinen", "stop_I": "351"}, "geometry": {"coordinates": [22.18206546579345, 60.37327852224884], "type": "Point"}, "type": "Feature"}, {"id": "218", "properties": {"name": "Tuomiokirkkotori", "stop_I": "352"}, "geometry": {"coordinates": [22.27642654443383, 60.45139075521126], "type": "Point"}, "type": "Feature"}, {"id": "219", "properties": {"name": "Aitonkuja", "stop_I": "356"}, "geometry": {"coordinates": [22.33102270173273, 60.5032957746326], "type": "Point"}, "type": "Feature"}, {"id": "220", "properties": {"name": "Nunnantie", "stop_I": "358"}, "geometry": {"coordinates": [22.42996732121561, 60.44656833093366], "type": "Point"}, "type": "Feature"}, {"id": "221", "properties": {"name": "Tenavakatu", "stop_I": "359"}, "geometry": {"coordinates": [22.157380669333, 60.49826271659382], "type": "Point"}, "type": "Feature"}, {"id": "222", "properties": {"name": "Ruotsalantie", "stop_I": "360"}, "geometry": {"coordinates": [22.20785094647801, 60.40176975136264], "type": "Point"}, "type": "Feature"}, {"id": "223", "properties": {"name": "Kotim\u00e4enkatu", "stop_I": "361"}, "geometry": {"coordinates": [22.31901821025307, 60.4579399833876], "type": "Point"}, "type": "Feature"}, {"id": "224", "properties": {"name": "Villa Y-Hovi", "stop_I": "362"}, "geometry": {"coordinates": [22.107845212303, 60.42658449077326], "type": "Point"}, "type": "Feature"}, {"id": "225", "properties": {"name": "Kaerlantie", "stop_I": "364"}, "geometry": {"coordinates": [22.28454970978179, 60.4787859426691], "type": "Point"}, "type": "Feature"}, {"id": "226", "properties": {"name": "Pohjola", "stop_I": "365"}, "geometry": {"coordinates": [22.34727804935153, 60.40645483092098], "type": "Point"}, "type": "Feature"}, {"id": "227", "properties": {"name": "Ilpoistenm\u00e4ki", "stop_I": "366"}, "geometry": {"coordinates": [22.28889146800723, 60.42130940338442], "type": "Point"}, "type": "Feature"}, {"id": "228", "properties": {"name": "Ostoskeskus", "stop_I": "368"}, "geometry": {"coordinates": [22.28544731386489, 60.42186160688832], "type": "Point"}, "type": "Feature"}, {"id": "229", "properties": {"name": "Telakkaranta", "stop_I": "369"}, "geometry": {"coordinates": [22.23932538978643, 60.43530481275018], "type": "Point"}, "type": "Feature"}, {"id": "230", "properties": {"name": "It\u00e4niityntie", "stop_I": "374"}, "geometry": {"coordinates": [22.21151806709799, 60.4902585484018], "type": "Point"}, "type": "Feature"}, {"id": "231", "properties": {"name": "Paasirinne", "stop_I": "375"}, "geometry": {"coordinates": [22.25060272755386, 60.45621642890368], "type": "Point"}, "type": "Feature"}, {"id": "232", "properties": {"name": "Uudenmaantulli", "stop_I": "376"}, "geometry": {"coordinates": [22.2830680255021, 60.44639382722068], "type": "Point"}, "type": "Feature"}, {"id": "233", "properties": {"name": "Karjakuja", "stop_I": "377"}, "geometry": {"coordinates": [22.30652616353334, 60.4555758938276], "type": "Point"}, "type": "Feature"}, {"id": "234", "properties": {"name": "P\u00e4\u00e4terveysasema", "stop_I": "378"}, "geometry": {"coordinates": [22.27348731926602, 60.43907685711148], "type": "Point"}, "type": "Feature"}, {"id": "235", "properties": {"name": "G\u00f6teborginkatu", "stop_I": "380"}, "geometry": {"coordinates": [22.21785476507621, 60.46435804934886], "type": "Point"}, "type": "Feature"}, {"id": "236", "properties": {"name": "Hulkkio", "stop_I": "381"}, "geometry": {"coordinates": [22.42813100207922, 60.41372849444886], "type": "Point"}, "type": "Feature"}, {"id": "237", "properties": {"name": "It\u00e4keskus", "stop_I": "385"}, "geometry": {"coordinates": [22.35879442482119, 60.4431690511179], "type": "Point"}, "type": "Feature"}, {"id": "238", "properties": {"name": "Kulkuripellontie", "stop_I": "389"}, "geometry": {"coordinates": [22.41220839832182, 60.47231533217848], "type": "Point"}, "type": "Feature"}, {"id": "239", "properties": {"name": "Soukkio", "stop_I": "394"}, "geometry": {"coordinates": [22.41842306630111, 60.41192891552954], "type": "Point"}, "type": "Feature"}, {"id": "240", "properties": {"name": "Ilmarinen", "stop_I": "396"}, "geometry": {"coordinates": [22.38185632094645, 60.50641671489856], "type": "Point"}, "type": "Feature"}, {"id": "241", "properties": {"name": "Lausteen koulu", "stop_I": "397"}, "geometry": {"coordinates": [22.35901268884271, 60.43273002404418], "type": "Point"}, "type": "Feature"}, {"id": "242", "properties": {"name": "Mets\u00e4tie", "stop_I": "398"}, "geometry": {"coordinates": [22.37038079153601, 60.3904769452703], "type": "Point"}, "type": "Feature"}, {"id": "243", "properties": {"name": "Luolavuorentie", "stop_I": "400"}, "geometry": {"coordinates": [22.27032494978883, 60.4389284601985], "type": "Point"}, "type": "Feature"}, {"id": "244", "properties": {"name": "Messukent\u00e4nkatu", "stop_I": "401"}, "geometry": {"coordinates": [22.1781572417384, 60.44905146199702], "type": "Point"}, "type": "Feature"}, {"id": "245", "properties": {"name": "Kuralankaarre", "stop_I": "403"}, "geometry": {"coordinates": [22.32805901915143, 60.4624113378218], "type": "Point"}, "type": "Feature"}, {"id": "246", "properties": {"name": "Friskalantie", "stop_I": "404"}, "geometry": {"coordinates": [22.23512899012906, 60.39917228372734], "type": "Point"}, "type": "Feature"}, {"id": "247", "properties": {"name": "Lemunniemi", "stop_I": "405"}, "geometry": {"coordinates": [22.30259224363286, 60.38929315756118], "type": "Point"}, "type": "Feature"}, {"id": "248", "properties": {"name": "Skanssinkatu", "stop_I": "408"}, "geometry": {"coordinates": [22.3193508890978, 60.42988339315388], "type": "Point"}, "type": "Feature"}, {"id": "249", "properties": {"name": "Lukoilantie", "stop_I": "410"}, "geometry": {"coordinates": [22.23415747956385, 60.46642652986278], "type": "Point"}, "type": "Feature"}, {"id": "250", "properties": {"name": "Leaf", "stop_I": "411"}, "geometry": {"coordinates": [22.28627710424612, 60.48582390417794], "type": "Point"}, "type": "Feature"}, {"id": "251", "properties": {"name": "Kansanpuistontie", "stop_I": "412"}, "geometry": {"coordinates": [22.1819962716184, 60.43434576994194], "type": "Point"}, "type": "Feature"}, {"id": "252", "properties": {"name": "Aurorankatu", "stop_I": "414"}, "geometry": {"coordinates": [22.23257116315529, 60.4887394367161], "type": "Point"}, "type": "Feature"}, {"id": "253", "properties": {"name": "Kyl\u00e4m\u00e4ki", "stop_I": "415"}, "geometry": {"coordinates": [22.33345905762266, 60.46157593116484], "type": "Point"}, "type": "Feature"}, {"id": "254", "properties": {"name": "Tykist\u00f6katu", "stop_I": "416"}, "geometry": {"coordinates": [22.29420519521664, 60.45041155574394], "type": "Point"}, "type": "Feature"}, {"id": "255", "properties": {"name": "Pispalantie", "stop_I": "417"}, "geometry": {"coordinates": [22.28667870088107, 60.46125758004736], "type": "Point"}, "type": "Feature"}, {"id": "256", "properties": {"name": "Suitsikatu", "stop_I": "418"}, "geometry": {"coordinates": [22.35391185360719, 60.40798150138444], "type": "Point"}, "type": "Feature"}, {"id": "257", "properties": {"name": "Porkankuja", "stop_I": "419"}, "geometry": {"coordinates": [22.26754968801197, 60.43175394069048], "type": "Point"}, "type": "Feature"}, {"id": "258", "properties": {"name": "Pujottelum\u00e4ki", "stop_I": "420"}, "geometry": {"coordinates": [22.22986095124237, 60.41749593216734], "type": "Point"}, "type": "Feature"}, {"id": "259", "properties": {"name": "Laureuksenkatu", "stop_I": "421"}, "geometry": {"coordinates": [22.24401330027495, 60.48986799906092], "type": "Point"}, "type": "Feature"}, {"id": "260", "properties": {"name": "Ilpoistenrinne", "stop_I": "422"}, "geometry": {"coordinates": [22.28389586106074, 60.41500958327014], "type": "Point"}, "type": "Feature"}, {"id": "261", "properties": {"name": "Punomontie", "stop_I": "425"}, "geometry": {"coordinates": [22.27351734434914, 60.4754906011155], "type": "Point"}, "type": "Feature"}, {"id": "262", "properties": {"name": "Maanp\u00e4\u00e4ntie", "stop_I": "429"}, "geometry": {"coordinates": [22.16914044788886, 60.41081608402594], "type": "Point"}, "type": "Feature"}, {"id": "263", "properties": {"name": "Kauppakeskus Mylly", "stop_I": "433"}, "geometry": {"coordinates": [22.2003564753346, 60.49154694045098], "type": "Point"}, "type": "Feature"}, {"id": "264", "properties": {"name": "Puimalankuja", "stop_I": "434"}, "geometry": {"coordinates": [22.28908523434303, 60.42925505341878], "type": "Point"}, "type": "Feature"}, {"id": "265", "properties": {"name": "Kupittaankatu", "stop_I": "435"}, "geometry": {"coordinates": [22.27191696294397, 60.4422397420315], "type": "Point"}, "type": "Feature"}, {"id": "266", "properties": {"name": "Hartwall", "stop_I": "440"}, "geometry": {"coordinates": [22.32289601443085, 60.41485919642376], "type": "Point"}, "type": "Feature"}, {"id": "267", "properties": {"name": "Pernontie", "stop_I": "441"}, "geometry": {"coordinates": [22.16015488609853, 60.45272251055298], "type": "Point"}, "type": "Feature"}, {"id": "268", "properties": {"name": "Pyydysm\u00e4ki", "stop_I": "442"}, "geometry": {"coordinates": [22.41955910965373, 60.44592267695128], "type": "Point"}, "type": "Feature"}, {"id": "269", "properties": {"name": "Oskarinaukio", "stop_I": "445"}, "geometry": {"coordinates": [22.36801620736654, 60.40721516754334], "type": "Point"}, "type": "Feature"}, {"id": "270", "properties": {"name": "Wibeliuksenpuisto", "stop_I": "446"}, "geometry": {"coordinates": [22.26960371502618, 60.41877235404492], "type": "Point"}, "type": "Feature"}, {"id": "271", "properties": {"name": "Siirtolapuutarha", "stop_I": "448"}, "geometry": {"coordinates": [22.29361317403069, 60.42172838757706], "type": "Point"}, "type": "Feature"}, {"id": "272", "properties": {"name": "M\u00e4ntyl\u00e4ntie", "stop_I": "449"}, "geometry": {"coordinates": [22.42170243981242, 60.45769220584126], "type": "Point"}, "type": "Feature"}, {"id": "273", "properties": {"name": "Puutori", "stop_I": "451"}, "geometry": {"coordinates": [22.267198474711, 60.45413760497812], "type": "Point"}, "type": "Feature"}, {"id": "274", "properties": {"name": "P\u00e4\u00e4skynlento", "stop_I": "452"}, "geometry": {"coordinates": [22.34182596446715, 60.45034350677186], "type": "Point"}, "type": "Feature"}, {"id": "275", "properties": {"name": "Kuormakatu", "stop_I": "453"}, "geometry": {"coordinates": [22.32042563551505, 60.48327068423646], "type": "Point"}, "type": "Feature"}, {"id": "276", "properties": {"name": "Halvarinkatu", "stop_I": "454"}, "geometry": {"coordinates": [22.23868923338486, 60.40749974063734], "type": "Point"}, "type": "Feature"}, {"id": "277", "properties": {"name": "Pihlajaniemi", "stop_I": "455"}, "geometry": {"coordinates": [22.24019483496389, 60.42788238317976], "type": "Point"}, "type": "Feature"}, {"id": "278", "properties": {"name": "K\u00e4h\u00e4rintie", "stop_I": "457"}, "geometry": {"coordinates": [22.24837499684065, 60.4570089989524], "type": "Point"}, "type": "Feature"}, {"id": "279", "properties": {"name": "Urheiluhalli", "stop_I": "458"}, "geometry": {"coordinates": [22.29756509508492, 60.4469431147842], "type": "Point"}, "type": "Feature"}, {"id": "280", "properties": {"name": "Turunmaankatu", "stop_I": "460"}, "geometry": {"coordinates": [22.30525249080184, 60.4135359396195], "type": "Point"}, "type": "Feature"}, {"id": "281", "properties": {"name": "Lukoilantie", "stop_I": "461"}, "geometry": {"coordinates": [22.2337111829766, 60.46636558835518], "type": "Point"}, "type": "Feature"}, {"id": "282", "properties": {"name": "Rieskal\u00e4hteentie", "stop_I": "462"}, "geometry": {"coordinates": [22.2640941576201, 60.47066917819718], "type": "Point"}, "type": "Feature"}, {"id": "283", "properties": {"name": "Lehmusaukio", "stop_I": "464"}, "geometry": {"coordinates": [22.30283222756589, 60.43720360595344], "type": "Point"}, "type": "Feature"}, {"id": "284", "properties": {"name": "Luhtikatu", "stop_I": "465"}, "geometry": {"coordinates": [22.35833558959699, 60.39914582057252], "type": "Point"}, "type": "Feature"}, {"id": "285", "properties": {"name": "Muhkuri", "stop_I": "467"}, "geometry": {"coordinates": [22.21562080654172, 60.4581457558703], "type": "Point"}, "type": "Feature"}, {"id": "286", "properties": {"name": "Rauhalantie", "stop_I": "468"}, "geometry": {"coordinates": [22.17664304118421, 60.4333963978322], "type": "Point"}, "type": "Feature"}, {"id": "287", "properties": {"name": "Paimala", "stop_I": "469"}, "geometry": {"coordinates": [22.34551786234202, 60.5120292837091], "type": "Point"}, "type": "Feature"}, {"id": "288", "properties": {"name": "Huolintakatu", "stop_I": "470"}, "geometry": {"coordinates": [22.22428613387836, 60.442686692123], "type": "Point"}, "type": "Feature"}, {"id": "289", "properties": {"name": "Telakka", "stop_I": "471"}, "geometry": {"coordinates": [22.2461195725321, 60.43847894511068], "type": "Point"}, "type": "Feature"}, {"id": "290", "properties": {"name": "Palom\u00e4ki", "stop_I": "474"}, "geometry": {"coordinates": [22.42994588057147, 60.4596476904], "type": "Point"}, "type": "Feature"}, {"id": "291", "properties": {"name": "It\u00e4inen Pitk\u00e4katu", "stop_I": "476"}, "geometry": {"coordinates": [22.27670633163195, 60.44383945489044], "type": "Point"}, "type": "Feature"}, {"id": "292", "properties": {"name": "Loukinaisten huoltamo", "stop_I": "478"}, "geometry": {"coordinates": [22.40074836915228, 60.48583622573492], "type": "Point"}, "type": "Feature"}, {"id": "293", "properties": {"name": "C. O. Malmin koulu", "stop_I": "482"}, "geometry": {"coordinates": [22.32617578542099, 60.45703185408564], "type": "Point"}, "type": "Feature"}, {"id": "294", "properties": {"name": "K\u00e4rs\u00e4m\u00e4en koulu", "stop_I": "483"}, "geometry": {"coordinates": [22.2882266328828, 60.48231463472114], "type": "Point"}, "type": "Feature"}, {"id": "295", "properties": {"name": "Hintsa Knaapin katu", "stop_I": "485"}, "geometry": {"coordinates": [22.35626309644132, 60.4419119662827], "type": "Point"}, "type": "Feature"}, {"id": "296", "properties": {"name": "Konsanm\u00e4ki", "stop_I": "486"}, "geometry": {"coordinates": [22.15695907141591, 60.47645183283724], "type": "Point"}, "type": "Feature"}, {"id": "297", "properties": {"name": "Kulkkilanrannantie", "stop_I": "487"}, "geometry": {"coordinates": [22.17230512368575, 60.3926873497388], "type": "Point"}, "type": "Feature"}, {"id": "298", "properties": {"name": "Alhainen", "stop_I": "489"}, "geometry": {"coordinates": [22.15512132433793, 60.47997257825834], "type": "Point"}, "type": "Feature"}, {"id": "299", "properties": {"name": "Raision kaupungintalo", "stop_I": "490"}, "geometry": {"coordinates": [22.1722694729077, 60.48471382321592], "type": "Point"}, "type": "Feature"}, {"id": "300", "properties": {"name": "Saram\u00e4entie", "stop_I": "494"}, "geometry": {"coordinates": [22.27792073465149, 60.46564020698694], "type": "Point"}, "type": "Feature"}, {"id": "301", "properties": {"name": "Kaislatie", "stop_I": "495"}, "geometry": {"coordinates": [22.18384291392104, 60.40189075517402], "type": "Point"}, "type": "Feature"}, {"id": "302", "properties": {"name": "Rieskal\u00e4hteentie", "stop_I": "497"}, "geometry": {"coordinates": [22.25474171538371, 60.4646357689112], "type": "Point"}, "type": "Feature"}, {"id": "303", "properties": {"name": "Uittamontie", "stop_I": "499"}, "geometry": {"coordinates": [22.26029831355868, 60.43519989486248], "type": "Point"}, "type": "Feature"}, {"id": "304", "properties": {"name": "Toijaistentie", "stop_I": "500"}, "geometry": {"coordinates": [22.22589129731616, 60.42669518534606], "type": "Point"}, "type": "Feature"}, {"id": "305", "properties": {"name": "Koristo", "stop_I": "501"}, "geometry": {"coordinates": [22.35786421370579, 60.40461340769966], "type": "Point"}, "type": "Feature"}, {"id": "306", "properties": {"name": "S\u00e4hk\u00f6laitos", "stop_I": "502"}, "geometry": {"coordinates": [22.23815037301475, 60.438355653587], "type": "Point"}, "type": "Feature"}, {"id": "307", "properties": {"name": "Illoistentie", "stop_I": "503"}, "geometry": {"coordinates": [22.18926236957432, 60.41120433668068], "type": "Point"}, "type": "Feature"}, {"id": "308", "properties": {"name": "Suvilinnantie", "stop_I": "506"}, "geometry": {"coordinates": [22.22072773240652, 60.39119238057032], "type": "Point"}, "type": "Feature"}, {"id": "309", "properties": {"name": "Kuusistonkaari", "stop_I": "507"}, "geometry": {"coordinates": [22.38416730511358, 60.38446577758558], "type": "Point"}, "type": "Feature"}, {"id": "310", "properties": {"name": "Liinahaankatu", "stop_I": "508"}, "geometry": {"coordinates": [22.24494441251006, 60.4691141456493], "type": "Point"}, "type": "Feature"}, {"id": "311", "properties": {"name": "Puomikuja", "stop_I": "510"}, "geometry": {"coordinates": [22.2021950865071, 60.42495197712954], "type": "Point"}, "type": "Feature"}, {"id": "312", "properties": {"name": "Paimalantie", "stop_I": "515"}, "geometry": {"coordinates": [22.33610190831992, 60.4934674939366], "type": "Point"}, "type": "Feature"}, {"id": "313", "properties": {"name": "Kauppatori", "stop_I": "516"}, "geometry": {"coordinates": [22.26718026242464, 60.45101713938108], "type": "Point"}, "type": "Feature"}, {"id": "314", "properties": {"name": "J\u00e4nessaarentie", "stop_I": "517"}, "geometry": {"coordinates": [22.18421105331127, 60.41793577800168], "type": "Point"}, "type": "Feature"}, {"id": "315", "properties": {"name": "Nosturikatu", "stop_I": "518"}, "geometry": {"coordinates": [22.22698619969078, 60.44103036010058], "type": "Point"}, "type": "Feature"}, {"id": "316", "properties": {"name": "V\u00e4\u00e4ntel\u00e4ntie", "stop_I": "519"}, "geometry": {"coordinates": [22.37244545590886, 60.50159501370894], "type": "Point"}, "type": "Feature"}, {"id": "317", "properties": {"name": "Henrikinkirkko", "stop_I": "520"}, "geometry": {"coordinates": [22.29319673043238, 60.4330149113971], "type": "Point"}, "type": "Feature"}, {"id": "318", "properties": {"name": "Saarnaajantie", "stop_I": "525"}, "geometry": {"coordinates": [22.44067097177769, 60.44692662633896], "type": "Point"}, "type": "Feature"}, {"id": "319", "properties": {"name": "Em\u00e4nn\u00e4nkatu", "stop_I": "527"}, "geometry": {"coordinates": [22.37114168130829, 60.40006899453684], "type": "Point"}, "type": "Feature"}, {"id": "320", "properties": {"name": "Tappikatu", "stop_I": "529"}, "geometry": {"coordinates": [22.38126395644264, 60.44867997863214], "type": "Point"}, "type": "Feature"}, {"id": "321", "properties": {"name": "Halistentie", "stop_I": "531"}, "geometry": {"coordinates": [22.30760252897862, 60.45845487951784], "type": "Point"}, "type": "Feature"}, {"id": "322", "properties": {"name": "Merimiehenkatu", "stop_I": "532"}, "geometry": {"coordinates": [22.24610678886923, 60.43558339344776], "type": "Point"}, "type": "Feature"}, {"id": "323", "properties": {"name": "Hamaronkatu", "stop_I": "533"}, "geometry": {"coordinates": [22.29552254362466, 60.47773573727638], "type": "Point"}, "type": "Feature"}, {"id": "324", "properties": {"name": "Uusi Hautausmaa", "stop_I": "537"}, "geometry": {"coordinates": [22.31141160056905, 60.43612181891262], "type": "Point"}, "type": "Feature"}, {"id": "325", "properties": {"name": "Jaanintie", "stop_I": "538"}, "geometry": {"coordinates": [22.33139265489827, 60.46315767494982], "type": "Point"}, "type": "Feature"}, {"id": "326", "properties": {"name": "Maksla", "stop_I": "541"}, "geometry": {"coordinates": [22.23173810965292, 60.50096440009988], "type": "Point"}, "type": "Feature"}, {"id": "327", "properties": {"name": "Pyh\u00e4n Ristin kappeli", "stop_I": "543"}, "geometry": {"coordinates": [22.31292215836334, 60.42704068661244], "type": "Point"}, "type": "Feature"}, {"id": "328", "properties": {"name": "Poikkitie", "stop_I": "544"}, "geometry": {"coordinates": [22.13448743694961, 60.5097736449258], "type": "Point"}, "type": "Feature"}, {"id": "329", "properties": {"name": "Vanhalinna", "stop_I": "545"}, "geometry": {"coordinates": [22.38482021676814, 60.48087988502558], "type": "Point"}, "type": "Feature"}, {"id": "330", "properties": {"name": "Munkkentie", "stop_I": "546"}, "geometry": {"coordinates": [22.39914514077428, 60.3911884305868], "type": "Point"}, "type": "Feature"}, {"id": "331", "properties": {"name": "K\u00f6ydenpunojankatu", "stop_I": "547"}, "geometry": {"coordinates": [22.24552730576222, 60.4530860910928], "type": "Point"}, "type": "Feature"}, {"id": "332", "properties": {"name": "Rauhalantie", "stop_I": "548"}, "geometry": {"coordinates": [22.17605969747705, 60.4331594393749], "type": "Point"}, "type": "Feature"}, {"id": "333", "properties": {"name": "Koulukatu", "stop_I": "549"}, "geometry": {"coordinates": [22.25613163168222, 60.44703619171904], "type": "Point"}, "type": "Feature"}, {"id": "334", "properties": {"name": "Legaatinkuja", "stop_I": "550"}, "geometry": {"coordinates": [22.31866233265594, 60.4721414107392], "type": "Point"}, "type": "Feature"}, {"id": "335", "properties": {"name": "Saarnaajantie", "stop_I": "551"}, "geometry": {"coordinates": [22.44105806832082, 60.44702080010874], "type": "Point"}, "type": "Feature"}, {"id": "336", "properties": {"name": "Ruskon kirkko", "stop_I": "552"}, "geometry": {"coordinates": [22.21879839727292, 60.53156473877826], "type": "Point"}, "type": "Feature"}, {"id": "337", "properties": {"name": "Ankkurikyl\u00e4", "stop_I": "554"}, "geometry": {"coordinates": [22.14070801077437, 60.45300254162666], "type": "Point"}, "type": "Feature"}, {"id": "338", "properties": {"name": "Syreeni", "stop_I": "555"}, "geometry": {"coordinates": [22.17143800331827, 60.46595443376712], "type": "Point"}, "type": "Feature"}, {"id": "339", "properties": {"name": "Kerttuli", "stop_I": "556"}, "geometry": {"coordinates": [22.28618173585104, 60.44913849078916], "type": "Point"}, "type": "Feature"}, {"id": "340", "properties": {"name": "Pikikurjentie", "stop_I": "558"}, "geometry": {"coordinates": [22.20148172246417, 60.4225165650652], "type": "Point"}, "type": "Feature"}, {"id": "341", "properties": {"name": "Pernon kartano", "stop_I": "559"}, "geometry": {"coordinates": [22.15184088454419, 60.45512619868852], "type": "Point"}, "type": "Feature"}, {"id": "342", "properties": {"name": "Varissuo", "stop_I": "560"}, "geometry": {"coordinates": [22.35742566234108, 60.44523398690116], "type": "Point"}, "type": "Feature"}, {"id": "343", "properties": {"name": "Orminkuja", "stop_I": "561"}, "geometry": {"coordinates": [22.35286358204504, 60.45002831148636], "type": "Point"}, "type": "Feature"}, {"id": "344", "properties": {"name": "Birkka", "stop_I": "566"}, "geometry": {"coordinates": [22.13276689356506, 60.42741839474032], "type": "Point"}, "type": "Feature"}, {"id": "345", "properties": {"name": "Leirint\u00e4alue", "stop_I": "570"}, "geometry": {"coordinates": [22.09821969575748, 60.42576231041962], "type": "Point"}, "type": "Feature"}, {"id": "346", "properties": {"name": "Wibeliuksenpuisto", "stop_I": "572"}, "geometry": {"coordinates": [22.26935218198236, 60.41837679706168], "type": "Point"}, "type": "Feature"}, {"id": "347", "properties": {"name": "Teerim\u00e4ki", "stop_I": "573"}, "geometry": {"coordinates": [22.39173289284024, 60.43851575093042], "type": "Point"}, "type": "Feature"}, {"id": "348", "properties": {"name": "Hakkinen", "stop_I": "574"}, "geometry": {"coordinates": [22.3900719155455, 60.4826351091916], "type": "Point"}, "type": "Feature"}, {"id": "349", "properties": {"name": "Ostoskeskus", "stop_I": "575"}, "geometry": {"coordinates": [22.22778750587951, 60.46677364519948], "type": "Point"}, "type": "Feature"}, {"id": "350", "properties": {"name": "Lyijykatu", "stop_I": "576"}, "geometry": {"coordinates": [22.31845228289043, 60.50349278470482], "type": "Point"}, "type": "Feature"}, {"id": "351", "properties": {"name": "Kerrola", "stop_I": "577"}, "geometry": {"coordinates": [22.1496214184157, 60.47800988522976], "type": "Point"}, "type": "Feature"}, {"id": "352", "properties": {"name": "Verkakyl\u00e4", "stop_I": "578"}, "geometry": {"coordinates": [22.3980628296842, 60.44519871315794], "type": "Point"}, "type": "Feature"}, {"id": "353", "properties": {"name": "Muntionkatu", "stop_I": "579"}, "geometry": {"coordinates": [22.30540885303635, 60.41534857113756], "type": "Point"}, "type": "Feature"}, {"id": "354", "properties": {"name": "M\u00f6\u00f6r\u00f6nkuja", "stop_I": "581"}, "geometry": {"coordinates": [22.28370926081295, 60.47391916337724], "type": "Point"}, "type": "Feature"}, {"id": "355", "properties": {"name": "Rykmentintie", "stop_I": "583"}, "geometry": {"coordinates": [22.26904120969037, 60.41564150758912], "type": "Point"}, "type": "Feature"}, {"id": "356", "properties": {"name": "L\u00e4nsikeskus", "stop_I": "584"}, "geometry": {"coordinates": [22.22545890516325, 60.47319067425346], "type": "Point"}, "type": "Feature"}, {"id": "357", "properties": {"name": "Nepontie", "stop_I": "586"}, "geometry": {"coordinates": [22.18209815103723, 60.38913160527704], "type": "Point"}, "type": "Feature"}, {"id": "358", "properties": {"name": "Jaakkola", "stop_I": "587"}, "geometry": {"coordinates": [22.10834813027023, 60.47722746325526], "type": "Point"}, "type": "Feature"}, {"id": "359", "properties": {"name": "Syv\u00e4lahti", "stop_I": "588"}, "geometry": {"coordinates": [22.22694773126912, 60.42433249147172], "type": "Point"}, "type": "Feature"}, {"id": "360", "properties": {"name": "Haarlahdentie", "stop_I": "590"}, "geometry": {"coordinates": [22.19603313970159, 60.39318786651882], "type": "Point"}, "type": "Feature"}, {"id": "361", "properties": {"name": "Piispanl\u00e4hde", "stop_I": "592"}, "geometry": {"coordinates": [22.33812544384945, 60.40665553868516], "type": "Point"}, "type": "Feature"}, {"id": "362", "properties": {"name": "Pihlajakuja", "stop_I": "593"}, "geometry": {"coordinates": [22.29846614375576, 60.4429831305445], "type": "Point"}, "type": "Feature"}, {"id": "363", "properties": {"name": "Messukent\u00e4nkatu", "stop_I": "594"}, "geometry": {"coordinates": [22.18037517872385, 60.44906891295924], "type": "Point"}, "type": "Feature"}, {"id": "364", "properties": {"name": "Vaistentie", "stop_I": "595"}, "geometry": {"coordinates": [22.29259672589829, 60.51519517883828], "type": "Point"}, "type": "Feature"}, {"id": "365", "properties": {"name": "Torppala", "stop_I": "599"}, "geometry": {"coordinates": [22.30508410263076, 60.39581851458056], "type": "Point"}, "type": "Feature"}, {"id": "366", "properties": {"name": "Silvolanrinne", "stop_I": "600"}, "geometry": {"coordinates": [22.35572074073377, 60.45944198154224], "type": "Point"}, "type": "Feature"}, {"id": "367", "properties": {"name": "Ravattula", "stop_I": "601"}, "geometry": {"coordinates": [22.36187882573146, 60.47227003233216], "type": "Point"}, "type": "Feature"}, {"id": "368", "properties": {"name": "V\u00e4h\u00e4heikkil\u00e4ntie", "stop_I": "602"}, "geometry": {"coordinates": [22.25802424999647, 60.43171126758662], "type": "Point"}, "type": "Feature"}, {"id": "369", "properties": {"name": "Haarlan koulu", "stop_I": "605"}, "geometry": {"coordinates": [22.21871018203364, 60.39354740010002], "type": "Point"}, "type": "Feature"}, {"id": "370", "properties": {"name": "P\u00e4\u00e4skyvuori", "stop_I": "606"}, "geometry": {"coordinates": [22.33361199142522, 60.44329484784924], "type": "Point"}, "type": "Feature"}, {"id": "371", "properties": {"name": "Kastunpuisto", "stop_I": "608"}, "geometry": {"coordinates": [22.27638979576956, 60.46715026007982], "type": "Point"}, "type": "Feature"}, {"id": "372", "properties": {"name": "Kiikku", "stop_I": "609"}, "geometry": {"coordinates": [22.26651120225388, 60.49241406321996], "type": "Point"}, "type": "Feature"}, {"id": "373", "properties": {"name": "Kannuskatu", "stop_I": "610"}, "geometry": {"coordinates": [22.2676443068131, 60.42148977220958], "type": "Point"}, "type": "Feature"}, {"id": "374", "properties": {"name": "Auranlaakson koulu", "stop_I": "611"}, "geometry": {"coordinates": [22.36709989967696, 60.46937724832522], "type": "Point"}, "type": "Feature"}, {"id": "375", "properties": {"name": "Korvalankatu", "stop_I": "612"}, "geometry": {"coordinates": [22.29739631644754, 60.46293147133482], "type": "Point"}, "type": "Feature"}, {"id": "376", "properties": {"name": "Luostarinm\u00e4ki", "stop_I": "613"}, "geometry": {"coordinates": [22.27310501669908, 60.44632783013932], "type": "Point"}, "type": "Feature"}, {"id": "377", "properties": {"name": "Polttolaitos", "stop_I": "614"}, "geometry": {"coordinates": [22.31507415123167, 60.48147314860946], "type": "Point"}, "type": "Feature"}, {"id": "378", "properties": {"name": "Hippoksentie", "stop_I": "615"}, "geometry": {"coordinates": [22.30570366798872, 60.44364335490094], "type": "Point"}, "type": "Feature"}, {"id": "379", "properties": {"name": "Kullanm\u00e4entie", "stop_I": "620"}, "geometry": {"coordinates": [22.33067819323784, 60.4996156193238], "type": "Point"}, "type": "Feature"}, {"id": "380", "properties": {"name": "Kuralankaarre", "stop_I": "625"}, "geometry": {"coordinates": [22.32650250188036, 60.4624735514072], "type": "Point"}, "type": "Feature"}, {"id": "381", "properties": {"name": "Valkiasvuorenkatu", "stop_I": "626"}, "geometry": {"coordinates": [22.28094034638017, 60.48218238301996], "type": "Point"}, "type": "Feature"}, {"id": "382", "properties": {"name": "\u00d6\u00f6lanninkatu", "stop_I": "628"}, "geometry": {"coordinates": [22.15234514941819, 60.45625953660872], "type": "Point"}, "type": "Feature"}, {"id": "383", "properties": {"name": "Lautamies", "stop_I": "632"}, "geometry": {"coordinates": [22.16577577029342, 60.4898910117047], "type": "Point"}, "type": "Feature"}, {"id": "384", "properties": {"name": "Kauppatori", "stop_I": "633"}, "geometry": {"coordinates": [22.26631227593014, 60.4511031341253], "type": "Point"}, "type": "Feature"}, {"id": "385", "properties": {"name": "Kakskerta", "stop_I": "634"}, "geometry": {"coordinates": [22.29149531188905, 60.37044241282136], "type": "Point"}, "type": "Feature"}, {"id": "386", "properties": {"name": "Hiiskanaukea", "stop_I": "635"}, "geometry": {"coordinates": [22.38437471125223, 60.43268675380418], "type": "Point"}, "type": "Feature"}, {"id": "387", "properties": {"name": "Hautausmaantie", "stop_I": "638"}, "geometry": {"coordinates": [22.31684882142109, 60.4347490610212], "type": "Point"}, "type": "Feature"}, {"id": "388", "properties": {"name": "Juhannuskukkula", "stop_I": "639"}, "geometry": {"coordinates": [22.25822219658271, 60.4587629308394], "type": "Point"}, "type": "Feature"}, {"id": "389", "properties": {"name": "It\u00e4inen Pitk\u00e4katu", "stop_I": "640"}, "geometry": {"coordinates": [22.27664065293343, 60.44354042698206], "type": "Point"}, "type": "Feature"}, {"id": "390", "properties": {"name": "Niemel\u00e4ntie", "stop_I": "641"}, "geometry": {"coordinates": [22.38371659532617, 60.41978113894498], "type": "Point"}, "type": "Feature"}, {"id": "391", "properties": {"name": "Vartiovuori", "stop_I": "647"}, "geometry": {"coordinates": [22.28093278763628, 60.44818816002998], "type": "Point"}, "type": "Feature"}, {"id": "392", "properties": {"name": "Mets\u00e4tie", "stop_I": "648"}, "geometry": {"coordinates": [22.37069800631216, 60.39029021453598], "type": "Point"}, "type": "Feature"}, {"id": "393", "properties": {"name": "Rieskal\u00e4hteentie", "stop_I": "649"}, "geometry": {"coordinates": [22.26396177145482, 60.4709521736073], "type": "Point"}, "type": "Feature"}, {"id": "394", "properties": {"name": "Pulmussuontie", "stop_I": "650"}, "geometry": {"coordinates": [22.27431126573863, 60.4750422833551], "type": "Point"}, "type": "Feature"}, {"id": "395", "properties": {"name": "Savenvalajankatu", "stop_I": "652"}, "geometry": {"coordinates": [22.25166984640145, 60.44245343806672], "type": "Point"}, "type": "Feature"}, {"id": "396", "properties": {"name": "Rieskal\u00e4hteentie", "stop_I": "653"}, "geometry": {"coordinates": [22.25900528115351, 60.47421019465222], "type": "Point"}, "type": "Feature"}, {"id": "397", "properties": {"name": "Kuninkoja", "stop_I": "654"}, "geometry": {"coordinates": [22.23170573350428, 60.49276340418142], "type": "Point"}, "type": "Feature"}, {"id": "398", "properties": {"name": "Alhontie", "stop_I": "655"}, "geometry": {"coordinates": [22.43751688371, 60.45823541638072], "type": "Point"}, "type": "Feature"}, {"id": "399", "properties": {"name": "Datacity", "stop_I": "656"}, "geometry": {"coordinates": [22.29384247827291, 60.44851967721236], "type": "Point"}, "type": "Feature"}, {"id": "400", "properties": {"name": "Kerttulan koulu", "stop_I": "657"}, "geometry": {"coordinates": [22.15854941137685, 60.49593145397022], "type": "Point"}, "type": "Feature"}, {"id": "401", "properties": {"name": "Takamaantie", "stop_I": "659"}, "geometry": {"coordinates": [22.28790170142377, 60.43791611071258], "type": "Point"}, "type": "Feature"}, {"id": "402", "properties": {"name": "M\u00e4ntyl\u00e4ntie", "stop_I": "660"}, "geometry": {"coordinates": [22.42267098989522, 60.45792330465162], "type": "Point"}, "type": "Feature"}, {"id": "403", "properties": {"name": "Kanta-Haihuntie", "stop_I": "661"}, "geometry": {"coordinates": [22.3568889498831, 60.49694500554714], "type": "Point"}, "type": "Feature"}, {"id": "404", "properties": {"name": "Uittamonpuisto", "stop_I": "662"}, "geometry": {"coordinates": [22.25581975745398, 60.42102334670504], "type": "Point"}, "type": "Feature"}, {"id": "405", "properties": {"name": "Kuhilaspelto", "stop_I": "663"}, "geometry": {"coordinates": [22.4008981629514, 60.4141285950472], "type": "Point"}, "type": "Feature"}, {"id": "406", "properties": {"name": "Keskikatu", "stop_I": "664"}, "geometry": {"coordinates": [22.29885633470468, 60.4556197520528], "type": "Point"}, "type": "Feature"}, {"id": "407", "properties": {"name": "Kauppatori", "stop_I": "665"}, "geometry": {"coordinates": [22.26717274128796, 60.45081907352242], "type": "Point"}, "type": "Feature"}, {"id": "408", "properties": {"name": "Kaistareenkatu", "stop_I": "666"}, "geometry": {"coordinates": [22.26172838976771, 60.39795668564366], "type": "Point"}, "type": "Feature"}, {"id": "409", "properties": {"name": "Kurkela", "stop_I": "668"}, "geometry": {"coordinates": [22.3369595259003, 60.41491276094702], "type": "Point"}, "type": "Feature"}, {"id": "410", "properties": {"name": "Inkerinkatu", "stop_I": "670"}, "geometry": {"coordinates": [22.36352038455347, 60.43415488524126], "type": "Point"}, "type": "Feature"}, {"id": "411", "properties": {"name": "Mets\u00e4rannantie", "stop_I": "671"}, "geometry": {"coordinates": [22.22249480166598, 60.49293667927776], "type": "Point"}, "type": "Feature"}, {"id": "412", "properties": {"name": "Jumpurintie", "stop_I": "673"}, "geometry": {"coordinates": [22.38423966078564, 60.4122566301306], "type": "Point"}, "type": "Feature"}, {"id": "413", "properties": {"name": "G\u00f6teborginkatu", "stop_I": "674"}, "geometry": {"coordinates": [22.217503675429, 60.4645162617574], "type": "Point"}, "type": "Feature"}, {"id": "414", "properties": {"name": "Suihkarintie", "stop_I": "675"}, "geometry": {"coordinates": [22.29344493808644, 60.51914506470534], "type": "Point"}, "type": "Feature"}, {"id": "415", "properties": {"name": "Monnoistentie", "stop_I": "676"}, "geometry": {"coordinates": [22.27600118197154, 60.36711397484406], "type": "Point"}, "type": "Feature"}, {"id": "416", "properties": {"name": "Alankoja", "stop_I": "677"}, "geometry": {"coordinates": [22.23208442271529, 60.50406072927614], "type": "Point"}, "type": "Feature"}, {"id": "417", "properties": {"name": "Karrinpolku", "stop_I": "681"}, "geometry": {"coordinates": [22.2380643898684, 60.47900997652234], "type": "Point"}, "type": "Feature"}, {"id": "418", "properties": {"name": "Logomo", "stop_I": "682"}, "geometry": {"coordinates": [22.25616263791652, 60.45790729923916], "type": "Point"}, "type": "Feature"}, {"id": "419", "properties": {"name": "Kurjenm\u00e4enkatu", "stop_I": "683"}, "geometry": {"coordinates": [22.28323296951715, 60.43987240978476], "type": "Point"}, "type": "Feature"}, {"id": "420", "properties": {"name": "Polttolaitos", "stop_I": "684"}, "geometry": {"coordinates": [22.31405011340109, 60.48162590301526], "type": "Point"}, "type": "Feature"}, {"id": "421", "properties": {"name": "Kohmontie", "stop_I": "686"}, "geometry": {"coordinates": [22.34009495280582, 60.4574571742759], "type": "Point"}, "type": "Feature"}, {"id": "422", "properties": {"name": "Jyrkk\u00e4l\u00e4", "stop_I": "688"}, "geometry": {"coordinates": [22.19611037068841, 60.45945668588884], "type": "Point"}, "type": "Feature"}, {"id": "423", "properties": {"name": "S\u00e4hk\u00f6laitos", "stop_I": "690"}, "geometry": {"coordinates": [22.23837412085389, 60.4383187104615], "type": "Point"}, "type": "Feature"}, {"id": "424", "properties": {"name": "Lentoasemantie", "stop_I": "691"}, "geometry": {"coordinates": [22.28964232443418, 60.5101818394675], "type": "Point"}, "type": "Feature"}, {"id": "425", "properties": {"name": "Rykmentintie", "stop_I": "692"}, "geometry": {"coordinates": [22.24620595026452, 60.43154998939868], "type": "Point"}, "type": "Feature"}, {"id": "426", "properties": {"name": "L\u00e4hteenm\u00e4entie", "stop_I": "694"}, "geometry": {"coordinates": [22.38400758806512, 60.4359104341037], "type": "Point"}, "type": "Feature"}, {"id": "427", "properties": {"name": "Tammelininkatu", "stop_I": "695"}, "geometry": {"coordinates": [22.30471906959511, 60.47259421637708], "type": "Point"}, "type": "Feature"}, {"id": "428", "properties": {"name": "Katariinakoti", "stop_I": "696"}, "geometry": {"coordinates": [22.29008428932222, 60.41546276708912], "type": "Point"}, "type": "Feature"}, {"id": "429", "properties": {"name": "Silakatu", "stop_I": "699"}, "geometry": {"coordinates": [22.33923869484385, 60.48128754827682], "type": "Point"}, "type": "Feature"}, {"id": "430", "properties": {"name": "Impivaara", "stop_I": "701"}, "geometry": {"coordinates": [22.26120585246064, 60.47859519229512], "type": "Point"}, "type": "Feature"}, {"id": "431", "properties": {"name": "Multavierunkatu", "stop_I": "702"}, "geometry": {"coordinates": [22.27525470930277, 60.45406435184558], "type": "Point"}, "type": "Feature"}, {"id": "432", "properties": {"name": "Kaarina", "stop_I": "703"}, "geometry": {"coordinates": [22.37129731599754, 60.40791383697758], "type": "Point"}, "type": "Feature"}, {"id": "433", "properties": {"name": "Siirintie", "stop_I": "704"}, "geometry": {"coordinates": [22.28279703449608, 60.46842047689352], "type": "Point"}, "type": "Feature"}, {"id": "434", "properties": {"name": "Tammim\u00e4ki", "stop_I": "706"}, "geometry": {"coordinates": [22.15536120888306, 60.42849548482742], "type": "Point"}, "type": "Feature"}, {"id": "435", "properties": {"name": "Kaskenkatu", "stop_I": "708"}, "geometry": {"coordinates": [22.27820294515803, 60.44480965417668], "type": "Point"}, "type": "Feature"}, {"id": "436", "properties": {"name": "Purokatu", "stop_I": "709"}, "geometry": {"coordinates": [22.26267401861891, 60.436498320426], "type": "Point"}, "type": "Feature"}, {"id": "437", "properties": {"name": "Urheilutalo", "stop_I": "710"}, "geometry": {"coordinates": [22.34898838462418, 60.51744577269738], "type": "Point"}, "type": "Feature"}, {"id": "438", "properties": {"name": "Kankareenkuja", "stop_I": "712"}, "geometry": {"coordinates": [22.24102447611156, 60.46976521756384], "type": "Point"}, "type": "Feature"}, {"id": "439", "properties": {"name": "Nosturinkatu", "stop_I": "714"}, "geometry": {"coordinates": [22.23274, 60.44412], "type": "Point"}, "type": "Feature"}, {"id": "440", "properties": {"name": "Kurala", "stop_I": "717"}, "geometry": {"coordinates": [22.32635690776414, 60.45918693017454], "type": "Point"}, "type": "Feature"}, {"id": "441", "properties": {"name": "Kakskerrantie", "stop_I": "719"}, "geometry": {"coordinates": [22.17676506648611, 60.37191721398836], "type": "Point"}, "type": "Feature"}, {"id": "442", "properties": {"name": "Saga-palvelutalo", "stop_I": "720"}, "geometry": {"coordinates": [22.2819643978167, 60.43833494854092], "type": "Point"}, "type": "Feature"}, {"id": "443", "properties": {"name": "Vitanovantie", "stop_I": "723"}, "geometry": {"coordinates": [22.22106940558459, 60.37859905461978], "type": "Point"}, "type": "Feature"}, {"id": "444", "properties": {"name": "Ruohonp\u00e4\u00e4nkatu", "stop_I": "724"}, "geometry": {"coordinates": [22.24172170956458, 60.46414380727058], "type": "Point"}, "type": "Feature"}, {"id": "445", "properties": {"name": "Kausela", "stop_I": "725"}, "geometry": {"coordinates": [22.35117605483539, 60.46829151444926], "type": "Point"}, "type": "Feature"}, {"id": "446", "properties": {"name": "Mustavuorentie", "stop_I": "726"}, "geometry": {"coordinates": [22.41031801691197, 60.45259828098128], "type": "Point"}, "type": "Feature"}, {"id": "447", "properties": {"name": "Uudenmaantie", "stop_I": "728"}, "geometry": {"coordinates": [22.2852591198727, 60.44383723518268], "type": "Point"}, "type": "Feature"}, {"id": "448", "properties": {"name": "Skanssinm\u00e4ki", "stop_I": "731"}, "geometry": {"coordinates": [22.30943380198417, 60.42739416620456], "type": "Point"}, "type": "Feature"}, {"id": "449", "properties": {"name": "Varsatie", "stop_I": "732"}, "geometry": {"coordinates": [22.30893886567578, 60.48295627913042], "type": "Point"}, "type": "Feature"}, {"id": "450", "properties": {"name": "Vatakuja", "stop_I": "734"}, "geometry": {"coordinates": [22.24478368521722, 60.4023683079601], "type": "Point"}, "type": "Feature"}, {"id": "451", "properties": {"name": "L\u00e4nsikaari", "stop_I": "738"}, "geometry": {"coordinates": [22.1763291086944, 60.45277956142236], "type": "Point"}, "type": "Feature"}, {"id": "452", "properties": {"name": "Runosm\u00e4en terveysasema", "stop_I": "743"}, "geometry": {"coordinates": [22.26637689024747, 60.48609773336066], "type": "Point"}, "type": "Feature"}, {"id": "453", "properties": {"name": "Salininniituntie", "stop_I": "746"}, "geometry": {"coordinates": [22.15468886231451, 60.37994325577182], "type": "Point"}, "type": "Feature"}, {"id": "454", "properties": {"name": "Ekvalla", "stop_I": "749"}, "geometry": {"coordinates": [22.22351778391546, 60.38060224788842], "type": "Point"}, "type": "Feature"}, {"id": "455", "properties": {"name": "Munterinkatu", "stop_I": "750"}, "geometry": {"coordinates": [22.25817879219253, 60.48820651655752], "type": "Point"}, "type": "Feature"}, {"id": "456", "properties": {"name": "V\u00e4\u00e4ntel\u00e4ntie", "stop_I": "752"}, "geometry": {"coordinates": [22.37104780063015, 60.50168129159024], "type": "Point"}, "type": "Feature"}, {"id": "457", "properties": {"name": "Polttolaitoksenkatu", "stop_I": "753"}, "geometry": {"coordinates": [22.31121620154283, 60.4824521319853], "type": "Point"}, "type": "Feature"}, {"id": "458", "properties": {"name": "Kanahaka", "stop_I": "755"}, "geometry": {"coordinates": [22.37586819811157, 60.50226229988336], "type": "Point"}, "type": "Feature"}, {"id": "459", "properties": {"name": "Jalkasuontie", "stop_I": "758"}, "geometry": {"coordinates": [22.22156773559144, 60.45621061821818], "type": "Point"}, "type": "Feature"}, {"id": "460", "properties": {"name": "Viisasperkontie", "stop_I": "759"}, "geometry": {"coordinates": [22.4272318512989, 60.45836779865178], "type": "Point"}, "type": "Feature"}, {"id": "461", "properties": {"name": "Viisasperkontie", "stop_I": "760"}, "geometry": {"coordinates": [22.42711937812453, 60.45839090259298], "type": "Point"}, "type": "Feature"}, {"id": "462", "properties": {"name": "Piispanristi", "stop_I": "761"}, "geometry": {"coordinates": [22.32490576939768, 60.41807655833406], "type": "Point"}, "type": "Feature"}, {"id": "463", "properties": {"name": "Palokulmantie", "stop_I": "762"}, "geometry": {"coordinates": [22.18263319085774, 60.40870735418536], "type": "Point"}, "type": "Feature"}, {"id": "464", "properties": {"name": "K\u00e4mnerinpolku", "stop_I": "765"}, "geometry": {"coordinates": [22.34932448175739, 60.4352234886046], "type": "Point"}, "type": "Feature"}, {"id": "465", "properties": {"name": "Paljetie", "stop_I": "766"}, "geometry": {"coordinates": [22.30232644527008, 60.45063567491624], "type": "Point"}, "type": "Feature"}, {"id": "466", "properties": {"name": "Urusvuori", "stop_I": "772"}, "geometry": {"coordinates": [22.29726055472774, 60.50217070511674], "type": "Point"}, "type": "Feature"}, {"id": "467", "properties": {"name": "Rautatehtaankatu", "stop_I": "773"}, "geometry": {"coordinates": [22.20706618711514, 60.44913430261342], "type": "Point"}, "type": "Feature"}, {"id": "468", "properties": {"name": "Sorakatu", "stop_I": "774"}, "geometry": {"coordinates": [22.31744451786912, 60.42695729071188], "type": "Point"}, "type": "Feature"}, {"id": "469", "properties": {"name": "Kuninkoja", "stop_I": "777"}, "geometry": {"coordinates": [22.23184537524023, 60.49230986209116], "type": "Point"}, "type": "Feature"}, {"id": "470", "properties": {"name": "Piiskakuja", "stop_I": "778"}, "geometry": {"coordinates": [22.32949163054317, 60.48571980767468], "type": "Point"}, "type": "Feature"}, {"id": "471", "properties": {"name": "Uudenmaantulli", "stop_I": "780"}, "geometry": {"coordinates": [22.28468254237211, 60.44555200279348], "type": "Point"}, "type": "Feature"}, {"id": "472", "properties": {"name": "Kyn\u00f6l\u00e4", "stop_I": "781"}, "geometry": {"coordinates": [22.11008154651881, 60.470808018028], "type": "Point"}, "type": "Feature"}, {"id": "473", "properties": {"name": "Kivikarinkuja", "stop_I": "783"}, "geometry": {"coordinates": [22.17665726147894, 60.39764688236598], "type": "Point"}, "type": "Feature"}, {"id": "474", "properties": {"name": "Kiikku", "stop_I": "787"}, "geometry": {"coordinates": [22.26654598421303, 60.49155218154092], "type": "Point"}, "type": "Feature"}, {"id": "475", "properties": {"name": "Vaarniemi", "stop_I": "792"}, "geometry": {"coordinates": [22.32507505441444, 60.40577456923046], "type": "Point"}, "type": "Feature"}, {"id": "476", "properties": {"name": "Hannunniitty", "stop_I": "793"}, "geometry": {"coordinates": [22.32247802329798, 60.45881686586906], "type": "Point"}, "type": "Feature"}, {"id": "477", "properties": {"name": "S\u00e4rkilahdentie", "stop_I": "794"}, "geometry": {"coordinates": [22.20393823161586, 60.42004270592318], "type": "Point"}, "type": "Feature"}, {"id": "478", "properties": {"name": "Pirttil\u00e4hteenkatu", "stop_I": "795"}, "geometry": {"coordinates": [22.22581585296463, 60.46866297526066], "type": "Point"}, "type": "Feature"}, {"id": "479", "properties": {"name": "Keo", "stop_I": "796"}, "geometry": {"coordinates": [22.16768433042302, 60.4872358891383], "type": "Point"}, "type": "Feature"}, {"id": "480", "properties": {"name": "Pormestarinpolku", "stop_I": "798"}, "geometry": {"coordinates": [22.34531196914432, 60.43237701740246], "type": "Point"}, "type": "Feature"}, {"id": "481", "properties": {"name": "Kaarlenpuisto", "stop_I": "801"}, "geometry": {"coordinates": [22.27061348063674, 60.423078923241], "type": "Point"}, "type": "Feature"}, {"id": "482", "properties": {"name": "Kela", "stop_I": "802"}, "geometry": {"coordinates": [22.25910044294419, 60.44826590687278], "type": "Point"}, "type": "Feature"}, {"id": "483", "properties": {"name": "Pitk\u00e4m\u00e4enpuisto", "stop_I": "803"}, "geometry": {"coordinates": [22.23541671446007, 60.45872135228756], "type": "Point"}, "type": "Feature"}, {"id": "484", "properties": {"name": "Nunnantie", "stop_I": "804"}, "geometry": {"coordinates": [22.4288163970103, 60.44660070459032], "type": "Point"}, "type": "Feature"}, {"id": "485", "properties": {"name": "Pujottelum\u00e4ki", "stop_I": "807"}, "geometry": {"coordinates": [22.22941649597992, 60.41804642023742], "type": "Point"}, "type": "Feature"}, {"id": "486", "properties": {"name": "Valmetinkatu", "stop_I": "808"}, "geometry": {"coordinates": [22.15343668888183, 60.4450508184066], "type": "Point"}, "type": "Feature"}, {"id": "487", "properties": {"name": "Lautturinkatu", "stop_I": "809"}, "geometry": {"coordinates": [22.22315436909876, 60.42601244864724], "type": "Point"}, "type": "Feature"}, {"id": "488", "properties": {"name": "Kauppatori", "stop_I": "813"}, "geometry": {"coordinates": [22.26803896794439, 60.45111961621908], "type": "Point"}, "type": "Feature"}, {"id": "489", "properties": {"name": "Kuovinkatu", "stop_I": "816"}, "geometry": {"coordinates": [22.31562002253107, 60.4088310636163], "type": "Point"}, "type": "Feature"}, {"id": "490", "properties": {"name": "Humalistonkatu", "stop_I": "818"}, "geometry": {"coordinates": [22.25848638661185, 60.45159761975582], "type": "Point"}, "type": "Feature"}, {"id": "491", "properties": {"name": "Signalistinpolku", "stop_I": "819"}, "geometry": {"coordinates": [22.26017953629391, 60.48636271547478], "type": "Point"}, "type": "Feature"}, {"id": "492", "properties": {"name": "Ravattula", "stop_I": "820"}, "geometry": {"coordinates": [22.35935923641234, 60.47091458189652], "type": "Point"}, "type": "Feature"}, {"id": "493", "properties": {"name": "Akselintie", "stop_I": "821"}, "geometry": {"coordinates": [22.23661442475837, 60.45043854502332], "type": "Point"}, "type": "Feature"}, {"id": "494", "properties": {"name": "Raision sairaala", "stop_I": "822"}, "geometry": {"coordinates": [22.14289675182199, 60.50392134986466], "type": "Point"}, "type": "Feature"}, {"id": "495", "properties": {"name": "Karrinkatu", "stop_I": "823"}, "geometry": {"coordinates": [22.23493195331351, 60.47887988131916], "type": "Point"}, "type": "Feature"}, {"id": "496", "properties": {"name": "Maunulantie", "stop_I": "824"}, "geometry": {"coordinates": [22.23123282447518, 60.3981064217463], "type": "Point"}, "type": "Feature"}, {"id": "497", "properties": {"name": "Tanhuankatu", "stop_I": "825"}, "geometry": {"coordinates": [22.32524018555218, 60.4543018505079], "type": "Point"}, "type": "Feature"}, {"id": "498", "properties": {"name": "Puropellon koulu", "stop_I": "827"}, "geometry": {"coordinates": [22.27310361787474, 60.44133789024616], "type": "Point"}, "type": "Feature"}, {"id": "499", "properties": {"name": "Urushaara", "stop_I": "828"}, "geometry": {"coordinates": [22.29543283195053, 60.49856384238434], "type": "Point"}, "type": "Feature"}, {"id": "500", "properties": {"name": "Rauvolantie", "stop_I": "829"}, "geometry": {"coordinates": [22.31307721151188, 60.41133968256766], "type": "Point"}, "type": "Feature"}, {"id": "501", "properties": {"name": "Pallivahan koulu", "stop_I": "833"}, "geometry": {"coordinates": [22.27899500947893, 60.48303045540122], "type": "Point"}, "type": "Feature"}, {"id": "502", "properties": {"name": "Terveysasema", "stop_I": "834"}, "geometry": {"coordinates": [22.27982040521242, 60.42404448441252], "type": "Point"}, "type": "Feature"}, {"id": "503", "properties": {"name": "Littoistenj\u00e4rvi", "stop_I": "835"}, "geometry": {"coordinates": [22.37855940425149, 60.45387222111852], "type": "Point"}, "type": "Feature"}, {"id": "504", "properties": {"name": "Mattelm\u00e4ki", "stop_I": "836"}, "geometry": {"coordinates": [22.36461807172066, 60.40045293327324], "type": "Point"}, "type": "Feature"}, {"id": "505", "properties": {"name": "It\u00e4pellonkatu", "stop_I": "838"}, "geometry": {"coordinates": [22.24660066918912, 60.45880674156034], "type": "Point"}, "type": "Feature"}, {"id": "506", "properties": {"name": "Tuomiokirkkotori", "stop_I": "839"}, "geometry": {"coordinates": [22.27592308650547, 60.45172351639902], "type": "Point"}, "type": "Feature"}, {"id": "507", "properties": {"name": "Fr\u00e4lssi", "stop_I": "840"}, "geometry": {"coordinates": [22.15170657964634, 60.48611536746928], "type": "Point"}, "type": "Feature"}, {"id": "508", "properties": {"name": "Rauhanniemi", "stop_I": "841"}, "geometry": {"coordinates": [22.38012630462759, 60.45232640733674], "type": "Point"}, "type": "Feature"}, {"id": "509", "properties": {"name": "Brahenpiha", "stop_I": "842"}, "geometry": {"coordinates": [22.27028792473621, 60.45254822222784], "type": "Point"}, "type": "Feature"}, {"id": "510", "properties": {"name": "Vajossuonkatu", "stop_I": "846"}, "geometry": {"coordinates": [22.29545564979274, 60.49978737276206], "type": "Point"}, "type": "Feature"}, {"id": "511", "properties": {"name": "Valmetinkatu", "stop_I": "850"}, "geometry": {"coordinates": [22.15173168105604, 60.4446469886831], "type": "Point"}, "type": "Feature"}, {"id": "512", "properties": {"name": "Postikeskus", "stop_I": "852"}, "geometry": {"coordinates": [22.23495479103086, 60.45641209184534], "type": "Point"}, "type": "Feature"}, {"id": "513", "properties": {"name": "Kivikankareenkuja", "stop_I": "853"}, "geometry": {"coordinates": [22.17831023958226, 60.3750933681578], "type": "Point"}, "type": "Feature"}, {"id": "514", "properties": {"name": "Kauppatori", "stop_I": "854"}, "geometry": {"coordinates": [22.26699197784882, 60.4505608984667], "type": "Point"}, "type": "Feature"}, {"id": "515", "properties": {"name": "Pernon telakka", "stop_I": "856"}, "geometry": {"coordinates": [22.13471602907215, 60.45217205640476], "type": "Point"}, "type": "Feature"}, {"id": "516", "properties": {"name": "Kuninkaanv\u00e4yl\u00e4", "stop_I": "861"}, "geometry": {"coordinates": [22.23157556520338, 60.49959193989326], "type": "Point"}, "type": "Feature"}, {"id": "517", "properties": {"name": "Pampinkatu", "stop_I": "863"}, "geometry": {"coordinates": [22.24404009032113, 60.41403899119384], "type": "Point"}, "type": "Feature"}, {"id": "518", "properties": {"name": "Kylli\u00e4isentie", "stop_I": "866"}, "geometry": {"coordinates": [22.39632181339849, 60.3926548968456], "type": "Point"}, "type": "Feature"}, {"id": "519", "properties": {"name": "Ketussuontie", "stop_I": "867"}, "geometry": {"coordinates": [22.30402252456013, 60.51299121893388], "type": "Point"}, "type": "Feature"}, {"id": "520", "properties": {"name": "Mets\u00e4polku", "stop_I": "868"}, "geometry": {"coordinates": [22.1716429743632, 60.39678139131802], "type": "Point"}, "type": "Feature"}, {"id": "521", "properties": {"name": "Suopohjantie", "stop_I": "869"}, "geometry": {"coordinates": [22.4469205292868, 60.4550425732521], "type": "Point"}, "type": "Feature"}, {"id": "522", "properties": {"name": "Honkaistenpolku", "stop_I": "874"}, "geometry": {"coordinates": [22.23820729458595, 60.4132727036865], "type": "Point"}, "type": "Feature"}, {"id": "523", "properties": {"name": "Pohjaniityntie", "stop_I": "876"}, "geometry": {"coordinates": [22.20605507850022, 60.3757291971252], "type": "Point"}, "type": "Feature"}, {"id": "524", "properties": {"name": "Kuusistontie", "stop_I": "878"}, "geometry": {"coordinates": [22.18393246491954, 60.3993224569659], "type": "Point"}, "type": "Feature"}, {"id": "525", "properties": {"name": "J\u00e4rvenp\u00e4\u00e4ntie", "stop_I": "882"}, "geometry": {"coordinates": [22.27648919613239, 60.3698825215857], "type": "Point"}, "type": "Feature"}, {"id": "526", "properties": {"name": "Portsa", "stop_I": "883"}, "geometry": {"coordinates": [22.24457540897322, 60.44691122399792], "type": "Point"}, "type": "Feature"}, {"id": "527", "properties": {"name": "Haarlantie", "stop_I": "885"}, "geometry": {"coordinates": [22.21196283466355, 60.3930975940517], "type": "Point"}, "type": "Feature"}, {"id": "528", "properties": {"name": "Virusm\u00e4enpuisto", "stop_I": "886"}, "geometry": {"coordinates": [22.27962175435603, 60.4663389049024], "type": "Point"}, "type": "Feature"}, {"id": "529", "properties": {"name": "\u00d6\u00f6lanninkatu", "stop_I": "888"}, "geometry": {"coordinates": [22.15205884855169, 60.4563480101383], "type": "Point"}, "type": "Feature"}, {"id": "530", "properties": {"name": "Hein\u00e4tie", "stop_I": "890"}, "geometry": {"coordinates": [22.39222193128032, 60.41685777058238], "type": "Point"}, "type": "Feature"}, {"id": "531", "properties": {"name": "Artukaisten tehtaat", "stop_I": "892"}, "geometry": {"coordinates": [22.1889289417651, 60.44588096303296], "type": "Point"}, "type": "Feature"}, {"id": "532", "properties": {"name": "Konevarikko", "stop_I": "896"}, "geometry": {"coordinates": [22.25686519576906, 60.47539266177216], "type": "Point"}, "type": "Feature"}, {"id": "533", "properties": {"name": "Kuhilaspelto", "stop_I": "898"}, "geometry": {"coordinates": [22.40118268604914, 60.41378782998882], "type": "Point"}, "type": "Feature"}, {"id": "534", "properties": {"name": "Ursininkatu", "stop_I": "900"}, "geometry": {"coordinates": [22.25479043238538, 60.45035994133256], "type": "Point"}, "type": "Feature"}, {"id": "535", "properties": {"name": "M\u00e4likk\u00e4l\u00e4", "stop_I": "902"}, "geometry": {"coordinates": [22.21621695994201, 60.4716359633334], "type": "Point"}, "type": "Feature"}, {"id": "536", "properties": {"name": "Hirvensalonsilta", "stop_I": "903"}, "geometry": {"coordinates": [22.23241822785473, 60.42026702237834], "type": "Point"}, "type": "Feature"}, {"id": "537", "properties": {"name": "Inkerinkatu", "stop_I": "905"}, "geometry": {"coordinates": [22.36255425268459, 60.4339144225508], "type": "Point"}, "type": "Feature"}, {"id": "538", "properties": {"name": "N\u00e4ttinummi", "stop_I": "907"}, "geometry": {"coordinates": [22.24635651996553, 60.48544722456108], "type": "Point"}, "type": "Feature"}, {"id": "539", "properties": {"name": "Virusm\u00e4entie", "stop_I": "908"}, "geometry": {"coordinates": [22.27296652550916, 60.46514961992424], "type": "Point"}, "type": "Feature"}, {"id": "540", "properties": {"name": "Mustalahdentie", "stop_I": "909"}, "geometry": {"coordinates": [22.17938113570567, 60.40624265751322], "type": "Point"}, "type": "Feature"}, {"id": "541", "properties": {"name": "Harviainen", "stop_I": "912"}, "geometry": {"coordinates": [22.39476140356985, 60.5098931722889], "type": "Point"}, "type": "Feature"}, {"id": "542", "properties": {"name": "Lumikonkatu", "stop_I": "913"}, "geometry": {"coordinates": [22.17700177431308, 60.44886570333604], "type": "Point"}, "type": "Feature"}, {"id": "543", "properties": {"name": "Majam\u00e4enkatu", "stop_I": "915"}, "geometry": {"coordinates": [22.20441587143543, 60.39412911241844], "type": "Point"}, "type": "Feature"}, {"id": "544", "properties": {"name": "Lehmustie", "stop_I": "916"}, "geometry": {"coordinates": [22.30565070445724, 60.4375908268449], "type": "Point"}, "type": "Feature"}, {"id": "545", "properties": {"name": "Karjakuja", "stop_I": "917"}, "geometry": {"coordinates": [22.30546539567153, 60.45573625840622], "type": "Point"}, "type": "Feature"}, {"id": "546", "properties": {"name": "Kuusistontie", "stop_I": "918"}, "geometry": {"coordinates": [22.18265094150142, 60.39877247799226], "type": "Point"}, "type": "Feature"}, {"id": "547", "properties": {"name": "Raision puhdistamo", "stop_I": "920"}, "geometry": {"coordinates": [22.13191428278512, 60.46854241719412], "type": "Point"}, "type": "Feature"}, {"id": "548", "properties": {"name": "Lustokatu", "stop_I": "921"}, "geometry": {"coordinates": [22.30077049758974, 60.47734573165344], "type": "Point"}, "type": "Feature"}, {"id": "549", "properties": {"name": "Ahmankatu", "stop_I": "923"}, "geometry": {"coordinates": [22.33282947365579, 60.41100982247726], "type": "Point"}, "type": "Feature"}, {"id": "550", "properties": {"name": "Kappeli", "stop_I": "925"}, "geometry": {"coordinates": [22.30468773402394, 60.42927649983248], "type": "Point"}, "type": "Feature"}, {"id": "551", "properties": {"name": "Uudenmaantulli", "stop_I": "927"}, "geometry": {"coordinates": [22.28297566101111, 60.44715476328626], "type": "Point"}, "type": "Feature"}, {"id": "552", "properties": {"name": "Leirint\u00e4alue", "stop_I": "928"}, "geometry": {"coordinates": [22.09770753273172, 60.42541971099276], "type": "Point"}, "type": "Feature"}, {"id": "553", "properties": {"name": "Nostov\u00e4enkatu", "stop_I": "929"}, "geometry": {"coordinates": [22.25607800928756, 60.49010966427136], "type": "Point"}, "type": "Feature"}, {"id": "554", "properties": {"name": "Kurjenm\u00e4enkatu", "stop_I": "930"}, "geometry": {"coordinates": [22.28335716712242, 60.43976892597888], "type": "Point"}, "type": "Feature"}, {"id": "555", "properties": {"name": "Taalinpellonkatu", "stop_I": "933"}, "geometry": {"coordinates": [22.25164237993418, 60.47162802956762], "type": "Point"}, "type": "Feature"}, {"id": "556", "properties": {"name": "Puutori", "stop_I": "934"}, "geometry": {"coordinates": [22.2708298362664, 60.45495005222932], "type": "Point"}, "type": "Feature"}, {"id": "557", "properties": {"name": "Raatimiehenkatu", "stop_I": "935"}, "geometry": {"coordinates": [22.3541199790688, 60.43463592627426], "type": "Point"}, "type": "Feature"}, {"id": "558", "properties": {"name": "Marsukatu", "stop_I": "938"}, "geometry": {"coordinates": [22.32083468528315, 60.40594000682768], "type": "Point"}, "type": "Feature"}, {"id": "559", "properties": {"name": "Varkkavuorenkatu", "stop_I": "940"}, "geometry": {"coordinates": [22.24870039510151, 60.46672185509776], "type": "Point"}, "type": "Feature"}, {"id": "560", "properties": {"name": "Puutarhatie", "stop_I": "942"}, "geometry": {"coordinates": [22.40848967562236, 60.46771013167228], "type": "Point"}, "type": "Feature"}, {"id": "561", "properties": {"name": "Puolniituntie", "stop_I": "943"}, "geometry": {"coordinates": [22.3481592255584, 60.52537319982968], "type": "Point"}, "type": "Feature"}, {"id": "562", "properties": {"name": "Moisiontie", "stop_I": "945"}, "geometry": {"coordinates": [22.2905289742982, 60.50960183032678], "type": "Point"}, "type": "Feature"},