{"type": "FeatureCollection", "features": [{"id": "0", "geometry": {"type": "Point", "coordinates": [-70.38353026, -23.57872286]}, "type": "Feature", "properties": {"name": "H\u00e9roes de la concepci\u00f3n, null", "stop_I": "1"}}, {"id": "1", "geometry": {"type": "Point", "coordinates": [-70.38313866, -23.5809402]}, "type": "Feature", "properties": {"name": "Heroes de La Concepci\u00f3n, 9254-9266", "stop_I": "2"}}, {"id": "2", "geometry": {"type": "Point", "coordinates": [-70.38172379, -23.57859749]}, "type": "Feature", "properties": {"name": "Juan Orione, 896", "stop_I": "3"}}, {"id": "3", "geometry": {"type": "Point", "coordinates": [-70.38312793, -23.58228239]}, "type": "Feature", "properties": {"name": "H\u00e9roes de la concepci\u00f3n, null", "stop_I": "4"}}, {"id": "4", "geometry": {"type": "Point", "coordinates": [-70.38371801, -23.5838163]}, "type": "Feature", "properties": {"name": "Heroes de La Concepci\u00f3n, 9046", "stop_I": "5"}}, {"id": "5", "geometry": {"type": "Point", "coordinates": [-70.38262367, -23.58430794]}, "type": "Feature", "properties": {"name": "El Roble, 8974-8992", "stop_I": "6"}}, {"id": "6", "geometry": {"type": "Point", "coordinates": [-70.38261831, -23.58471108]}, "type": "Feature", "properties": {"name": "El Roble, 8968", "stop_I": "7"}}, {"id": "7", "geometry": {"type": "Point", "coordinates": [-70.38297772, -23.5864072]}, "type": "Feature", "properties": {"name": "El Roble, 8816-8840", "stop_I": "8"}}, {"id": "8", "geometry": {"type": "Point", "coordinates": [-70.38302063, -23.58679558]}, "type": "Feature", "properties": {"name": "Juan Bol\u00edvar", "stop_I": "9"}}, {"id": "9", "geometry": {"type": "Point", "coordinates": [-70.38076566, -23.59287848]}, "type": "Feature", "properties": {"name": "Huamachuco, 8346-8366", "stop_I": "10"}}, {"id": "10", "geometry": {"type": "Point", "coordinates": [-70.38082123, -23.5938502]}, "type": "Feature", "properties": {"name": "Huamachuco, 8261-8285", "stop_I": "11"}}, {"id": "11", "geometry": {"type": "Point", "coordinates": [-70.38180292, -23.59647532]}, "type": "Feature", "properties": {"name": "Mateo de Toro y Zambrano / Bandera", "stop_I": "12"}}, {"id": "12", "geometry": {"type": "Point", "coordinates": [-70.38211942, -23.60114532]}, "type": "Feature", "properties": {"name": "Pantale\u00f3n Cortes, 805-835", "stop_I": "13"}}, {"id": "13", "geometry": {"type": "Point", "coordinates": [-70.38223207, -23.60376537]}, "type": "Feature", "properties": {"name": "Bandera, 7315", "stop_I": "14"}}, {"id": "14", "geometry": {"type": "Point", "coordinates": [-70.38090706, -23.60469442]}, "type": "Feature", "properties": {"name": "Agustinas, 642", "stop_I": "15"}}, {"id": "15", "geometry": {"type": "Point", "coordinates": [-70.38483649, -23.59247495]}, "type": "Feature", "properties": {"name": "Morro de Arica, 8324-8374", "stop_I": "16"}}, {"id": "16", "geometry": {"type": "Point", "coordinates": [-70.39381653, -23.63537631]}, "type": "Feature", "properties": {"name": "Iquique, 3909-3929", "stop_I": "17"}}, {"id": "17", "geometry": {"type": "Point", "coordinates": [-70.38609445, -23.62850331]}, "type": "Feature", "properties": {"name": "Presidente Salvador Allende", "stop_I": "18"}}, {"id": "18", "geometry": {"type": "Point", "coordinates": [-70.38365901, -23.62866058]}, "type": "Feature", "properties": {"name": "Talcahuano, 4569-4575", "stop_I": "19"}}, {"id": "19", "geometry": {"type": "Point", "coordinates": [-70.38137912, -23.62961894]}, "type": "Feature", "properties": {"name": "Domingo Faustino Sarmiento, 4536", "stop_I": "20"}}, {"id": "20", "geometry": {"type": "Point", "coordinates": [-70.3798449, -23.63048391]}, "type": "Feature", "properties": {"name": "Paraguay, 1360-1390", "stop_I": "21"}}, {"id": "21", "geometry": {"type": "Point", "coordinates": [-70.3776294, -23.62992856]}, "type": "Feature", "properties": {"name": "Paraguay, 1286-1292", "stop_I": "22"}}, {"id": "22", "geometry": {"type": "Point", "coordinates": [-70.38707078, -23.62835095]}, "type": "Feature", "properties": {"name": "Card Carlos Oviedo Cavada, 4535-4585", "stop_I": "23"}}, {"id": "23", "geometry": {"type": "Point", "coordinates": [-70.39094817, -23.56679474]}, "type": "Feature", "properties": {"name": "Pedro Aguirre cerda / Lomas del Sur", "stop_I": "24"}}, {"id": "24", "geometry": {"type": "Point", "coordinates": [-70.39354026, -23.55091682]}, "type": "Feature", "properties": {"name": "Oficina Lastenia /Oficina Pe\u00f1aflor", "stop_I": "25"}}, {"id": "25", "geometry": {"type": "Point", "coordinates": [-70.39961815, -23.55946332]}, "type": "Feature", "properties": {"name": "Benito Ocampo / Oficina Ausonia", "stop_I": "26"}}, {"id": "26", "geometry": {"type": "Point", "coordinates": [-70.39873301, -23.5543345]}, "type": "Feature", "properties": {"name": "Benito Ocampo / Oficina Anita", "stop_I": "27"}}, {"id": "27", "geometry": {"type": "Point", "coordinates": [-70.39107531, -23.56421086]}, "type": "Feature", "properties": {"name": "Pedro Aguirre Cerda / Santiago Humberstone", "stop_I": "28"}}, {"id": "28", "geometry": {"type": "Point", "coordinates": [-70.39103508, -23.57637764]}, "type": "Feature", "properties": {"name": "Pedro Aguirre Cerda / Chacalluta", "stop_I": "29"}}, {"id": "29", "geometry": {"type": "Point", "coordinates": [-70.39078832, -23.57908176]}, "type": "Feature", "properties": {"name": "Pedro Aguirre Cerda / R\u00edo de los Cipreses", "stop_I": "30"}}, {"id": "30", "geometry": {"type": "Point", "coordinates": [-70.39043427, -23.58286744]}, "type": "Feature", "properties": {"name": "Pedro Aguirre Cerda / Los Paquenes", "stop_I": "31"}}, {"id": "31", "geometry": {"type": "Point", "coordinates": [-70.39019823, -23.58652519]}, "type": "Feature", "properties": {"name": "Pedro Aguirre Cerda / Los Guindos", "stop_I": "32"}}, {"id": "32", "geometry": {"type": "Point", "coordinates": [-70.39232254, -23.58813771]}, "type": "Feature", "properties": {"name": "Los Cha\u00f1ares /  los Almendros", "stop_I": "33"}}, {"id": "33", "geometry": {"type": "Point", "coordinates": [-70.3937012, -23.59161342]}, "type": "Feature", "properties": {"name": "Los Almendros / Los Pimientos", "stop_I": "34"}}, {"id": "34", "geometry": {"type": "Point", "coordinates": [-70.39525687, -23.59274411]}, "type": "Feature", "properties": {"name": "El Oro / Nicol\u00e1s Tirado", "stop_I": "35"}}, {"id": "35", "geometry": {"type": "Point", "coordinates": [-70.39330423, -23.59458269]}, "type": "Feature", "properties": {"name": "El Azufre / Avenida El Yodo", "stop_I": "36"}}, {"id": "36", "geometry": {"type": "Point", "coordinates": [-70.39160907, -23.59235574]}, "type": "Feature", "properties": {"name": "El Salitre / Nicol\u00e1s Tirado", "stop_I": "37"}}, {"id": "37", "geometry": {"type": "Point", "coordinates": [-70.38813829, -23.59199687]}, "type": "Feature", "properties": {"name": "Nicol\u00e1s Tirado / H\u00e9roes de la Concepci\u00f3n", "stop_I": "38"}}, {"id": "38", "geometry": {"type": "Point", "coordinates": [-70.38313329, -23.59614104]}, "type": "Feature", "properties": {"name": "El Roble / Mateo Toro y Zambrano", "stop_I": "39"}}, {"id": "39", "geometry": {"type": "Point", "coordinates": [-70.38154006, -23.611753]}, "type": "Feature", "properties": {"name": "Isabel Riquelme / Las Delicias", "stop_I": "40"}}, {"id": "40", "geometry": {"type": "Point", "coordinates": [-70.38010776, -23.61624552]}, "type": "Feature", "properties": {"name": "Card Carlos Oviedo Cavada / Cobija", "stop_I": "41"}}, {"id": "41", "geometry": {"type": "Point", "coordinates": [-70.381127, -23.61982861]}, "type": "Feature", "properties": {"name": "Paihuano / Castro", "stop_I": "42"}}, {"id": "42", "geometry": {"type": "Point", "coordinates": [-70.38154006, -23.62065924]}, "type": "Feature", "properties": {"name": "Castro / Huasco", "stop_I": "43"}}, {"id": "43", "geometry": {"type": "Point", "coordinates": [-70.38211942, -23.62157834]}, "type": "Feature", "properties": {"name": "Castro / Elqui", "stop_I": "44"}}, {"id": "44", "geometry": {"type": "Point", "coordinates": [-70.38504303, -23.62621305]}, "type": "Feature", "properties": {"name": "Castro / Vallenar", "stop_I": "45"}}, {"id": "45", "geometry": {"type": "Point", "coordinates": [-70.38394868, -23.62735818]}, "type": "Feature", "properties": {"name": "Magallanes / Punta Arenas", "stop_I": "46"}}, {"id": "46", "geometry": {"type": "Point", "coordinates": [-70.38147032, -23.62748597]}, "type": "Feature", "properties": {"name": "Magallanes / Domingo Faustino Sarmiento", "stop_I": "47"}}, {"id": "47", "geometry": {"type": "Point", "coordinates": [-70.38137913, -23.62824775]}, "type": "Feature", "properties": {"name": "Domingo Faustino Sarmiento / Avenida Salvador Allende", "stop_I": "48"}}, {"id": "48", "geometry": {"type": "Point", "coordinates": [-70.38325131, -23.62885225]}, "type": "Feature", "properties": {"name": "Colombia / Talcahuano", "stop_I": "49"}}, {"id": "49", "geometry": {"type": "Point", "coordinates": [-70.38675427, -23.62894072]}, "type": "Feature", "properties": {"name": "Colombia / Cardenal Carlos Oviedo Cavada", "stop_I": "50"}}, {"id": "50", "geometry": {"type": "Point", "coordinates": [-70.38814366, -23.6302775]}, "type": "Feature", "properties": {"name": "Llanquihue / Paraguay", "stop_I": "51"}}, {"id": "51", "geometry": {"type": "Point", "coordinates": [-70.38790226, -23.63423862]}, "type": "Feature", "properties": {"name": "Llanquihue / Quito", "stop_I": "52"}}, {"id": "52", "geometry": {"type": "Point", "coordinates": [-70.38771451, -23.63735436]}, "type": "Feature", "properties": {"name": "Llanquihue / Zenteno", "stop_I": "53"}}, {"id": "53", "geometry": {"type": "Point", "coordinates": [-70.38751602, -23.64178703]}, "type": "Feature", "properties": {"name": "Llanquihue / Eleuterio Ramirez", "stop_I": "54"}}, {"id": "54", "geometry": {"type": "Point", "coordinates": [-70.38814902, -23.64338904]}, "type": "Feature", "properties": {"name": "Manuel Antonio Matta / Av. Andr\u00e9s Sabella", "stop_I": "55"}}, {"id": "55", "geometry": {"type": "Point", "coordinates": [-70.38967252, -23.64457825]}, "type": "Feature", "properties": {"name": "Manuel Antonio Matta / Valdivia", "stop_I": "56"}}, {"id": "56", "geometry": {"type": "Point", "coordinates": [-70.39132476, -23.64594927]}, "type": "Feature", "properties": {"name": "Manuel Antonio Matta / Covadonga", "stop_I": "57"}}, {"id": "57", "geometry": {"type": "Point", "coordinates": [-70.39223135, -23.64665689]}, "type": "Feature", "properties": {"name": "Manuel Antonio Matta / Riquelme", "stop_I": "58"}}, {"id": "58", "geometry": {"type": "Point", "coordinates": [-70.39527833, -23.64632765]}, "type": "Feature", "properties": {"name": "Almirante Juan Jos\u00e9 Latorre / Sim\u00f3n Bol\u00edvar", "stop_I": "59"}}, {"id": "59", "geometry": {"type": "Point", "coordinates": [-70.39686084, -23.64507949]}, "type": "Feature", "properties": {"name": "Simon Bol\u00edvar / Washington", "stop_I": "60"}}, {"id": "60", "geometry": {"type": "Point", "coordinates": [-70.39779425, -23.64551193]}, "type": "Feature", "properties": {"name": "Jorge Washington / Sucre", "stop_I": "61"}}, {"id": "61", "geometry": {"type": "Point", "coordinates": [-70.39865792, -23.64620972]}, "type": "Feature", "properties": {"name": "Jorge Washington / Capit\u00e1n Arturo Prat Chac\u00f3n", "stop_I": "62"}}, {"id": "62", "geometry": {"type": "Point", "coordinates": [-70.39950013, -23.64686328]}, "type": "Feature", "properties": {"name": "Jorge Washington / Baquedano", "stop_I": "63"}}, {"id": "63", "geometry": {"type": "Point", "coordinates": [-70.40029943, -23.64801315]}, "type": "Feature", "properties": {"name": "Maip\u00fa / Jos\u00e9 de San Mart\u00edn", "stop_I": "64"}}, {"id": "64", "geometry": {"type": "Point", "coordinates": [-70.39937139, -23.64904016]}, "type": "Feature", "properties": {"name": "Maip\u00fa / Almirante Latorre", "stop_I": "65"}}, {"id": "65", "geometry": {"type": "Point", "coordinates": [-70.3987813, -23.64963474]}, "type": "Feature", "properties": {"name": "Maip\u00fa / Carlos Condell", "stop_I": "66"}}, {"id": "66", "geometry": {"type": "Point", "coordinates": [-70.39792836, -23.65055364]}, "type": "Feature", "properties": {"name": "Maip\u00fa / Manuel Antonio Matta", "stop_I": "67"}}, {"id": "67", "geometry": {"type": "Point", "coordinates": [-70.39708614, -23.65141847]}, "type": "Feature", "properties": {"name": "Maip\u00fa / Jos\u00e9 Santos Ossa", "stop_I": "68"}}, {"id": "68", "geometry": {"type": "Point", "coordinates": [-70.39607227, -23.65247494]}, "type": "Feature", "properties": {"name": "Maip\u00fa / Catorce de Febrero", "stop_I": "69"}}, {"id": "69", "geometry": {"type": "Point", "coordinates": [-70.40095389, -23.66691576]}, "type": "Feature", "properties": {"name": "Galleguillos Lorca / Gral. Borgo\u00f1o", "stop_I": "70"}}, {"id": "70", "geometry": {"type": "Point", "coordinates": [-70.40234327, -23.66963275]}, "type": "Feature", "properties": {"name": "Galleguillos Lorca / Angol", "stop_I": "71"}}, {"id": "71", "geometry": {"type": "Point", "coordinates": [-70.40570676, -23.6720156]}, "type": "Feature", "properties": {"name": "Homero \u00c1vila Silva / Angamos", "stop_I": "72"}}, {"id": "72", "geometry": {"type": "Point", "coordinates": [-70.40694594, -23.67286064]}, "type": "Feature", "properties": {"name": "Angamos / Las Losas", "stop_I": "73"}}, {"id": "73", "geometry": {"type": "Point", "coordinates": [-70.40763259, -23.67449667]}, "type": "Feature", "properties": {"name": "Angamos / Santo Domingo", "stop_I": "74"}}, {"id": "74", "geometry": {"type": "Point", "coordinates": [-70.40830851, -23.67605898]}, "type": "Feature", "properties": {"name": "Angamos / Augusto Dhalmar", "stop_I": "75"}}, {"id": "75", "geometry": {"type": "Point", "coordinates": [-70.40975154, -23.6788986]}, "type": "Feature", "properties": {"name": "Angamos / Virgilio Arias", "stop_I": "76"}}, {"id": "76", "geometry": {"type": "Point", "coordinates": [-70.41297018, -23.6838113]}, "type": "Feature", "properties": {"name": "Angamos / Sangra", "stop_I": "77"}}, {"id": "77", "geometry": {"type": "Point", "coordinates": [-70.42316794, -23.70094043]}, "type": "Feature", "properties": {"name": "Universidad de Chile", "stop_I": "78"}}, {"id": "78", "geometry": {"type": "Point", "coordinates": [-70.42440176, -23.70588177]}, "type": "Feature", "properties": {"name": "Av. Jaime Guzm\u00e1n Err\u00e1zuriz / Subida del Destino", "stop_I": "79"}}, {"id": "79", "geometry": {"type": "Point", "coordinates": [-70.43142915, -23.7098799]}, "type": "Feature", "properties": {"name": "Av. Jaime Guzm\u00e1n Err\u00e1zuriz", "stop_I": "80"}}, {"id": "80", "geometry": {"type": "Point", "coordinates": [-70.43392897, -23.71592106]}, "type": "Feature", "properties": {"name": "Av. Jaime Guzm\u00e1n Err\u00e1zuriz", "stop_I": "81"}}, {"id": "81", "geometry": {"type": "Point", "coordinates": [-70.42333961, -23.70188352]}, "type": "Feature", "properties": {"name": "Universidad de Chile / Acceso Campus Coloso", "stop_I": "82"}}, {"id": "82", "geometry": {"type": "Point", "coordinates": [-70.41350126, -23.68538332]}, "type": "Feature", "properties": {"name": "Angamos / Sangra", "stop_I": "83"}}, {"id": "83", "geometry": {"type": "Point", "coordinates": [-70.41196704, -23.68221961]}, "type": "Feature", "properties": {"name": "Angamos / Universidad Cat\u00f3lica del Norte", "stop_I": "84"}}, {"id": "84", "geometry": {"type": "Point", "coordinates": [-70.40989101, -23.67926706]}, "type": "Feature", "properties": {"name": "Angamos / Garc\u00eda Lorca", "stop_I": "85"}}, {"id": "85", "geometry": {"type": "Point", "coordinates": [-70.40910244, -23.67814203]}, "type": "Feature", "properties": {"name": "Angamos / Eusebio Lillo", "stop_I": "86"}}, {"id": "86", "geometry": {"type": "Point", "coordinates": [-70.40814221, -23.67588703]}, "type": "Feature", "properties": {"name": "Angamos / Pedro Prado", "stop_I": "87"}}, {"id": "87", "geometry": {"type": "Point", "coordinates": [-70.40754676, -23.67457527]}, "type": "Feature", "properties": {"name": "Rebeca Matte", "stop_I": "88"}}, {"id": "88", "geometry": {"type": "Point", "coordinates": [-70.40687084, -23.67294416]}, "type": "Feature", "properties": {"name": "Angamos / Nicanor Plaza", "stop_I": "89"}}, {"id": "89", "geometry": {"type": "Point", "coordinates": [-70.40504158, -23.66911196]}, "type": "Feature", "properties": {"name": "Angamos / Los Inmigrantes", "stop_I": "90"}}, {"id": "90", "geometry": {"type": "Point", "coordinates": [-70.40416718, -23.66748569]}, "type": "Feature", "properties": {"name": "Angamos / Talca", "stop_I": "91"}}, {"id": "91", "geometry": {"type": "Point", "coordinates": [-70.4018122, -23.6681932]}, "type": "Feature", "properties": {"name": "Talca / Galleguillos Lorca", "stop_I": "92"}}, {"id": "92", "geometry": {"type": "Point", "coordinates": [-70.40012777, -23.66796718]}, "type": "Feature", "properties": {"name": "Eduardo Orchard / Gral. Borgo\u00f1o", "stop_I": "93"}}, {"id": "93", "geometry": {"type": "Point", "coordinates": [-70.39914072, -23.66522068]}, "type": "Feature", "properties": {"name": "Eduardo Orchard / D\u00edaz Gana", "stop_I": "94"}}, {"id": "94", "geometry": {"type": "Point", "coordinates": [-70.39731681, -23.66339291]}, "type": "Feature", "properties": {"name": "Argentina / Antonio Toro", "stop_I": "95"}}, {"id": "95", "geometry": {"type": "Point", "coordinates": [-70.39634585, -23.66100499]}, "type": "Feature", "properties": {"name": "Argentina / General Jos\u00e9 Vel\u00e1squez", "stop_I": "96"}}, {"id": "96", "geometry": {"type": "Point", "coordinates": [-70.39638877, -23.65963413]}, "type": "Feature", "properties": {"name": "Argentina / Salvador Reyes", "stop_I": "97"}}, {"id": "97", "geometry": {"type": "Point", "coordinates": [-70.39612055, -23.65816989]}, "type": "Feature", "properties": {"name": "Argentina / Blanco Encalada", "stop_I": "98"}}, {"id": "98", "geometry": {"type": "Point", "coordinates": [-70.39616346, -23.65868581]}, "type": "Feature", "properties": {"name": "Argentina", "stop_I": "99"}}, {"id": "99", "geometry": {"type": "Point", "coordinates": [-70.39711297, -23.65632729]}, "type": "Feature", "properties": {"name": "Veintiuno de Mayo / Esmeralda", "stop_I": "100"}}, {"id": "100", "geometry": {"type": "Point", "coordinates": [-70.3982234, -23.65508414]}, "type": "Feature", "properties": {"name": "Veintiuno de Mayo / 14 de febreo", "stop_I": "101"}}, {"id": "101", "geometry": {"type": "Point", "coordinates": [-70.39886713, -23.65438148]}, "type": "Feature", "properties": {"name": "Veintiuno de Mayo / Jos\u00e9 Santos Ossa", "stop_I": "102"}}, {"id": "102", "geometry": {"type": "Point", "coordinates": [-70.3991729, -23.65376726]}, "type": "Feature", "properties": {"name": "Jos\u00e9 Santos Ossa / 21 de Mayo", "stop_I": "103"}}, {"id": "103", "geometry": {"type": "Point", "coordinates": [-70.39802492, -23.65282382]}, "type": "Feature", "properties": {"name": "Jos\u00e9 Santos Ossa / Teniente Luis Uribe", "stop_I": "104"}}, {"id": "104", "geometry": {"type": "Point", "coordinates": [-70.39947331, -23.65047502]}, "type": "Feature", "properties": {"name": "Teniente Luis Uribe / Almirante Latorre", "stop_I": "105"}}, {"id": "105", "geometry": {"type": "Point", "coordinates": [-70.40202141, -23.64783133]}, "type": "Feature", "properties": {"name": "Teniente Luis Uribe / Av. Jos\u00e9 Manuel Balmaceda", "stop_I": "106"}}, {"id": "106", "geometry": {"type": "Point", "coordinates": [-70.40115237, -23.64708441]}, "type": "Feature", "properties": {"name": "Maip\u00fa / Av. Jos\u00e9 Manuel Balmaceda", "stop_I": "107"}}, {"id": "107", "geometry": {"type": "Point", "coordinates": [-70.39814293, -23.65001312]}, "type": "Feature", "properties": {"name": "Capit\u00e1n Carlos Condell / Maip\u00fa", "stop_I": "108"}}, {"id": "108", "geometry": {"type": "Point", "coordinates": [-70.39755821, -23.64960035]}, "type": "Feature", "properties": {"name": "Capit\u00e1n Carlos Condell / Baquedano", "stop_I": "109"}}, {"id": "109", "geometry": {"type": "Point", "coordinates": [-70.39584696, -23.64823428]}, "type": "Feature", "properties": {"name": "Capit\u00e1n Carlos Condell / Sucre", "stop_I": "110"}}, {"id": "110", "geometry": {"type": "Point", "coordinates": [-70.39517641, -23.64769374]}, "type": "Feature", "properties": {"name": "Capit\u00e1n Carlos Condell / Sim\u00f3n Bol\u00edvar", "stop_I": "111"}}, {"id": "111", "geometry": {"type": "Point", "coordinates": [-70.39275706, -23.6457478]}, "type": "Feature", "properties": {"name": "Capit\u00e1n Carlos Condell / Av, Argentina", "stop_I": "112"}}, {"id": "112", "geometry": {"type": "Point", "coordinates": [-70.39103508, -23.63989014]}, "type": "Feature", "properties": {"name": "Caracoles / Buenos Aires", "stop_I": "113"}}, {"id": "113", "geometry": {"type": "Point", "coordinates": [-70.39073467, -23.63881882]}, "type": "Feature", "properties": {"name": "Caracoles / Lima", "stop_I": "114"}}, {"id": "114", "geometry": {"type": "Point", "coordinates": [-70.3900212, -23.63757059]}, "type": "Feature", "properties": {"name": "Pedro de Valdivia / Montevideo", "stop_I": "115"}}, {"id": "115", "geometry": {"type": "Point", "coordinates": [-70.38554728, -23.63445977]}, "type": "Feature", "properties": {"name": "Chilo\u00e9 / Quito", "stop_I": "116"}}, {"id": "116", "geometry": {"type": "Point", "coordinates": [-70.38569748, -23.63126533]}, "type": "Feature", "properties": {"name": "Chilo\u00e9 / Paraguay", "stop_I": "117"}}, {"id": "117", "geometry": {"type": "Point", "coordinates": [-70.3804028, -23.61685008]}, "type": "Feature", "properties": {"name": "Card Carlos Oviedo Cavada / Cobija", "stop_I": "118"}}, {"id": "118", "geometry": {"type": "Point", "coordinates": [-70.38011313, -23.6142991]}, "type": "Feature", "properties": {"name": "Rancagua / Calbuco", "stop_I": "119"}}, {"id": "119", "geometry": {"type": "Point", "coordinates": [-70.38238764, -23.61279012]}, "type": "Feature", "properties": {"name": "Av. Antonio Rendic / Isabel Riquelme", "stop_I": "120"}}, {"id": "120", "geometry": {"type": "Point", "coordinates": [-70.38009703, -23.60840071]}, "type": "Feature", "properties": {"name": "Teatinos / Las Condes", "stop_I": "121"}}, {"id": "121", "geometry": {"type": "Point", "coordinates": [-70.38027942, -23.60628214]}, "type": "Feature", "properties": {"name": "Teatinos / Merced", "stop_I": "122"}}, {"id": "122", "geometry": {"type": "Point", "coordinates": [-70.38088024, -23.60370147]}, "type": "Feature", "properties": {"name": "Irarr\u00e1zaval / Bandera", "stop_I": "123"}}, {"id": "123", "geometry": {"type": "Point", "coordinates": [-70.38174391, -23.59686859]}, "type": "Feature", "properties": {"name": "Bandera / Mateo Toto y Zambrano", "stop_I": "124"}}, {"id": "124", "geometry": {"type": "Point", "coordinates": [-70.38516641, -23.59602305]}, "type": "Feature", "properties": {"name": "Gran Avenida Radomiro Tomic / Mateo Toro y Zambrano", "stop_I": "125"}}, {"id": "125", "geometry": {"type": "Point", "coordinates": [-70.38901806, -23.59192313]}, "type": "Feature", "properties": {"name": "Nicol\u00e1s Tirado", "stop_I": "126"}}, {"id": "126", "geometry": {"type": "Point", "coordinates": [-70.38960278, -23.59479899]}, "type": "Feature", "properties": {"name": "Pedro Aguirre Cerda / Liparita", "stop_I": "127"}}, {"id": "127", "geometry": {"type": "Point", "coordinates": [-70.38961887, -23.59698657]}, "type": "Feature", "properties": {"name": "Pedro Aguirre Cerda / Onix", "stop_I": "128"}}, {"id": "128", "geometry": {"type": "Point", "coordinates": [-70.39517641, -23.59454828]}, "type": "Feature", "properties": {"name": "Azufre / El Oro", "stop_I": "129"}}, {"id": "129", "geometry": {"type": "Point", "coordinates": [-70.39361537, -23.59193788]}, "type": "Feature", "properties": {"name": "Los Pimientos / Los Almendros", "stop_I": "130"}}, {"id": "130", "geometry": {"type": "Point", "coordinates": [-70.39441466, -23.58946999]}, "type": "Feature", "properties": {"name": "Del Alto / Los Naranjos", "stop_I": "131"}}, {"id": "131", "geometry": {"type": "Point", "coordinates": [-70.39293945, -23.58956832]}, "type": "Feature", "properties": {"name": "Los Naranjos / Los Aromos", "stop_I": "132"}}, {"id": "132", "geometry": {"type": "Point", "coordinates": [-70.38993537, -23.58759693]}, "type": "Feature", "properties": {"name": "Pedro Aguirre Cerda / Juan Bol\u00edvar", "stop_I": "133"}}, {"id": "133", "geometry": {"type": "Point", "coordinates": [-70.3901714, -23.58498147]}, "type": "Feature", "properties": {"name": "Pedro Aguirre Cerda / Los Canelos", "stop_I": "134"}}, {"id": "134", "geometry": {"type": "Point", "coordinates": [-70.39085806, -23.57804929]}, "type": "Feature", "properties": {"name": "Pedro Aguirre Cerda / Gabriel Silva", "stop_I": "135"}}, {"id": "135", "geometry": {"type": "Point", "coordinates": [-70.39099216, -23.57248361]}, "type": "Feature", "properties": {"name": "Pedro Aguirre Cerda / F\u00e9lix Garc\u00eda", "stop_I": "136"}}, {"id": "136", "geometry": {"type": "Point", "coordinates": [-70.39095193, -23.56440262]}, "type": "Feature", "properties": {"name": "Pedro Aguirre Cerda / Av. Oficina Petronila", "stop_I": "137"}}, {"id": "137", "geometry": {"type": "Point", "coordinates": [-70.39717198, -23.56253166]}, "type": "Feature", "properties": {"name": "Av. Oficina Petronila / Benito Ocampo", "stop_I": "138"}}, {"id": "138", "geometry": {"type": "Point", "coordinates": [-70.39929628, -23.55971901]}, "type": "Feature", "properties": {"name": "Benito Ocampo / Inacap", "stop_I": "139"}}, {"id": "139", "geometry": {"type": "Point", "coordinates": [-70.3987813, -23.55460496]}, "type": "Feature", "properties": {"name": "Benito Ocampo / Oficina Anita", "stop_I": "140"}}, {"id": "140", "geometry": {"type": "Point", "coordinates": [-70.39530516, -23.55291335]}, "type": "Feature", "properties": {"name": "Rica Aventura / Oficina Carmela", "stop_I": "141"}}, {"id": "141", "geometry": {"type": "Point", "coordinates": [-70.39328545, -23.55145284]}, "type": "Feature", "properties": {"name": "Oficina Francisco Puelma / Oficina Lastenia", "stop_I": "142"}}, {"id": "142", "geometry": {"type": "Point", "coordinates": [-70.39081514, -23.54132225]}, "type": "Feature", "properties": {"name": "Amatista / Terminal 102", "stop_I": "143"}}, {"id": "143", "geometry": {"type": "Point", "coordinates": [-70.38973153, -23.55544093]}, "type": "Feature", "properties": {"name": "Oficina Anita / Av. Pedro Aguirre Cerda (Terminal 107)", "stop_I": "144"}}, {"id": "144", "geometry": {"type": "Point", "coordinates": [-70.39015532, -23.57663331]}, "type": "Feature", "properties": {"name": "Arturo P\u00e9rez Canto / Carrizal", "stop_I": "145"}}, {"id": "145", "geometry": {"type": "Point", "coordinates": [-70.38682938, -23.57636781]}, "type": "Feature", "properties": {"name": "Arturo P\u00e9rez Canto / Valle del Encanto", "stop_I": "146"}}, {"id": "146", "geometry": {"type": "Point", "coordinates": [-70.38265049, -23.56954825]}, "type": "Feature", "properties": {"name": "Huamachuco / Los Nitratos", "stop_I": "147"}}, {"id": "147", "geometry": {"type": "Point", "coordinates": [-70.38003266, -23.57299495]}, "type": "Feature", "properties": {"name": "General Oscar Bonilla / Mami\u00f1a", "stop_I": "148"}}, {"id": "148", "geometry": {"type": "Point", "coordinates": [-70.379861, -23.57529598]}, "type": "Feature", "properties": {"name": "General Oscar Bonilla / Arturo P\u00e9rez Canto", "stop_I": "149"}}, {"id": "149", "geometry": {"type": "Point", "coordinates": [-70.37978053, -23.57631864]}, "type": "Feature", "properties": {"name": "General Oscar Bonilla / Lontue", "stop_I": "150"}}, {"id": "150", "geometry": {"type": "Point", "coordinates": [-70.3794533, -23.57996182]}, "type": "Feature", "properties": {"name": "General Oscar Bonilla / Mar\u00eda Elena", "stop_I": "151"}}, {"id": "151", "geometry": {"type": "Point", "coordinates": [-70.37935674, -23.58108769]}, "type": "Feature", "properties": {"name": "General Oscar Bonilla / Julio Montt Salamanca", "stop_I": "152"}}, {"id": "152", "geometry": {"type": "Point", "coordinates": [-70.37915289, -23.58354099]}, "type": "Feature", "properties": {"name": "General Oscar Bonillan / Ignacio Carrera pinto", "stop_I": "153"}}, {"id": "153", "geometry": {"type": "Point", "coordinates": [-70.37882566, -23.58894888]}, "type": "Feature", "properties": {"name": "General Oscar Bonilla / Stgo Manuel silva", "stop_I": "154"}}, {"id": "154", "geometry": {"type": "Point", "coordinates": [-70.37882566, -23.59074327]}, "type": "Feature", "properties": {"name": "Gral Oscar Bonilla / Clodomiro Rozas", "stop_I": "155"}}, {"id": "155", "geometry": {"type": "Point", "coordinates": [-70.37721634, -23.59702589]}, "type": "Feature", "properties": {"name": "Los Leones / Mateo Toro y Zambrano", "stop_I": "156"}}, {"id": "156", "geometry": {"type": "Point", "coordinates": [-70.37679791, -23.59912987]}, "type": "Feature", "properties": {"name": "Los Leones / Juvenal Morla", "stop_I": "157"}}, {"id": "157", "geometry": {"type": "Point", "coordinates": [-70.37706614, -23.60130263]}, "type": "Feature", "properties": {"name": "Los Leones / Pantale\u00f3n Cortes", "stop_I": "158"}}, {"id": "158", "geometry": {"type": "Point", "coordinates": [-70.37763476, -23.60319024]}, "type": "Feature", "properties": {"name": "Los Leones / Irarr\u00e1zaval", "stop_I": "159"}}, {"id": "159", "geometry": {"type": "Point", "coordinates": [-70.37790298, -23.60894141]}, "type": "Feature", "properties": {"name": "Los Leones / Isabel La Cat\u00f3lica", "stop_I": "160"}}, {"id": "160", "geometry": {"type": "Point", "coordinates": [-70.37667453, -23.61707126]}, "type": "Feature", "properties": {"name": "General Oscar Bonilla / Pto Natales", "stop_I": "161"}}, {"id": "161", "geometry": {"type": "Point", "coordinates": [-70.38063884, -23.62003012]}, "type": "Feature", "properties": {"name": "Paihuano / Achao", "stop_I": "162"}}, {"id": "162", "geometry": {"type": "Point", "coordinates": [-70.38071394, -23.62368683]}, "type": "Feature", "properties": {"name": "Pto Natales / Freirina", "stop_I": "163"}}, {"id": "163", "geometry": {"type": "Point", "coordinates": [-70.38178682, -23.6260312]}, "type": "Feature", "properties": {"name": "Domingo Faustino Sarmiento / In\u00e9s de Su\u00e1rez", "stop_I": "164"}}, {"id": "164", "geometry": {"type": "Point", "coordinates": [-70.3824842, -23.63954122]}, "type": "Feature", "properties": {"name": "Circunvalaci\u00f3n Padre Alberto Hurtado / Buenos Aires", "stop_I": "165"}}, {"id": "165", "geometry": {"type": "Point", "coordinates": [-70.38379312, -23.64373794]}, "type": "Feature", "properties": {"name": "Circunvalaci\u00f3n Padre Alberto Hurtado / Timonel Vargas", "stop_I": "166"}}, {"id": "166", "geometry": {"type": "Point", "coordinates": [-70.3853488, -23.64881904]}, "type": "Feature", "properties": {"name": "Circunvalaci\u00f3n / Ecuador", "stop_I": "167"}}, {"id": "167", "geometry": {"type": "Point", "coordinates": [-70.3860569, -23.65142339]}, "type": "Feature", "properties": {"name": "Circunvalaci\u00f3n Padre Alberto Hurtado / Lautaro", "stop_I": "168"}}, {"id": "168", "geometry": {"type": "Point", "coordinates": [-70.38886786, -23.66090672]}, "type": "Feature", "properties": {"name": "Circunvalaci\u00f3n Padre Alberto Hurtado / Teniente Luis Uribe", "stop_I": "169"}}, {"id": "169", "geometry": {"type": "Point", "coordinates": [-70.39084196, -23.66463108]}, "type": "Feature", "properties": {"name": "Circunvalaci\u00f3n Padre Alberto Hurtado / Leucot\u00f3n", "stop_I": "170"}}, {"id": "170", "geometry": {"type": "Point", "coordinates": [-70.39393187, -23.66382529]}, "type": "Feature", "properties": {"name": "Araucan\u00eda / Andres Sabella", "stop_I": "171"}}, {"id": "171", "geometry": {"type": "Point", "coordinates": [-70.39136767, -23.6578112]}, "type": "Feature", "properties": {"name": "Andr\u00e9s Sabella / Maip\u00fa", "stop_I": "172"}}, {"id": "172", "geometry": {"type": "Point", "coordinates": [-70.38993001, -23.65594403]}, "type": "Feature", "properties": {"name": "Andr\u00e9s Sabella / Arturo Prat", "stop_I": "173"}}, {"id": "173", "geometry": {"type": "Point", "coordinates": [-70.38924336, -23.65039148]}, "type": "Feature", "properties": {"name": "Andr\u00e9s Sabella / Tte. Ernesto Riquelme", "stop_I": "174"}}, {"id": "174", "geometry": {"type": "Point", "coordinates": [-70.3913033, -23.64622446]}, "type": "Feature", "properties": {"name": "Covadonga Nva / Manuel Antonio Matta", "stop_I": "175"}}, {"id": "175", "geometry": {"type": "Point", "coordinates": [-70.39525151, -23.64913353]}, "type": "Feature", "properties": {"name": "Manuel Antonio Matta / Arturo Prat", "stop_I": "176"}}, {"id": "176", "geometry": {"type": "Point", "coordinates": [-70.39517641, -23.65021458]}, "type": "Feature", "properties": {"name": "Arturo Prat / Jos\u00e9 Santos Ossa", "stop_I": "177"}}, {"id": "177", "geometry": {"type": "Point", "coordinates": [-70.39736509, -23.65257322]}, "type": "Feature", "properties": {"name": "Teniente Luis Uribe / Jos\u00e9 Santos Ossa", "stop_I": "178"}}, {"id": "178", "geometry": {"type": "Point", "coordinates": [-70.39412498, -23.65272063]}, "type": "Feature", "properties": {"name": "Esmeralda / Baquedano", "stop_I": "179"}}, {"id": "179", "geometry": {"type": "Point", "coordinates": [-70.39791226, -23.65202287]}, "type": "Feature", "properties": {"name": "Teniente Luis Uribe / Sotomayor", "stop_I": "180"}}, {"id": "180", "geometry": {"type": "Point", "coordinates": [-70.39854527, -23.65179684]}, "type": "Feature", "properties": {"name": "Manuel Antonio Matta / Teniente Luis Uribe", "stop_I": "181"}}, {"id": "181", "geometry": {"type": "Point", "coordinates": [-70.39940894, -23.65247003]}, "type": "Feature", "properties": {"name": "Manuel Antonio Matta / Veintiuno de Mayo", "stop_I": "182"}}, {"id": "182", "geometry": {"type": "Point", "coordinates": [-70.40070176, -23.65355597]}, "type": "Feature", "properties": {"name": "Manuel Antonio Matta / Copiap\u00f3", "stop_I": "183"}}, {"id": "183", "geometry": {"type": "Point", "coordinates": [-70.4017961, -23.65686779]}, "type": "Feature", "properties": {"name": "Jos\u00e9 Miguel Carrera / Aconcagua", "stop_I": "184"}}, {"id": "184", "geometry": {"type": "Point", "coordinates": [-70.40464729, -23.66783207]}, "type": "Feature", "properties": {"name": "Angamos / Los Inmigrantes", "stop_I": "185"}}, {"id": "185", "geometry": {"type": "Point", "coordinates": [-70.42104066, -23.69186943]}, "type": "Feature", "properties": {"name": "Rep\u00fablica de Croacia", "stop_I": "186"}}, {"id": "186", "geometry": {"type": "Point", "coordinates": [-70.41409135, -23.68222943]}, "type": "Feature", "properties": {"name": "Rep\u00fablica de Croacia / Cuartel General I del Ejercito", "stop_I": "187"}}, {"id": "187", "geometry": {"type": "Point", "coordinates": [-70.42096853, -23.69235895]}, "type": "Feature", "properties": {"name": "Rep\u00fablica de Croacia / Regimiento Reforzado", "stop_I": "188"}}, {"id": "188", "geometry": {"type": "Point", "coordinates": [-70.39814293, -23.66470478]}, "type": "Feature", "properties": {"name": "Argentina / D\u00edaz Gana", "stop_I": "189"}}, {"id": "189", "geometry": {"type": "Point", "coordinates": [-70.3968662, -23.65181158]}, "type": "Feature", "properties": {"name": "Jos\u00e9 Santos Ossa / Maip\u00fa", "stop_I": "190"}}, {"id": "190", "geometry": {"type": "Point", "coordinates": [-70.39595962, -23.65113839]}, "type": "Feature", "properties": {"name": "Jos\u00e9 Santos Ossa / Baquedano", "stop_I": "191"}}, {"id": "191", "geometry": {"type": "Point", "coordinates": [-70.39506912, -23.65044062]}, "type": "Feature", "properties": {"name": "Jos\u00e9 Santos Ossa / Arturo Prat", "stop_I": "192"}}, {"id": "192", "geometry": {"type": "Point", "coordinates": [-70.3924942, -23.64838661]}, "type": "Feature", "properties": {"name": "Jos\u00e9 Santos Ossa / Serrano", "stop_I": "193"}}, {"id": "193", "geometry": {"type": "Point", "coordinates": [-70.39164126, -23.64767409]}, "type": "Feature", "properties": {"name": "Jos\u00e9 Santos Ossa / Riquelme", "stop_I": "194"}}, {"id": "194", "geometry": {"type": "Point", "coordinates": [-70.38906634, -23.64710407]}, "type": "Feature", "properties": {"name": "Av. Andr\u00e9s Sabella / 14 de Febrero", "stop_I": "195"}}, {"id": "195", "geometry": {"type": "Point", "coordinates": [-70.38921654, -23.64979199]}, "type": "Feature", "properties": {"name": "Andr\u00e9s Sabella / Riquelme", "stop_I": "196"}}, {"id": "196", "geometry": {"type": "Point", "coordinates": [-70.38969398, -23.65292701]}, "type": "Feature", "properties": {"name": "Andr\u00e9s Sabella / Sim\u00f3n Bol\u00edvar", "stop_I": "197"}}, {"id": "197", "geometry": {"type": "Point", "coordinates": [-70.39052546, -23.65638134]}, "type": "Feature", "properties": {"name": "Andr\u00e9s Sabella / Quebrada Baquedano", "stop_I": "198"}}, {"id": "198", "geometry": {"type": "Point", "coordinates": [-70.39295018, -23.66135876]}, "type": "Feature", "properties": {"name": "Diagonal Sur / Lientur", "stop_I": "199"}}, {"id": "199", "geometry": {"type": "Point", "coordinates": [-70.3929019, -23.66603137]}, "type": "Feature", "properties": {"name": "Diagonal Sur / Pasaje Mirador", "stop_I": "200"}}, {"id": "200", "geometry": {"type": "Point", "coordinates": [-70.39209187, -23.66668975]}, "type": "Feature", "properties": {"name": "Circunvalaci\u00f3n Padre Alberto Hurtado / Osvaldo Mendoza", "stop_I": "201"}}, {"id": "201", "geometry": {"type": "Point", "coordinates": [-70.39119065, -23.66543195]}, "type": "Feature", "properties": {"name": "Circunvalaci\u00f3n Padre Alberto Hurtado / Teniente Urbina", "stop_I": "202"}}, {"id": "202", "geometry": {"type": "Point", "coordinates": [-70.39036989, -23.66395795]}, "type": "Feature", "properties": {"name": "Av. Circunvalaci\u00f3n Padre Hurtado / Tegualda", "stop_I": "203"}}, {"id": "203", "geometry": {"type": "Point", "coordinates": [-70.3891629, -23.661629]}, "type": "Feature", "properties": {"name": "Circunvalaci\u00f3n Padre Alberto Hurtado / Hern\u00e1n Mery", "stop_I": "204"}}, {"id": "204", "geometry": {"type": "Point", "coordinates": [-70.38684547, -23.65720683]}, "type": "Feature", "properties": {"name": "Av. Circunvalaci\u00f3n Padre Hurtado / Sucre", "stop_I": "205"}}, {"id": "205", "geometry": {"type": "Point", "coordinates": [-70.38588524, -23.65104994]}, "type": "Feature", "properties": {"name": "Av. Circunvalaci\u00f3n Padre Hurtado / Covadonga", "stop_I": "206"}}, {"id": "206", "geometry": {"type": "Point", "coordinates": [-70.38418472, -23.64534976]}, "type": "Feature", "properties": {"name": "Av. Circunvalaci\u00f3n Padre Hurtado / Ingeniero Mutilla", "stop_I": "207"}}, {"id": "207", "geometry": {"type": "Point", "coordinates": [-70.38266659, -23.64065184]}, "type": "Feature", "properties": {"name": "Circunvalaci\u00f3n Padre Alberto Hurtado / Huanchaca", "stop_I": "208"}}, {"id": "208", "geometry": {"type": "Point", "coordinates": [-70.37930846, -23.63347688]}, "type": "Feature", "properties": {"name": "Av. Circunvalaci\u00f3n Padre Alberto Hurtado / Quito", "stop_I": "209"}}, {"id": "209", "geometry": {"type": "Point", "coordinates": [-70.37752748, -23.63216961]}, "type": "Feature", "properties": {"name": "Sicilia", "stop_I": "210"}}, {"id": "210", "geometry": {"type": "Point", "coordinates": [-70.37735849, -23.62988679]}, "type": "Feature", "properties": {"name": "Sicilia / Paraguay", "stop_I": "211"}}, {"id": "211", "geometry": {"type": "Point", "coordinates": [-70.37893831, -23.62868761]}, "type": "Feature", "properties": {"name": "Pdte. Salvador Allende / Calle A", "stop_I": "212"}}, {"id": "212", "geometry": {"type": "Point", "coordinates": [-70.38110286, -23.62864829]}, "type": "Feature", "properties": {"name": "Presidente Salvador Allende / Colon", "stop_I": "213"}}, {"id": "213", "geometry": {"type": "Point", "coordinates": [-70.38178682, -23.6258469]}, "type": "Feature", "properties": {"name": "Domingo Faustino Sarmiento/ Pto. Natales", "stop_I": "214"}}, {"id": "214", "geometry": {"type": "Point", "coordinates": [-70.38064689, -23.62367946]}, "type": "Feature", "properties": {"name": "Pto Natales / Freirina", "stop_I": "215"}}, {"id": "215", "geometry": {"type": "Point", "coordinates": [-70.38170635, -23.61889476]}, "type": "Feature", "properties": {"name": "Card Carlos Oviedo Cavada / Vicu\u00f1a", "stop_I": "216"}}, {"id": "216", "geometry": {"type": "Point", "coordinates": [-70.37877202, -23.6151052]}, "type": "Feature", "properties": {"name": "Rancagua / Pto. Montt", "stop_I": "217"}}, {"id": "217", "geometry": {"type": "Point", "coordinates": [-70.37767231, -23.61423029]}, "type": "Feature", "properties": {"name": "General Oscar Bonilla / Cancha Rayada", "stop_I": "218"}}, {"id": "218", "geometry": {"type": "Point", "coordinates": [-70.37810147, -23.611753]}, "type": "Feature", "properties": {"name": "Gral Oscar Bonilla / 20 de Agosto", "stop_I": "219"}}, {"id": "219", "geometry": {"type": "Point", "coordinates": [-70.37776351, -23.60642469]}, "type": "Feature", "properties": {"name": "Los Leones / Abate Molina", "stop_I": "220"}}, {"id": "220", "geometry": {"type": "Point", "coordinates": [-70.37765086, -23.60360807]}, "type": "Feature", "properties": {"name": "Los Leones / Irarr\u00e1zaval", "stop_I": "221"}}, {"id": "221", "geometry": {"type": "Point", "coordinates": [-70.37672282, -23.59956246]}, "type": "Feature", "properties": {"name": "Los Leones / Juvenal Morla", "stop_I": "222"}}, {"id": "222", "geometry": {"type": "Point", "coordinates": [-70.37864864, -23.59152001]}, "type": "Feature", "properties": {"name": "General Oscar Bonilla / Clodomiro Rozas", "stop_I": "223"}}, {"id": "223", "geometry": {"type": "Point", "coordinates": [-70.37901878, -23.58424895]}, "type": "Feature", "properties": {"name": "General Oscar Bonilla / Ignacio Carrera Pinto", "stop_I": "224"}}, {"id": "224", "geometry": {"type": "Point", "coordinates": [-70.37952304, -23.57812303]}, "type": "Feature", "properties": {"name": "General Oscar Bonilla / R\u00edo Lircay", "stop_I": "225"}}, {"id": "225", "geometry": {"type": "Point", "coordinates": [-70.37972689, -23.57568931]}, "type": "Feature", "properties": {"name": "General Oscar Bonilla / Arturo P\u00e9rez Canto", "stop_I": "226"}}, {"id": "226", "geometry": {"type": "Point", "coordinates": [-70.3798905, -23.57282532]}, "type": "Feature", "properties": {"name": "General Oscar Bonilla / Vladimir Saavedra Nte", "stop_I": "227"}}, {"id": "227", "geometry": {"type": "Point", "coordinates": [-70.38079441, -23.56989735]}, "type": "Feature", "properties": {"name": "Gral Oscar Bonilla / Mario Silva Iriarte", "stop_I": "228"}}, {"id": "228", "geometry": {"type": "Point", "coordinates": [-70.3826344, -23.57038904]}, "type": "Feature", "properties": {"name": "Huamachuco / F\u00e9lix Garc\u00eda", "stop_I": "229"}}, {"id": "229", "geometry": {"type": "Point", "coordinates": [-70.38214088, -23.5732162]}, "type": "Feature", "properties": {"name": "Huamachuco / Vladimir Saavedra", "stop_I": "230"}}, {"id": "230", "geometry": {"type": "Point", "coordinates": [-70.39075077, -23.57649564]}, "type": "Feature", "properties": {"name": "Arturo P\u00e9rez Canto / Pedro Aguirre Cerda", "stop_I": "231"}}, {"id": "231", "geometry": {"type": "Point", "coordinates": [-70.39080441, -23.56842228]}, "type": "Feature", "properties": {"name": "Av. Pedro Aguirre Cerda / Lomas del Sur", "stop_I": "232"}}, {"id": "232", "geometry": {"type": "Point", "coordinates": [-70.39575577, -23.55151677]}, "type": "Feature", "properties": {"name": "Oficina Francisco Puelma / Rica Aventura", "stop_I": "233"}}, {"id": "233", "geometry": {"type": "Point", "coordinates": [-70.39518714, -23.55891258]}, "type": "Feature", "properties": {"name": "Rica Aventura / Av. Ascotan", "stop_I": "234"}}, {"id": "234", "geometry": {"type": "Point", "coordinates": [-70.39031625, -23.5844161]}, "type": "Feature", "properties": {"name": "Pedro Aguirre Cerda / Los cipreses", "stop_I": "235"}}, {"id": "235", "geometry": {"type": "Point", "coordinates": [-70.38974226, -23.59493664]}, "type": "Feature", "properties": {"name": "Pedro Aguirre Cerda / Juan Gutenberg", "stop_I": "236"}}, {"id": "236", "geometry": {"type": "Point", "coordinates": [-70.39134622, -23.59851048]}, "type": "Feature", "properties": {"name": "Onix / El Yodo", "stop_I": "237"}}, {"id": "237", "geometry": {"type": "Point", "coordinates": [-70.39089561, -23.60022117]}, "type": "Feature", "properties": {"name": "El Yodo / Artesan\u00eda", "stop_I": "238"}}, {"id": "238", "geometry": {"type": "Point", "coordinates": [-70.39069176, -23.60485172]}, "type": "Feature", "properties": {"name": "Calle Iquique / Colorado", "stop_I": "239"}}, {"id": "239", "geometry": {"type": "Point", "coordinates": [-70.38859426, -23.61726786]}, "type": "Feature", "properties": {"name": "Paihuano / Ollague", "stop_I": "240"}}, {"id": "240", "geometry": {"type": "Point", "coordinates": [-70.39076149, -23.60619366]}, "type": "Feature", "properties": {"name": "Calle Iquique / Victoria", "stop_I": "241"}}, {"id": "241", "geometry": {"type": "Point", "coordinates": [-70.38870692, -23.60862191]}, "type": "Feature", "properties": {"name": "Pedro Aguirre Cerda / Los Caimanes", "stop_I": "242"}}, {"id": "242", "geometry": {"type": "Point", "coordinates": [-70.38504303, -23.61016043]}, "type": "Feature", "properties": {"name": "Azapa / Coloso", "stop_I": "243"}}, {"id": "243", "geometry": {"type": "Point", "coordinates": [-70.38286507, -23.61230842]}, "type": "Feature", "properties": {"name": "Antonio Rendic / Isabel Riquelme", "stop_I": "244"}}, {"id": "244", "geometry": {"type": "Point", "coordinates": [-70.37580013, -23.62328381]}, "type": "Feature", "properties": {"name": "Oscar Bonilla / Huasco", "stop_I": "245"}}, {"id": "245", "geometry": {"type": "Point", "coordinates": [-70.37565529, -23.62203051]}, "type": "Feature", "properties": {"name": "General Oscar Bonilla / Victor Jara", "stop_I": "246"}}, {"id": "246", "geometry": {"type": "Point", "coordinates": [-70.37561238, -23.63114247]}, "type": "Feature", "properties": {"name": "Judea / Av. Circunvalaci\u00f3n Padre Alberto Hurtado", "stop_I": "247"}}, {"id": "247", "geometry": {"type": "Point", "coordinates": [-70.3759557, -23.63355551]}, "type": "Feature", "properties": {"name": "Jerusal\u00e9n / Sicilia", "stop_I": "248"}}, {"id": "248", "geometry": {"type": "Point", "coordinates": [-70.37811756, -23.63452366]}, "type": "Feature", "properties": {"name": "Quito / Siria", "stop_I": "249"}}, {"id": "249", "geometry": {"type": "Point", "coordinates": [-70.3820765, -23.63820945]}, "type": "Feature", "properties": {"name": "Av. Circunvalaci\u00f3n Padre Alberto Hurtado / Lima", "stop_I": "250"}}, {"id": "250", "geometry": {"type": "Point", "coordinates": [-70.38285166, -23.64071327]}, "type": "Feature", "properties": {"name": "Padre Alberto Hurtado / Huanchaca", "stop_I": "251"}}, {"id": "251", "geometry": {"type": "Point", "coordinates": [-70.38499206, -23.64768392]}, "type": "Feature", "properties": {"name": "Circunvalaci\u00f3n / Tres Norte", "stop_I": "252"}}, {"id": "252", "geometry": {"type": "Point", "coordinates": [-70.38556606, -23.64956349]}, "type": "Feature", "properties": {"name": "Circunvalaci\u00f3n Padre Alberto Hurtado / Guayaquil", "stop_I": "253"}}, {"id": "253", "geometry": {"type": "Point", "coordinates": [-70.38668454, -23.65552145]}, "type": "Feature", "properties": {"name": "Circunvalaci\u00f3n Padre Alberto Hurtado / Las Brisas", "stop_I": "254"}}, {"id": "254", "geometry": {"type": "Point", "coordinates": [-70.39289117, -23.6666357]}, "type": "Feature", "properties": {"name": "Diagonal Sur", "stop_I": "255"}}, {"id": "255", "geometry": {"type": "Point", "coordinates": [-70.40055156, -23.64937922]}, "type": "Feature", "properties": {"name": "Teniente Luis Uribe / San Mart\u00edn", "stop_I": "256"}}, {"id": "256", "geometry": {"type": "Point", "coordinates": [-70.39837897, -23.64743822]}, "type": "Feature", "properties": {"name": "San Mart\u00edn / Arturo Prat", "stop_I": "257"}}, {"id": "257", "geometry": {"type": "Point", "coordinates": [-70.39738655, -23.64666672]}, "type": "Feature", "properties": {"name": "San Mart\u00edn / Sucre", "stop_I": "258"}}, {"id": "258", "geometry": {"type": "Point", "coordinates": [-70.39652019, -23.6417084]}, "type": "Feature", "properties": {"name": "7\u00ba de L\u00ednea / Nvo Extremo", "stop_I": "259"}}, {"id": "259", "geometry": {"type": "Point", "coordinates": [-70.3958416, -23.63942082]}, "type": "Feature", "properties": {"name": "S\u00e9ptimo de L\u00ednea / Procurador", "stop_I": "260"}}, {"id": "260", "geometry": {"type": "Point", "coordinates": [-70.39556265, -23.63839865]}, "type": "Feature", "properties": {"name": "S\u00e9ptimo de L\u00ednea / Jos\u00e9 Ignacio Zenteno", "stop_I": "261"}}, {"id": "261", "geometry": {"type": "Point", "coordinates": [-70.39352417, -23.63753619]}, "type": "Feature", "properties": {"name": "Calle Iquique", "stop_I": "262"}}, {"id": "262", "geometry": {"type": "Point", "coordinates": [-70.3936851, -23.63478904]}, "type": "Feature", "properties": {"name": "Calle Iquique / Quito", "stop_I": "263"}}, {"id": "263", "geometry": {"type": "Point", "coordinates": [-70.39367437, -23.62857949]}, "type": "Feature", "properties": {"name": "Arica / Tarapac\u00e1", "stop_I": "264"}}, {"id": "264", "geometry": {"type": "Point", "coordinates": [-70.38946331, -23.62922822]}, "type": "Feature", "properties": {"name": "Antonio Rendic / Colombia", "stop_I": "265"}}, {"id": "265", "geometry": {"type": "Point", "coordinates": [-70.38797468, -23.63320658]}, "type": "Feature", "properties": {"name": "Llanquihue / Venezuela", "stop_I": "266"}}, {"id": "266", "geometry": {"type": "Point", "coordinates": [-70.38777351, -23.63643291]}, "type": "Feature", "properties": {"name": "Llanquihue / Montevideo", "stop_I": "267"}}, {"id": "267", "geometry": {"type": "Point", "coordinates": [-70.38642168, -23.63954122]}, "type": "Feature", "properties": {"name": "Card Carlos Oviedo Cavada / Buenos Aires", "stop_I": "268"}}, {"id": "268", "geometry": {"type": "Point", "coordinates": [-70.38468361, -23.63099995]}, "type": "Feature", "properties": {"name": "Paraguay / Osorno", "stop_I": "269"}}, {"id": "269", "geometry": {"type": "Point", "coordinates": [-70.38089097, -23.63073456]}, "type": "Feature", "properties": {"name": "Paraguay / El Chaco", "stop_I": "270"}}, {"id": "270", "geometry": {"type": "Point", "coordinates": [-70.38444757, -23.6284984]}, "type": "Feature", "properties": {"name": "Presidente Salvador Allende / Francisco Puelma", "stop_I": "271"}}, {"id": "271", "geometry": {"type": "Point", "coordinates": [-70.38873911, -23.62826249]}, "type": "Feature", "properties": {"name": "Presidente Salvador Allende / Agust\u00edn Edwards", "stop_I": "272"}}, {"id": "272", "geometry": {"type": "Point", "coordinates": [-70.39313793, -23.6274319]}, "type": "Feature", "properties": {"name": "Presidente Salvador Allende / Tarapac\u00e1", "stop_I": "273"}}, {"id": "273", "geometry": {"type": "Point", "coordinates": [-70.39401233, -23.63074439]}, "type": "Feature", "properties": {"name": "Calle Iquique / Uruguay", "stop_I": "274"}}, {"id": "274", "geometry": {"type": "Point", "coordinates": [-70.39396405, -23.63236128]}, "type": "Feature", "properties": {"name": "Calle Iquique / M\u00e9xico", "stop_I": "275"}}, {"id": "275", "geometry": {"type": "Point", "coordinates": [-70.39579332, -23.63769345]}, "type": "Feature", "properties": {"name": "Av. Edmundo P\u00e9rez Zujovic / Zenteno", "stop_I": "276"}}, {"id": "276", "geometry": {"type": "Point", "coordinates": [-70.39593279, -23.63906454]}, "type": "Feature", "properties": {"name": "S\u00e9ptimo de L\u00ednea / Procurador", "stop_I": "277"}}, {"id": "277", "geometry": {"type": "Point", "coordinates": [-70.39676428, -23.64162486]}, "type": "Feature", "properties": {"name": "Av. S\u00e9ptimo de Linea / Nuevo Extremo", "stop_I": "278"}}, {"id": "278", "geometry": {"type": "Point", "coordinates": [-70.39708614, -23.64261752]}, "type": "Feature", "properties": {"name": "Balceda / Club de Yates", "stop_I": "279"}}, {"id": "279", "geometry": {"type": "Point", "coordinates": [-70.39836287, -23.64515811]}, "type": "Feature", "properties": {"name": "Sucre / Andr\u00f3nico Abaroa", "stop_I": "280"}}, {"id": "280", "geometry": {"type": "Point", "coordinates": [-70.40048718, -23.64761512]}, "type": "Feature", "properties": {"name": "Jorge Washington / Maip\u00fa", "stop_I": "281"}}, {"id": "281", "geometry": {"type": "Point", "coordinates": [-70.40148497, -23.64835222]}, "type": "Feature", "properties": {"name": "Jorge Washington / Teniente Uribe", "stop_I": "282"}}, {"id": "282", "geometry": {"type": "Point", "coordinates": [-70.40088952, -23.65056838]}, "type": "Feature", "properties": {"name": "Teniente Manuel Orella / Almirante Latorre", "stop_I": "283"}}, {"id": "283", "geometry": {"type": "Point", "coordinates": [-70.39928555, -23.65094675]}, "type": "Feature", "properties": {"name": "Capit\u00e1n Carlos Condell / Teniente Luis Uribe", "stop_I": "284"}}, {"id": "284", "geometry": {"type": "Point", "coordinates": [-70.39663017, -23.64883869]}, "type": "Feature", "properties": {"name": "Capit\u00e1n Carlos Condell /  Capit\u00e1n Arturo Prat", "stop_I": "285"}}, {"id": "285", "geometry": {"type": "Point", "coordinates": [-70.39423764, -23.64950698]}, "type": "Feature", "properties": {"name": "Sucre / Jos\u00e9 Santos Ossa", "stop_I": "286"}}, {"id": "286", "geometry": {"type": "Point", "coordinates": [-70.3928268, -23.65104011]}, "type": "Feature", "properties": {"name": "Sucre / Esmeralda", "stop_I": "287"}}, {"id": "287", "geometry": {"type": "Point", "coordinates": [-70.39173782, -23.65221943]}, "type": "Feature", "properties": {"name": "Sucre / Atacama", "stop_I": "288"}}, {"id": "288", "geometry": {"type": "Point", "coordinates": [-70.39303064, -23.65985032]}, "type": "Feature", "properties": {"name": "Andr\u00e9s Sabella / 21 de Mayo", "stop_I": "289"}}, {"id": "289", "geometry": {"type": "Point", "coordinates": [-70.39280534, -23.66389408]}, "type": "Feature", "properties": {"name": "Diagonal Sur / Araucan\u00eda", "stop_I": "290"}}, {"id": "290", "geometry": {"type": "Point", "coordinates": [-70.38976908, -23.66274435]}, "type": "Feature", "properties": {"name": "Circunvalaci\u00f3n Padre Alberto Hurtado / Lientur", "stop_I": "291"}}, {"id": "291", "geometry": {"type": "Point", "coordinates": [-70.38821876, -23.66010583]}, "type": "Feature", "properties": {"name": "Av. Circunvalaci\u00f3n Padre Alberto Hurtado / Maip\u00fa", "stop_I": "292"}}, {"id": "292", "geometry": {"type": "Point", "coordinates": [-70.38650215, -23.65540352]}, "type": "Feature", "properties": {"name": "Av. Padre Alberto Hurtado / Las Brisas", "stop_I": "293"}}, {"id": "293", "geometry": {"type": "Point", "coordinates": [-70.38640827, -23.65385325]}, "type": "Feature", "properties": {"name": "Circunvalaci\u00f3n Padre Alberto Hurtado / Los Placeres", "stop_I": "294"}}, {"id": "294", "geometry": {"type": "Point", "coordinates": [-70.37670135, -23.63516745]}, "type": "Feature", "properties": {"name": "Jerusal\u00e9n / Uno Oriente", "stop_I": "295"}}, {"id": "295", "geometry": {"type": "Point", "coordinates": [-70.37686229, -23.62802167]}, "type": "Feature", "properties": {"name": "General Oscar Bonilla / Zeggers", "stop_I": "296"}}, {"id": "296", "geometry": {"type": "Point", "coordinates": [-70.37624002, -23.62672418]}, "type": "Feature", "properties": {"name": "General Oscar Bonilla / Centenario", "stop_I": "297"}}, {"id": "297", "geometry": {"type": "Point", "coordinates": [-70.3818351, -23.61345368]}, "type": "Feature", "properties": {"name": "Rancagua / Plumerillo", "stop_I": "298"}}, {"id": "298", "geometry": {"type": "Point", "coordinates": [-70.38374484, -23.61084858]}, "type": "Feature", "properties": {"name": "Antonio Rendic / San  Miguel", "stop_I": "299"}}, {"id": "299", "geometry": {"type": "Point", "coordinates": [-70.38329959, -23.61045535]}, "type": "Feature", "properties": {"name": "San Miguel / Las Delicias", "stop_I": "300"}}, {"id": "300", "geometry": {"type": "Point", "coordinates": [-70.38209796, -23.6113696]}, "type": "Feature", "properties": {"name": "Las Delicias / Portugal", "stop_I": "301"}}, {"id": "301", "geometry": {"type": "Point", "coordinates": [-70.38193166, -23.61194961]}, "type": "Feature", "properties": {"name": "Isabel Riquelme / Patria Vieja", "stop_I": "302"}}, {"id": "302", "geometry": {"type": "Point", "coordinates": [-70.38965106, -23.59098907]}, "type": "Feature", "properties": {"name": "Pedro Aguirre Cerda / Los Jacarandaes", "stop_I": "303"}}, {"id": "303", "geometry": {"type": "Point", "coordinates": [-70.39062738, -23.57899326]}, "type": "Feature", "properties": {"name": "Pedro Aguirre Cerda / R\u00edo de Los Cipreses", "stop_I": "304"}}, {"id": "304", "geometry": {"type": "Point", "coordinates": [-70.39083391, -23.56915982]}, "type": "Feature", "properties": {"name": "Pedro Aguirre Cerda / Lidea Moreno", "stop_I": "305"}}, {"id": "305", "geometry": {"type": "Point", "coordinates": [-70.39539099, -23.55511146]}, "type": "Feature", "properties": {"name": "Rica Aventura / Oficina Anita", "stop_I": "306"}}, {"id": "306", "geometry": {"type": "Point", "coordinates": [-70.3914696, -23.55220031]}, "type": "Feature", "properties": {"name": "Pedro Aguirre Cerda / La Coipa", "stop_I": "307"}}, {"id": "307", "geometry": {"type": "Point", "coordinates": [-70.38264513, -23.56710453]}, "type": "Feature", "properties": {"name": "Pablo Neruda / Los \u00d3xidos (Terminal 104)", "stop_I": "308"}}, {"id": "308", "geometry": {"type": "Point", "coordinates": [-70.37723243, -23.59714388]}, "type": "Feature", "properties": {"name": "Mateo de Toro y Zambrano / Los Leones", "stop_I": "309"}}, {"id": "309", "geometry": {"type": "Point", "coordinates": [-70.37780106, -23.60735372]}, "type": "Feature", "properties": {"name": "Av. Los Leones / San Crist\u00f3bal", "stop_I": "310"}}, {"id": "310", "geometry": {"type": "Point", "coordinates": [-70.38126647, -23.62457642]}, "type": "Feature", "properties": {"name": "Pto Natales / Pe\u00f1uela", "stop_I": "311"}}, {"id": "311", "geometry": {"type": "Point", "coordinates": [-70.38143277, -23.63188457]}, "type": "Feature", "properties": {"name": "M\u00e9xico / Paniri", "stop_I": "312"}}, {"id": "312", "geometry": {"type": "Point", "coordinates": [-70.38608909, -23.63212047]}, "type": "Feature", "properties": {"name": "M\u00e9xico / Bolivia", "stop_I": "313"}}, {"id": "313", "geometry": {"type": "Point", "coordinates": [-70.39378166, -23.64791979]}, "type": "Feature", "properties": {"name": "Manuel Antonio Matta / Sim\u00f3n Bol\u00edvar", "stop_I": "314"}}, {"id": "314", "geometry": {"type": "Point", "coordinates": [-70.39442003, -23.64775271]}, "type": "Feature", "properties": {"name": "Sim\u00f3n Bol\u00edvar / Carlos Condell", "stop_I": "315"}}, {"id": "315", "geometry": {"type": "Point", "coordinates": [-70.39594889, -23.64688785]}, "type": "Feature", "properties": {"name": "Almirante Juan Jos\u00e9 Latorre / Sucre", "stop_I": "316"}}, {"id": "316", "geometry": {"type": "Point", "coordinates": [-70.39690375, -23.64760038]}, "type": "Feature", "properties": {"name": "Almirante Juan Jos\u00e9 Latorre / Arturo Prat", "stop_I": "317"}}, {"id": "317", "geometry": {"type": "Point", "coordinates": [-70.39843798, -23.64892714]}, "type": "Feature", "properties": {"name": "Almirante Juan Jos\u00e9 Latorre / Maip\u00fa", "stop_I": "318"}}, {"id": "318", "geometry": {"type": "Point", "coordinates": [-70.4005301, -23.65440113]}, "type": "Feature", "properties": {"name": "Copiap\u00f3 / Jos\u00e9 Santos Ossa", "stop_I": "319"}}, {"id": "319", "geometry": {"type": "Point", "coordinates": [-70.39673746, -23.66182063]}, "type": "Feature", "properties": {"name": "Argentina / Antonio Poup\u00edn", "stop_I": "320"}}, {"id": "320", "geometry": {"type": "Point", "coordinates": [-70.39745092, -23.66339291]}, "type": "Feature", "properties": {"name": "Argentina / Avelino Contardo", "stop_I": "321"}}, {"id": "321", "geometry": {"type": "Point", "coordinates": [-70.39828241, -23.66473426]}, "type": "Feature", "properties": {"name": "Argentina / D\u00edaz Gana", "stop_I": "322"}}, {"id": "322", "geometry": {"type": "Point", "coordinates": [-70.40159225, -23.6732979]}, "type": "Feature", "properties": {"name": "Argentina / Homero \u00c1vila", "stop_I": "323"}}, {"id": "323", "geometry": {"type": "Point", "coordinates": [-70.43645024, -23.72462867]}, "type": "Feature", "properties": {"name": "Av. Jaime Guzm\u00e1n Err\u00e1zuriz / Punta del Sur", "stop_I": "324"}}, {"id": "324", "geometry": {"type": "Point", "coordinates": [-70.44152498, -23.73777985]}, "type": "Feature", "properties": {"name": "Av. Jaime Guzm\u00e1n Err\u00e1zuriz", "stop_I": "325"}}, {"id": "325", "geometry": {"type": "Point", "coordinates": [-70.43330132, -23.71405962]}, "type": "Feature", "properties": {"name": "Av. Jaime Guzm\u00e1n Err\u00e1zuriz / Av. Agust\u00edn Sams\u00f3 Sivori", "stop_I": "326"}}, {"id": "326", "geometry": {"type": "Point", "coordinates": [-70.42447686, -23.70659398]}, "type": "Feature", "properties": {"name": "Traves\u00eda de Coloso / Subida del Desierto", "stop_I": "327"}}, {"id": "327", "geometry": {"type": "Point", "coordinates": [-70.42145133, -23.69539471]}, "type": "Feature", "properties": {"name": "Avenida Ej\u00e9rcito / Avenida Cerro Paranal", "stop_I": "328"}}, {"id": "328", "geometry": {"type": "Point", "coordinates": [-70.41217625, -23.68303019]}, "type": "Feature", "properties": {"name": "Angamos / Victor Domingo Silva", "stop_I": "329"}}, {"id": "329", "geometry": {"type": "Point", "coordinates": [-70.40866256, -23.67707103]}, "type": "Feature", "properties": {"name": "Angamos / Mariano Latorre", "stop_I": "330"}}, {"id": "330", "geometry": {"type": "Point", "coordinates": [-70.40277243, -23.67311121]}, "type": "Feature", "properties": {"name": "Eduardo Orchard / Temuco", "stop_I": "331"}}, {"id": "331", "geometry": {"type": "Point", "coordinates": [-70.39505839, -23.66463108]}, "type": "Feature", "properties": {"name": "Manuel Rodr\u00edguez / Avelino Contardo", "stop_I": "332"}}, {"id": "332", "geometry": {"type": "Point", "coordinates": [-70.39380312, -23.66021884]}, "type": "Feature", "properties": {"name": "Manuel Rodr\u00edguez / 21 de Mayo", "stop_I": "333"}}, {"id": "333", "geometry": {"type": "Point", "coordinates": [-70.39454341, -23.65913786]}, "type": "Feature", "properties": {"name": "Veintiuno de Mayo / Saavedra", "stop_I": "334"}}, {"id": "334", "geometry": {"type": "Point", "coordinates": [-70.39372802, -23.65666142]}, "type": "Feature", "properties": {"name": "Linares / Teniente Luis Uribe", "stop_I": "335"}}, {"id": "335", "geometry": {"type": "Point", "coordinates": [-70.391078, -23.64826376]}, "type": "Feature", "properties": {"name": "Catorce de Febrero / Tte. Ernesto Riquelme", "stop_I": "336"}}, {"id": "336", "geometry": {"type": "Point", "coordinates": [-70.3888464, -23.64597384]}, "type": "Feature", "properties": {"name": "Andr\u00e9s Sabella", "stop_I": "337"}}, {"id": "337", "geometry": {"type": "Point", "coordinates": [-70.38655043, -23.63671057]}, "type": "Feature", "properties": {"name": "Card Carlos Oviedo Cavada / Montevideo", "stop_I": "338"}}, {"id": "338", "geometry": {"type": "Point", "coordinates": [-70.38689375, -23.63139803]}, "type": "Feature", "properties": {"name": "Card Carlos Oviedo Cavada / Paraguay", "stop_I": "339"}}, {"id": "339", "geometry": {"type": "Point", "coordinates": [-70.37895441, -23.62100329]}, "type": "Feature", "properties": {"name": "Pto Natales / Victor Jara", "stop_I": "340"}}, {"id": "340", "geometry": {"type": "Point", "coordinates": [-70.37705541, -23.60160248]}, "type": "Feature", "properties": {"name": "Los Leones / Pantale\u00f3n Cort\u00e9s", "stop_I": "341"}}, {"id": "341", "geometry": {"type": "Point", "coordinates": [-70.37505984, -23.60145502]}, "type": "Feature", "properties": {"name": "Luis Cruz Mart\u00ednez / Pantale\u00f3n Cort\u00e9s", "stop_I": "342"}}, {"id": "342", "geometry": {"type": "Point", "coordinates": [-70.37470579, -23.59698657]}, "type": "Feature", "properties": {"name": "Luis Cruz Mart\u00ednez / Mateo Toro y Zambrano", "stop_I": "343"}}, {"id": "343", "geometry": {"type": "Point", "coordinates": [-70.37854135, -23.59287684]}, "type": "Feature", "properties": {"name": "General Oscar Bonilla / Nicol\u00e1s Tirado", "stop_I": "344"}}, {"id": "344", "geometry": {"type": "Point", "coordinates": [-70.37873447, -23.58929793]}, "type": "Feature", "properties": {"name": "General Oscar Bonilla / Sargento Manuel Silva", "stop_I": "345"}}, {"id": "345", "geometry": {"type": "Point", "coordinates": [-70.38145959, -23.58215456]}, "type": "Feature", "properties": {"name": "Huamachuco / Julio Montt Salamanca", "stop_I": "346"}}, {"id": "346", "geometry": {"type": "Point", "coordinates": [-70.37801564, -23.57835903]}, "type": "Feature", "properties": {"name": "Gabriel Silva / R\u00edo Maule", "stop_I": "347"}}, {"id": "347", "geometry": {"type": "Point", "coordinates": [-70.38148642, -23.57571881]}, "type": "Feature", "properties": {"name": "Arturo P\u00e9rez Canto / Huamachuco", "stop_I": "348"}}, {"id": "348", "geometry": {"type": "Point", "coordinates": [-70.39706469, -23.52331149]}, "type": "Feature", "properties": {"name": "Caletera Pedro Aguirre Cerda / Autopista Antofagasta", "stop_I": "349"}}, {"id": "349", "geometry": {"type": "Point", "coordinates": [-70.39315939, -23.53160403]}, "type": "Feature", "properties": {"name": "Caletera Pedro Aguirre Cerda / Terminal L\u00ednea 109", "stop_I": "350"}}, {"id": "350", "geometry": {"type": "Point", "coordinates": [-70.39179683, -23.54651059]}, "type": "Feature", "properties": {"name": "Pedro Aguirre Cerda / Quebrada La Chimba Norte", "stop_I": "351"}}, {"id": "351", "geometry": {"type": "Point", "coordinates": [-70.39135695, -23.55502786]}, "type": "Feature", "properties": {"name": "Pedro Aguirre Cerda / Oficina Anita", "stop_I": "352"}}, {"id": "352", "geometry": {"type": "Point", "coordinates": [-70.39113164, -23.56193176]}, "type": "Feature", "properties": {"name": "Pedro Aguirre Cerda / Oficina Petronila", "stop_I": "353"}}, {"id": "353", "geometry": {"type": "Point", "coordinates": [-70.39083123, -23.5698531]}, "type": "Feature", "properties": {"name": "Pedro Aguirre Cerda / Mario Silva", "stop_I": "354"}}, {"id": "354", "geometry": {"type": "Point", "coordinates": [-70.37946403, -23.56692752]}, "type": "Feature", "properties": {"name": "Pablo Neruda / Los Chugungos", "stop_I": "355"}}, {"id": "355", "geometry": {"type": "Point", "coordinates": [-70.37819266, -23.56821577]}, "type": "Feature", "properties": {"name": "Hilda Cruz Colina / Mario Silva", "stop_I": "356"}}, {"id": "356", "geometry": {"type": "Point", "coordinates": [-70.37651896, -23.56838294]}, "type": "Feature", "properties": {"name": "Suspiro", "stop_I": "357"}}, {"id": "357", "geometry": {"type": "Point", "coordinates": [-70.37711978, -23.57065455]}, "type": "Feature", "properties": {"name": "Hilda Cruz Colina / Nva Vida", "stop_I": "358"}}, {"id": "358", "geometry": {"type": "Point", "coordinates": [-70.37693739, -23.57222793]}, "type": "Feature", "properties": {"name": "Vladimir Saavedra / Los Chungungos", "stop_I": "359"}}, {"id": "359", "geometry": {"type": "Point", "coordinates": [-70.37534416, -23.57577289]}, "type": "Feature", "properties": {"name": "Los Pumas / Luis Hern\u00e1ndez Parker", "stop_I": "360"}}, {"id": "360", "geometry": {"type": "Point", "coordinates": [-70.37540853, -23.57780837]}, "type": "Feature", "properties": {"name": "Gabriel Silva", "stop_I": "361"}}, {"id": "361", "geometry": {"type": "Point", "coordinates": [-70.37729681, -23.57534023]}, "type": "Feature", "properties": {"name": "Arturo P\u00e9rez Canto / Esperanza", "stop_I": "362"}}, {"id": "362", "geometry": {"type": "Point", "coordinates": [-70.37964106, -23.57553689]}, "type": "Feature", "properties": {"name": "Arturo P\u00e9rez Canto / Av. General Bonilla", "stop_I": "363"}}, {"id": "363", "geometry": {"type": "Point", "coordinates": [-70.37948549, -23.57866386]}, "type": "Feature", "properties": {"name": "General Oscar Bonilla / Stgo. Gabriel Silva", "stop_I": "364"}}, {"id": "364", "geometry": {"type": "Point", "coordinates": [-70.37852526, -23.59884475]}, "type": "Feature", "properties": {"name": "General Oscar Bonilla / Juvenal Morla", "stop_I": "365"}}, {"id": "365", "geometry": {"type": "Point", "coordinates": [-70.37864327, -23.60119448]}, "type": "Feature", "properties": {"name": "General Oscar Bonilla / Pantale\u00f3n Cort\u00e9s", "stop_I": "366"}}, {"id": "366", "geometry": {"type": "Point", "coordinates": [-70.37988782, -23.60346552]}, "type": "Feature", "properties": {"name": "General Oscar Bonilla / Irarr\u00e1zabal", "stop_I": "367"}}, {"id": "367", "geometry": {"type": "Point", "coordinates": [-70.37980199, -23.60581517]}, "type": "Feature", "properties": {"name": "General Oscar Bonilla / Merced", "stop_I": "368"}}, {"id": "368", "geometry": {"type": "Point", "coordinates": [-70.37957668, -23.6083024]}, "type": "Feature", "properties": {"name": "General Oscar Bonilla / San Miguel", "stop_I": "369"}}, {"id": "369", "geometry": {"type": "Point", "coordinates": [-70.37938356, -23.61033738]}, "type": "Feature", "properties": {"name": "General Oscar Bonilla / Isabel Riquelme", "stop_I": "370"}}, {"id": "370", "geometry": {"type": "Point", "coordinates": [-70.38210869, -23.61439741]}, "type": "Feature", "properties": {"name": "Av. Antonio Rendic / Independencia", "stop_I": "371"}}, {"id": "371", "geometry": {"type": "Point", "coordinates": [-70.38347661, -23.61710566]}, "type": "Feature", "properties": {"name": "Antonio Rendic / Vicu\u00f1a", "stop_I": "372"}}, {"id": "372", "geometry": {"type": "Point", "coordinates": [-70.38528442, -23.61995148]}, "type": "Feature", "properties": {"name": "Antonio Rendic / Elqui", "stop_I": "373"}}, {"id": "373", "geometry": {"type": "Point", "coordinates": [-70.38642704, -23.6218634]}, "type": "Feature", "properties": {"name": "Antonio Rendic / Pe\u00f1uelas", "stop_I": "374"}}, {"id": "374", "geometry": {"type": "Point", "coordinates": [-70.3870225, -23.62279724]}, "type": "Feature", "properties": {"name": "Antonio Rendic / Pisagua", "stop_I": "375"}}, {"id": "375", "geometry": {"type": "Point", "coordinates": [-70.39476335, -23.65407191]}, "type": "Feature", "properties": {"name": "Argentina / Maip\u00fa", "stop_I": "376"}}, {"id": "376", "geometry": {"type": "Point", "coordinates": [-70.39554656, -23.65580645]}, "type": "Feature", "properties": {"name": "Argentina / Orella", "stop_I": "377"}}, {"id": "377", "geometry": {"type": "Point", "coordinates": [-70.39612591, -23.65718718]}, "type": "Feature", "properties": {"name": "Argentina / 21 de Mayo", "stop_I": "378"}}, {"id": "378", "geometry": {"type": "Point", "coordinates": [-70.39899588, -23.6680114]}, "type": "Feature", "properties": {"name": "Argentina / General Jos\u00e9 Manuel Borgo\u00f1o", "stop_I": "379"}}, {"id": "379", "geometry": {"type": "Point", "coordinates": [-70.40071249, -23.67215808]}, "type": "Feature", "properties": {"name": "Argentina / Concepci\u00f3n", "stop_I": "380"}}, {"id": "380", "geometry": {"type": "Point", "coordinates": [-70.40418863, -23.67616215]}, "type": "Feature", "properties": {"name": "Argentina", "stop_I": "381"}}, {"id": "381", "geometry": {"type": "Point", "coordinates": [-70.40624857, -23.67897721]}, "type": "Feature", "properties": {"name": "Argentina / Luis Mancilla", "stop_I": "382"}}, {"id": "382", "geometry": {"type": "Point", "coordinates": [-70.4096818, -23.68325126]}, "type": "Feature", "properties": {"name": "Argentina", "stop_I": "383"}}, {"id": "383", "geometry": {"type": "Point", "coordinates": [-70.41006267, -23.68641004]}, "type": "Feature", "properties": {"name": "Argentina / Colihue", "stop_I": "384"}}, {"id": "384", "geometry": {"type": "Point", "coordinates": [-70.41019142, -23.69014841]}, "type": "Feature", "properties": {"name": "Argentina / M\u00e1fil", "stop_I": "385"}}, {"id": "385", "geometry": {"type": "Point", "coordinates": [-70.41021824, -23.6926586]}, "type": "Feature", "properties": {"name": "Av Argentina / Collico", "stop_I": "386"}}, {"id": "386", "geometry": {"type": "Point", "coordinates": [-70.41042209, -23.69585645]}, "type": "Feature", "properties": {"name": "Argentina / Santa Magdalena", "stop_I": "387"}}, {"id": "387", "geometry": {"type": "Point", "coordinates": [-70.4073751, -23.6970894]}, "type": "Feature", "properties": {"name": "Santa Guillermina / Santa B\u00e1rbara", "stop_I": "388"}}, {"id": "388", "geometry": {"type": "Point", "coordinates": [-70.4087162, -23.69917212]}, "type": "Feature", "properties": {"name": "Acceso Sur Antofagasta", "stop_I": "389"}}, {"id": "389", "geometry": {"type": "Point", "coordinates": [-70.41344762, -23.69980577]}, "type": "Feature", "properties": {"name": "Ruta 28 Acceso Sur Antofagasta", "stop_I": "390"}}, {"id": "390", "geometry": {"type": "Point", "coordinates": [-70.41741729, -23.69886266]}, "type": "Feature", "properties": {"name": "Avenida de la Miner\u00eda / Campo Deportivo Minera Escondida", "stop_I": "391"}}, {"id": "391", "geometry": {"type": "Point", "coordinates": [-70.42977691, -23.70880425]}, "type": "Feature", "properties": {"name": "Avenidfa Jaime Guzm\u00e1n / Subida Sur", "stop_I": "392"}}, {"id": "392", "geometry": {"type": "Point", "coordinates": [-70.42299628, -23.70076851]}, "type": "Feature", "properties": {"name": "Universidad de Chile / Universidad de Antofagasta", "stop_I": "393"}}, {"id": "393", "geometry": {"type": "Point", "coordinates": [-70.41724563, -23.69906896]}, "type": "Feature", "properties": {"name": "Avenida de la Miner\u00eda / Campo Deportivo Minera Escondida", "stop_I": "394"}}, {"id": "394", "geometry": {"type": "Point", "coordinates": [-70.40852308, -23.69925562]}, "type": "Feature", "properties": {"name": "Acceso Sur Antofagasta / Santa Guillermina", "stop_I": "395"}}, {"id": "395", "geometry": {"type": "Point", "coordinates": [-70.4074502, -23.69707957]}, "type": "Feature", "properties": {"name": "Santa Guillermina / Santa Mariana", "stop_I": "396"}}, {"id": "396", "geometry": {"type": "Point", "coordinates": [-70.40918291, -23.69591049]}, "type": "Feature", "properties": {"name": "Cau Cau / Santa Magdalena", "stop_I": "397"}}, {"id": "397", "geometry": {"type": "Point", "coordinates": [-70.41005731, -23.6927372]}, "type": "Feature", "properties": {"name": "Argentina / Collico", "stop_I": "398"}}, {"id": "398", "geometry": {"type": "Point", "coordinates": [-70.41001439, -23.68957857]}, "type": "Feature", "properties": {"name": "Argentina / Huape", "stop_I": "399"}}, {"id": "399", "geometry": {"type": "Point", "coordinates": [-70.40995002, -23.68742202]}, "type": "Feature", "properties": {"name": "Argentina / Vilc\u00fan", "stop_I": "400"}}, {"id": "400", "geometry": {"type": "Point", "coordinates": [-70.40974617, -23.68553561]}, "type": "Feature", "properties": {"name": "Avenida Argentina / Trumao", "stop_I": "401"}}, {"id": "401", "geometry": {"type": "Point", "coordinates": [-70.40908098, -23.68235716]}, "type": "Feature", "properties": {"name": "Avenida Argentina / Altos del Mar", "stop_I": "402"}}, {"id": "402", "geometry": {"type": "Point", "coordinates": [-70.40635586, -23.6794734]}, "type": "Feature", "properties": {"name": "Argentina / Carlos Pezoa V\u00e9liz", "stop_I": "403"}}, {"id": "403", "geometry": {"type": "Point", "coordinates": [-70.40513813, -23.67769005]}, "type": "Feature", "properties": {"name": "Argentina / Augusto Dhalmar", "stop_I": "404"}}, {"id": "404", "geometry": {"type": "Point", "coordinates": [-70.40199459, -23.67393168]}, "type": "Feature", "properties": {"name": "Argentina / Homero \u00c1vila", "stop_I": "405"}}, {"id": "405", "geometry": {"type": "Point", "coordinates": [-70.40075004, -23.67248234]}, "type": "Feature", "properties": {"name": "Avenida Argentina / Concepci\u00f3n", "stop_I": "406"}}, {"id": "406", "geometry": {"type": "Point", "coordinates": [-70.39961278, -23.67024689]}, "type": "Feature", "properties": {"name": "Avenida Argentina / Chill\u00e1n", "stop_I": "407"}}, {"id": "407", "geometry": {"type": "Point", "coordinates": [-70.39899051, -23.66860099]}, "type": "Feature", "properties": {"name": "Argentina / General Jos\u00e9 Manuel Borgo\u00f1o", "stop_I": "408"}}, {"id": "408", "geometry": {"type": "Point", "coordinates": [-70.39889932, -23.66696489]}, "type": "Feature", "properties": {"name": "Argentina / Playa Blanca", "stop_I": "409"}}, {"id": "409", "geometry": {"type": "Point", "coordinates": [-70.3983146, -23.66501432]}, "type": "Feature", "properties": {"name": "Argentina / D\u00edaz Gana", "stop_I": "410"}}, {"id": "410", "geometry": {"type": "Point", "coordinates": [-70.3962332, -23.65957517]}, "type": "Feature", "properties": {"name": "Argentina / Salvador Reyes", "stop_I": "411"}}, {"id": "411", "geometry": {"type": "Point", "coordinates": [-70.39687157, -23.6518902]}, "type": "Feature", "properties": {"name": "Jos\u00e9 Santos Ossa / Maip\u00fa", "stop_I": "412"}}, {"id": "412", "geometry": {"type": "Point", "coordinates": [-70.39390504, -23.64943819]}, "type": "Feature", "properties": {"name": "Jos\u00e9 Santos Ossa / Sim\u00f3n Bol\u00edvar", "stop_I": "413"}}, {"id": "413", "geometry": {"type": "Point", "coordinates": [-70.39609373, -23.6459247]}, "type": "Feature", "properties": {"name": "Simon Bol\u00edvar / Jos\u00e9 de San Mart\u00edn", "stop_I": "414"}}, {"id": "414", "geometry": {"type": "Point", "coordinates": [-70.39393187, -23.63116704]}, "type": "Feature", "properties": {"name": "Calle Iquique / Uruguay", "stop_I": "415"}}, {"id": "415", "geometry": {"type": "Point", "coordinates": [-70.39398551, -23.62983027]}, "type": "Feature", "properties": {"name": "Iquique / Tacna", "stop_I": "416"}}, {"id": "416", "geometry": {"type": "Point", "coordinates": [-70.38971007, -23.62827723]}, "type": "Feature", "properties": {"name": "Presidente Salvador Allende / Av Antonio Rendic", "stop_I": "417"}}, {"id": "417", "geometry": {"type": "Point", "coordinates": [-70.38704395, -23.62308722]}, "type": "Feature", "properties": {"name": "Antonio Rendic / Pisagua", "stop_I": "418"}}, {"id": "418", "geometry": {"type": "Point", "coordinates": [-70.38528442, -23.62026113]}, "type": "Feature", "properties": {"name": "Antonio Rendic / Elqui", "stop_I": "419"}}, {"id": "419", "geometry": {"type": "Point", "coordinates": [-70.38302064, -23.61668788]}, "type": "Feature", "properties": {"name": "Antonio Rendic / Montegrande", "stop_I": "420"}}, {"id": "420", "geometry": {"type": "Point", "coordinates": [-70.38203895, -23.61495774]}, "type": "Feature", "properties": {"name": "Antonio Rendic / Independencia", "stop_I": "421"}}, {"id": "421", "geometry": {"type": "Point", "coordinates": [-70.37925482, -23.60826799]}, "type": "Feature", "properties": {"name": "General Oscar Bonilla / San Miguel", "stop_I": "422"}}, {"id": "422", "geometry": {"type": "Point", "coordinates": [-70.37964106, -23.60490087]}, "type": "Feature", "properties": {"name": "General Oscar Bonilla / Agustinas", "stop_I": "423"}}, {"id": "423", "geometry": {"type": "Point", "coordinates": [-70.37853599, -23.60157791]}, "type": "Feature", "properties": {"name": "General Oscar Bonilla / Pantale\u00f3n Cort\u00e9s", "stop_I": "424"}}, {"id": "424", "geometry": {"type": "Point", "coordinates": [-70.37840724, -23.59970993]}, "type": "Feature", "properties": {"name": "General Oscar Bonilla / Juvenal Morla", "stop_I": "425"}}, {"id": "425", "geometry": {"type": "Point", "coordinates": [-70.37852526, -23.59503004]}, "type": "Feature", "properties": {"name": "General Oscar Bonilla / Leonardo DaVinci", "stop_I": "426"}}, {"id": "426", "geometry": {"type": "Point", "coordinates": [-70.37879884, -23.58670217]}, "type": "Feature", "properties": {"name": "General Oscar Bonilla / Juan Bol\u00edvar", "stop_I": "427"}}, {"id": "427", "geometry": {"type": "Point", "coordinates": [-70.37921727, -23.58199724]}, "type": "Feature", "properties": {"name": "General Oscar Bonilla / Julio Montt Salamanca", "stop_I": "428"}}, {"id": "428", "geometry": {"type": "Point", "coordinates": [-70.3766048, -23.57613181]}, "type": "Feature", "properties": {"name": "Samuel Bonados Morris / Luis Hern\u00e1ndez Parker", "stop_I": "429"}}, {"id": "429", "geometry": {"type": "Point", "coordinates": [-70.37524223, -23.57538939]}, "type": "Feature", "properties": {"name": "Los Chungungos / Arturo P\u00e9rez Canto", "stop_I": "430"}}, {"id": "430", "geometry": {"type": "Point", "coordinates": [-70.37726462, -23.57271469]}, "type": "Feature", "properties": {"name": "Los Pumas / Vladimir Saavedra", "stop_I": "431"}}, {"id": "431", "geometry": {"type": "Point", "coordinates": [-70.37686765, -23.57098398]}, "type": "Feature", "properties": {"name": "Hilda Cruz Colina / Nva Vida", "stop_I": "432"}}, {"id": "432", "geometry": {"type": "Point", "coordinates": [-70.37583232, -23.56931224]}, "type": "Feature", "properties": {"name": "Cosca / Farolito", "stop_I": "433"}}, {"id": "433", "geometry": {"type": "Point", "coordinates": [-70.38285971, -23.56869763]}, "type": "Feature", "properties": {"name": "Huamachuco / Mario Silva", "stop_I": "434"}}, {"id": "434", "geometry": {"type": "Point", "coordinates": [-70.38409888, -23.56333314]}, "type": "Feature", "properties": {"name": "Heroes de La Concepci\u00f3n (Terminal 110) /  Caparrosa", "stop_I": "435"}}, {"id": "435", "geometry": {"type": "Point", "coordinates": [-70.37758648, -23.58402279]}, "type": "Feature", "properties": {"name": "Ignacio Carrera Pinto / Detective Luis Carrasco", "stop_I": "436"}}, {"id": "436", "geometry": {"type": "Point", "coordinates": [-70.37591279, -23.58626954]}, "type": "Feature", "properties": {"name": "Cerro Pedregal / Juan Bol\u00edvar", "stop_I": "437"}}, {"id": "437", "geometry": {"type": "Point", "coordinates": [-70.38431346, -23.61017026]}, "type": "Feature", "properties": {"name": "Antonio Rendic / San Miguel", "stop_I": "438"}}, {"id": "438", "geometry": {"type": "Point", "coordinates": [-70.38431883, -23.61813292]}, "type": "Feature", "properties": {"name": "Paihuano / Antonio Rendic", "stop_I": "439"}}, {"id": "439", "geometry": {"type": "Point", "coordinates": [-70.38805782, -23.63212047]}, "type": "Feature", "properties": {"name": "Llanquihue / M\u00e9xico", "stop_I": "440"}}, {"id": "440", "geometry": {"type": "Point", "coordinates": [-70.39961815, -23.66052347]}, "type": "Feature", "properties": {"name": "General Vel\u00e1squez / Eduardo Orchard", "stop_I": "441"}}, {"id": "441", "geometry": {"type": "Point", "coordinates": [-70.39723635, -23.66058735]}, "type": "Feature", "properties": {"name": "General Vel\u00e1squez / Av. Argentina", "stop_I": "442"}}, {"id": "442", "geometry": {"type": "Point", "coordinates": [-70.40367901, -23.66633108]}, "type": "Feature", "properties": {"name": "Angamos / General Jos\u00e9 Manuel Borgo\u00f1o", "stop_I": "443"}}, {"id": "443", "geometry": {"type": "Point", "coordinates": [-70.3987062, -23.6590052]}, "type": "Feature", "properties": {"name": "Salvador Reyes / Eduardo Orchard", "stop_I": "444"}}, {"id": "444", "geometry": {"type": "Point", "coordinates": [-70.40033698, -23.65469595]}, "type": "Feature", "properties": {"name": "Jos\u00e9 Santos Ossa / Copiapo", "stop_I": "445"}}, {"id": "445", "geometry": {"type": "Point", "coordinates": [-70.38666844, -23.63445486]}, "type": "Feature", "properties": {"name": "Card Carlos Oviedo Cavada / Quito", "stop_I": "446"}}, {"id": "446", "geometry": {"type": "Point", "coordinates": [-70.38698494, -23.62868024]}, "type": "Feature", "properties": {"name": "Card Carlos Oviedo Cavada / Avenida Salvador Allende", "stop_I": "447"}}, {"id": "447", "geometry": {"type": "Point", "coordinates": [-70.38442075, -23.62315111]}, "type": "Feature", "properties": {"name": "Card Carlos Oviedo Cavada / Pe\u00f1uela", "stop_I": "448"}}, {"id": "448", "geometry": {"type": "Point", "coordinates": [-70.38695812, -23.62727463]}, "type": "Feature", "properties": {"name": "Card Carlos Oviedo Cavada / Magallanes", "stop_I": "449"}}, {"id": "449", "geometry": {"type": "Point", "coordinates": [-70.38266122, -23.62040858]}, "type": "Feature", "properties": {"name": "Card Carlos Oviedo Cavada / Huasco", "stop_I": "450"}}, {"id": "450", "geometry": {"type": "Point", "coordinates": [-70.38425982, -23.61003754]}, "type": "Feature", "properties": {"name": "Antonio Rendic / Vitacura", "stop_I": "451"}}, {"id": "451", "geometry": {"type": "Point", "coordinates": [-70.38571894, -23.60786984]}, "type": "Feature", "properties": {"name": "Antonio Rendic / Ongolmo", "stop_I": "452"}}, {"id": "452", "geometry": {"type": "Point", "coordinates": [-70.37596107, -23.58671692]}, "type": "Feature", "properties": {"name": "Cerro Pedregal / Juan Bol\u00edvar", "stop_I": "453"}}, {"id": "453", "geometry": {"type": "Point", "coordinates": [-70.3769964, -23.57262128]}, "type": "Feature", "properties": {"name": "Los Chungungos / Vladimir Saavedra", "stop_I": "454"}}, {"id": "454", "geometry": {"type": "Point", "coordinates": [-70.38909315, -23.54195173]}, "type": "Feature", "properties": {"name": "Los Topacios /  Sierra Nevada (Terminal 111)", "stop_I": "455"}}, {"id": "455", "geometry": {"type": "Point", "coordinates": [-70.40057838, -23.55676862]}, "type": "Feature", "properties": {"name": "Benito Ocampo", "stop_I": "456"}}, {"id": "456", "geometry": {"type": "Point", "coordinates": [-70.39132476, -23.5652754]}, "type": "Feature", "properties": {"name": "Santiago Humberstone / Pedro Aguirre Cerda", "stop_I": "457"}}, {"id": "457", "geometry": {"type": "Point", "coordinates": [-70.38871765, -23.56507873]}, "type": "Feature", "properties": {"name": "Caparrossa / Sierra Nevada", "stop_I": "458"}}, {"id": "458", "geometry": {"type": "Point", "coordinates": [-70.38194239, -23.57648581]}, "type": "Feature", "properties": {"name": "Huamachuco / R\u00edo Lontu\u00e9", "stop_I": "459"}}, {"id": "459", "geometry": {"type": "Point", "coordinates": [-70.38128257, -23.58372781]}, "type": "Feature", "properties": {"name": "Huamachuco / El Abra", "stop_I": "460"}}, {"id": "460", "geometry": {"type": "Point", "coordinates": [-70.37939429, -23.58157442]}, "type": "Feature", "properties": {"name": "Julio Montt Salamanca / Avenida General Bonilla", "stop_I": "461"}}, {"id": "461", "geometry": {"type": "Point", "coordinates": [-70.38246274, -23.58941592]}, "type": "Feature", "properties": {"name": "Sargento Manuel Silva / El Roble", "stop_I": "462"}}, {"id": "462", "geometry": {"type": "Point", "coordinates": [-70.38293481, -23.59229675]}, "type": "Feature", "properties": {"name": "El Roble / Nicol\u00e1s Tirado", "stop_I": "463"}}, {"id": "463", "geometry": {"type": "Point", "coordinates": [-70.38546145, -23.59232133]}, "type": "Feature", "properties": {"name": "Nicol\u00e1s Tirado / Avenida Radomiro Tomic", "stop_I": "464"}}, {"id": "464", "geometry": {"type": "Point", "coordinates": [-70.3871727, -23.59205095]}, "type": "Feature", "properties": {"name": "Nicol\u00e1s Tirado / H\u00e9roes de la Concepci\u00f3n", "stop_I": "465"}}, {"id": "465", "geometry": {"type": "Point", "coordinates": [-70.38642704, -23.58930776]}, "type": "Feature", "properties": {"name": "H\u00e9roes de La Concepci\u00f3n / Sargento Manuel Silva", "stop_I": "466"}}, {"id": "466", "geometry": {"type": "Point", "coordinates": [-70.38843334, -23.5891357]}, "type": "Feature", "properties": {"name": "Sargento Manuel Silva / Pilmaiqu\u00e9n", "stop_I": "467"}}, {"id": "467", "geometry": {"type": "Point", "coordinates": [-70.38940966, -23.58723313]}, "type": "Feature", "properties": {"name": "Juan Bol\u00edvar / Las Torcazas", "stop_I": "468"}}, {"id": "468", "geometry": {"type": "Point", "coordinates": [-70.39301455, -23.58933234]}, "type": "Feature", "properties": {"name": "Los Almendros / Los Naranjos", "stop_I": "469"}}, {"id": "469", "geometry": {"type": "Point", "coordinates": [-70.39441466, -23.59198704]}, "type": "Feature", "properties": {"name": "Los Pimientos / Las Rocas", "stop_I": "470"}}, {"id": "470", "geometry": {"type": "Point", "coordinates": [-70.38836896, -23.61282945]}, "type": "Feature", "properties": {"name": "Pedro Aguirre Cerda / Salamanca", "stop_I": "471"}}, {"id": "471", "geometry": {"type": "Point", "coordinates": [-70.38872838, -23.61554265]}, "type": "Feature", "properties": {"name": "Pedro Aguirre Cerda / Vicu\u00f1a", "stop_I": "472"}}, {"id": "472", "geometry": {"type": "Point", "coordinates": [-70.38928628, -23.61801004]}, "type": "Feature", "properties": {"name": "Pedro Aguirre Cerda / Huasco", "stop_I": "473"}}, {"id": "473", "geometry": {"type": "Point", "coordinates": [-70.38997293, -23.62084109]}, "type": "Feature", "properties": {"name": "Pedro Aguirre Cerda / Avenida Sargento Aldea", "stop_I": "474"}}, {"id": "474", "geometry": {"type": "Point", "coordinates": [-70.39383531, -23.63441063]}, "type": "Feature", "properties": {"name": "Calle Iquique / Quito", "stop_I": "475"}}, {"id": "475", "geometry": {"type": "Point", "coordinates": [-70.3977567, -23.64826376]}, "type": "Feature", "properties": {"name": "Almirante Juan Jos\u00e9 Latorre / Baquedano", "stop_I": "476"}}, {"id": "476", "geometry": {"type": "Point", "coordinates": [-70.39484918, -23.65373778]}, "type": "Feature", "properties": {"name": "Maip\u00fa / Atacama", "stop_I": "477"}}, {"id": "477", "geometry": {"type": "Point", "coordinates": [-70.39355636, -23.65505957]}, "type": "Feature", "properties": {"name": "Maip\u00fa / Curico", "stop_I": "478"}}, {"id": "478", "geometry": {"type": "Point", "coordinates": [-70.39507449, -23.65955551]}, "type": "Feature", "properties": {"name": "Eduardo Lefort / General Jos\u00e9 Vel\u00e1squez", "stop_I": "479"}}, {"id": "479", "geometry": {"type": "Point", "coordinates": [-70.40556192, -23.67798973]}, "type": "Feature", "properties": {"name": "Av. Argentina / Enrique Soro", "stop_I": "480"}}, {"id": "480", "geometry": {"type": "Point", "coordinates": [-70.41197777, -23.69584172]}, "type": "Feature", "properties": {"name": "Mar del Plata / Santa Magdalena", "stop_I": "481"}}, {"id": "481", "geometry": {"type": "Point", "coordinates": [-70.41196704, -23.69773779]}, "type": "Feature", "properties": {"name": "Santa Marta / Avenida Argentina", "stop_I": "482"}}, {"id": "482", "geometry": {"type": "Point", "coordinates": [-70.40276169, -23.67480127]}, "type": "Feature", "properties": {"name": "Argentina / Nicanor Plaza", "stop_I": "483"}}, {"id": "483", "geometry": {"type": "Point", "coordinates": [-70.39413035, -23.62714685]}, "type": "Feature", "properties": {"name": "Calle Iquique / Vega Central", "stop_I": "484"}}, {"id": "484", "geometry": {"type": "Point", "coordinates": [-70.39064884, -23.62404562]}, "type": "Feature", "properties": {"name": "Mejillones / Vallenar", "stop_I": "485"}}, {"id": "485", "geometry": {"type": "Point", "coordinates": [-70.39013923, -23.62213372]}, "type": "Feature", "properties": {"name": "Pedro Aguirre Cerda / Pisagua", "stop_I": "486"}}, {"id": "486", "geometry": {"type": "Point", "coordinates": [-70.38785398, -23.62232049]}, "type": "Feature", "properties": {"name": "Loa / Pe\u00f1uela", "stop_I": "487"}}, {"id": "487", "geometry": {"type": "Point", "coordinates": [-70.38685083, -23.62069364]}, "type": "Feature", "properties": {"name": "Loa / Freirina", "stop_I": "488"}}, {"id": "488", "geometry": {"type": "Point", "coordinates": [-70.3865236, -23.617607]}, "type": "Feature", "properties": {"name": "Paihuano / Progreso", "stop_I": "489"}}, {"id": "489", "geometry": {"type": "Point", "coordinates": [-70.38838506, -23.61723837]}, "type": "Feature", "properties": {"name": "Paihuano / Av. Pedro Aguirre Cerda", "stop_I": "490"}}, {"id": "490", "geometry": {"type": "Point", "coordinates": [-70.39006948, -23.61270165]}, "type": "Feature", "properties": {"name": "Calle Iquique / Chalinga", "stop_I": "491"}}, {"id": "491", "geometry": {"type": "Point", "coordinates": [-70.39069712, -23.60653283]}, "type": "Feature", "properties": {"name": "Calle Iquique / Victoria", "stop_I": "492"}}, {"id": "492", "geometry": {"type": "Point", "coordinates": [-70.3905952, -23.60398166]}, "type": "Feature", "properties": {"name": "Calle Iquique / Cavancha", "stop_I": "493"}}, {"id": "493", "geometry": {"type": "Point", "coordinates": [-70.3905201, -23.60175487]}, "type": "Feature", "properties": {"name": "Calle Iquique / Punta Brava", "stop_I": "494"}}, {"id": "494", "geometry": {"type": "Point", "coordinates": [-70.39128184, -23.59883]}, "type": "Feature", "properties": {"name": "El Yodo / Onix", "stop_I": "495"}}, {"id": "495", "geometry": {"type": "Point", "coordinates": [-70.39429128, -23.59234099]}, "type": "Feature", "properties": {"name": "Nicol\u00e1s Tirado / Parquemar", "stop_I": "496"}}, {"id": "496", "geometry": {"type": "Point", "coordinates": [-70.39179683, -23.58815246]}, "type": "Feature", "properties": {"name": "Los Cha\u00f1ares / Los Aromos", "stop_I": "497"}}, {"id": "497", "geometry": {"type": "Point", "coordinates": [-70.38451195, -23.58936676]}, "type": "Feature", "properties": {"name": "Morro de Arica / Sargento Manuel Silva", "stop_I": "498"}}, {"id": "498", "geometry": {"type": "Point", "coordinates": [-70.38472116, -23.59086617]}, "type": "Feature", "properties": {"name": "Avenida Radomiro Tomic / Clodomiro Rozas", "stop_I": "499"}}, {"id": "499", "geometry": {"type": "Point", "coordinates": [-70.38076222, -23.59238524]}, "type": "Feature", "properties": {"name": "Huamachuco / Emilio Correa", "stop_I": "500"}}, {"id": "500", "geometry": {"type": "Point", "coordinates": [-70.38082123, -23.58947982]}, "type": "Feature", "properties": {"name": "Huamachuco / Sargento Manuel Silva", "stop_I": "501"}}, {"id": "501", "geometry": {"type": "Point", "coordinates": [-70.38104653, -23.58684966]}, "type": "Feature", "properties": {"name": "Huamachuco / Juan Bol\u00edvar", "stop_I": "502"}}, {"id": "502", "geometry": {"type": "Point", "coordinates": [-70.38187802, -23.57653006]}, "type": "Feature", "properties": {"name": "Huamachuco / R\u00edo Teno", "stop_I": "503"}}, {"id": "503", "geometry": {"type": "Point", "coordinates": [-70.38253248, -23.57082664]}, "type": "Feature", "properties": {"name": "Huamachuco / F\u00e9lix Garc\u00eda", "stop_I": "504"}}, {"id": "504", "geometry": {"type": "Point", "coordinates": [-70.38316011, -23.56529507]}, "type": "Feature", "properties": {"name": "Huamachuco / Caparrosa", "stop_I": "505"}}, {"id": "505", "geometry": {"type": "Point", "coordinates": [-70.3904128, -23.56513772]}, "type": "Feature", "properties": {"name": "Caparrosa / Sierra Nevada", "stop_I": "506"}}, {"id": "506", "geometry": {"type": "Point", "coordinates": [-70.39512277, -23.55251995]}, "type": "Feature", "properties": {"name": "Oficina Carmela  / Oficina Lasteria", "stop_I": "507"}}, {"id": "507", "geometry": {"type": "Point", "coordinates": [-70.39182901, -23.55131515]}, "type": "Feature", "properties": {"name": "Oficina Carmela / Av Pedro Aguirre Cerda", "stop_I": "508"}}, {"id": "508", "geometry": {"type": "Point", "coordinates": [-70.38774133, -23.54442544]}, "type": "Feature", "properties": {"name": "Los Topacios / Oficina Anita", "stop_I": "509"}}, {"id": "509", "geometry": {"type": "Point", "coordinates": [-70.37881494, -23.5702907]}, "type": "Feature", "properties": {"name": "F\u00e9lix Garc\u00eda / Los Chungungos", "stop_I": "510"}}, {"id": "510", "geometry": {"type": "Point", "coordinates": [-70.37864327, -23.56894839]}, "type": "Feature", "properties": {"name": "Los Chungungos / Mario Silva", "stop_I": "511"}}, {"id": "511", "geometry": {"type": "Point", "coordinates": [-70.37934601, -23.5670947]}, "type": "Feature", "properties": {"name": "Los Chungungos /  Nva Vida", "stop_I": "512"}}, {"id": "512", "geometry": {"type": "Point", "coordinates": [-70.37681401, -23.56719796]}, "type": "Feature", "properties": {"name": "Cosca / Los Sulfuros", "stop_I": "513"}}, {"id": "513", "geometry": {"type": "Point", "coordinates": [-70.37584305, -23.56945975]}, "type": "Feature", "properties": {"name": "Cosca / F\u00e9lix Garc\u00eda", "stop_I": "514"}}, {"id": "514", "geometry": {"type": "Point", "coordinates": [-70.38205505, -23.59947889]}, "type": "Feature", "properties": {"name": "Bandera / Juan Antonio R\u00edos", "stop_I": "515"}}, {"id": "515", "geometry": {"type": "Point", "coordinates": [-70.38062274, -23.60860224]}, "type": "Feature", "properties": {"name": "Bandera / San Miguel", "stop_I": "516"}}, {"id": "516", "geometry": {"type": "Point", "coordinates": [-70.38898051, -23.62621305]}, "type": "Feature", "properties": {"name": "Avenida Antonio Rendic / Magallanes", "stop_I": "517"}}, {"id": "517", "geometry": {"type": "Point", "coordinates": [-70.38957059, -23.62800201]}, "type": "Feature", "properties": {"name": "Antonio Rendic / Avenida Salvador Allende", "stop_I": "518"}}, {"id": "518", "geometry": {"type": "Point", "coordinates": [-70.38905025, -23.63617491]}, "type": "Feature", "properties": {"name": "Avenida Antonio Rendic / Montevideo", "stop_I": "519"}}, {"id": "519", "geometry": {"type": "Point", "coordinates": [-70.3899461, -23.6407059]}, "type": "Feature", "properties": {"name": "Pedro de Valdivia / Huanchaca", "stop_I": "520"}}, {"id": "520", "geometry": {"type": "Point", "coordinates": [-70.39653897, -23.65856298]}, "type": "Feature", "properties": {"name": "Copiap\u00f3 / Avenida Argentina", "stop_I": "521"}}, {"id": "521", "geometry": {"type": "Point", "coordinates": [-70.39995611, -23.67063994]}, "type": "Feature", "properties": {"name": "Argentina / Angol", "stop_I": "522"}}, {"id": "522", "geometry": {"type": "Point", "coordinates": [-70.40978372, -23.69246703]}, "type": "Feature", "properties": {"name": "Collico / Reumen", "stop_I": "523"}}, {"id": "523", "geometry": {"type": "Point", "coordinates": [-70.40774524, -23.69274702]}, "type": "Feature", "properties": {"name": "Collico / Cerro Negro", "stop_I": "524"}}, {"id": "524", "geometry": {"type": "Point", "coordinates": [-70.40614665, -23.68619389]}, "type": "Feature", "properties": {"name": "Secundino Carrizo / Trumao", "stop_I": "525"}}, {"id": "525", "geometry": {"type": "Point", "coordinates": [-70.40610373, -23.68582054]}, "type": "Feature", "properties": {"name": "Secundino Carrizo / Trumao", "stop_I": "526"}}, {"id": "526", "geometry": {"type": "Point", "coordinates": [-70.40812075, -23.69115544]}, "type": "Feature", "properties": {"name": "Antilhue / Huellelhue", "stop_I": "527"}}, {"id": "527", "geometry": {"type": "Point", "coordinates": [-70.4099071, -23.69239825]}, "type": "Feature", "properties": {"name": "Collico / Avenida Argentina", "stop_I": "528"}}, {"id": "528", "geometry": {"type": "Point", "coordinates": [-70.38106799, -23.58628921]}, "type": "Feature", "properties": {"name": "Huamachuco / R\u00edo Do\u00f1ihue", "stop_I": "529"}}, {"id": "529", "geometry": {"type": "Point", "coordinates": [-70.37978053, -23.57848194]}, "type": "Feature", "properties": {"name": "Gabriel Silva / Avenida General Bonilla", "stop_I": "530"}}, {"id": "530", "geometry": {"type": "Point", "coordinates": [-70.37953913, -23.57036937]}, "type": "Feature", "properties": {"name": "F\u00e9lix Garc\u00eda /Avenida General Bonilla", "stop_I": "531"}}, {"id": "531", "geometry": {"type": "Point", "coordinates": [-70.39637267, -23.52320327]}, "type": "Feature", "properties": {"name": "Caletera Pedro Aguirre Cerda / Terminal 114", "stop_I": "532"}}, {"id": "532", "geometry": {"type": "Point", "coordinates": [-70.39126039, -23.55900109]}, "type": "Feature", "properties": {"name": "Pedro Aguirre Cerda / Oficina Ausonia", "stop_I": "533"}}, {"id": "533", "geometry": {"type": "Point", "coordinates": [-70.3850913, -23.58676608]},