{"type": "FeatureCollection", "features": [{"properties": {"name": "Wiebestr./Huttenstr. (Berlin)", "stop_I": "105"}, "id": "0", "type": "Feature", "geometry": {"coordinates": [13.32026, 52.528318], "type": "Point"}}, {"properties": {"name": "Reuchlinstr. (Berlin)", "stop_I": "106"}, "id": "1", "type": "Feature", "geometry": {"coordinates": [13.323637, 52.527903], "type": "Point"}}, {"properties": {"name": "Neues Ufer (Berlin)", "stop_I": "107"}, "id": "2", "type": "Feature", "geometry": {"coordinates": [13.315981, 52.529103], "type": "Point"}}, {"properties": {"name": "Ilsenburger Str. (Berlin)", "stop_I": "108"}, "id": "3", "type": "Feature", "geometry": {"coordinates": [13.30984, 52.525756], "type": "Point"}}, {"properties": {"name": "Goslarer Platz (Berlin)", "stop_I": "109"}, "id": "4", "type": "Feature", "geometry": {"coordinates": [13.314261, 52.525797], "type": "Point"}}, {"properties": {"name": "Fennbr\u00fccke (Berlin)", "stop_I": "110"}, "id": "5", "type": "Feature", "geometry": {"coordinates": [13.360963, 52.538399], "type": "Point"}}, {"properties": {"name": "S+U Westhafen (Berlin)", "stop_I": "111"}, "id": "6", "type": "Feature", "geometry": {"coordinates": [13.343842, 52.536186], "type": "Point"}}, {"properties": {"name": "Am Nordhafen (Berlin)", "stop_I": "112"}, "id": "7", "type": "Feature", "geometry": {"coordinates": [13.363616, 52.538854], "type": "Point"}}, {"properties": {"name": "D\u00f6beritzer Str. (Berlin)", "stop_I": "113"}, "id": "8", "type": "Feature", "geometry": {"coordinates": [13.368765, 52.530032], "type": "Point"}}, {"properties": {"name": "Lehrter Str./Invalidenstr. (Berlin)", "stop_I": "114"}, "id": "9", "type": "Feature", "geometry": {"coordinates": [13.365229, 52.525768], "type": "Point"}}, {"properties": {"name": "Friedrich-Krause-Ufer (Berlin)", "stop_I": "115"}, "id": "10", "type": "Feature", "geometry": {"coordinates": [13.361222, 52.536743], "type": "Point"}}, {"properties": {"name": "Turmstr./Waldstr. (Berlin)", "stop_I": "116"}, "id": "11", "type": "Feature", "geometry": {"coordinates": [13.330436, 52.527108], "type": "Point"}}, {"properties": {"name": "Turmstr./Beusselstr. (Berlin)", "stop_I": "117"}, "id": "12", "type": "Feature", "geometry": {"coordinates": [13.328748, 52.527343], "type": "Point"}}, {"properties": {"name": "Wittstocker Str. (Berlin)", "stop_I": "118"}, "id": "13", "type": "Feature", "geometry": {"coordinates": [13.328516, 52.530859], "type": "Point"}}, {"properties": {"name": "Quitzowstr. (Berlin)", "stop_I": "119"}, "id": "14", "type": "Feature", "geometry": {"coordinates": [13.356402, 52.535297], "type": "Point"}}, {"properties": {"name": "U Birkenstr. (Berlin)", "stop_I": "120"}, "id": "15", "type": "Feature", "geometry": {"coordinates": [13.341423, 52.532232], "type": "Point"}}, {"properties": {"name": "Wilsnacker Str. (Berlin)", "stop_I": "121"}, "id": "16", "type": "Feature", "geometry": {"coordinates": [13.351411, 52.526367], "type": "Point"}}, {"properties": {"name": "Stendaler Str. (Berlin)", "stop_I": "122"}, "id": "17", "type": "Feature", "geometry": {"coordinates": [13.350537, 52.532461], "type": "Point"}}, {"properties": {"name": "Perleberger Br\u00fccke (Berlin)", "stop_I": "123"}, "id": "18", "type": "Feature", "geometry": {"coordinates": [13.358039, 52.535332], "type": "Point"}}, {"properties": {"name": "Turmstr./L\u00fcbecker Str. (Berlin)", "stop_I": "124"}, "id": "19", "type": "Feature", "geometry": {"coordinates": [13.345514, 52.526254], "type": "Point"}}, {"properties": {"name": "Turmstr./Rathenower Str. (Berlin)", "stop_I": "125"}, "id": "20", "type": "Feature", "geometry": {"coordinates": [13.35481, 52.526688], "type": "Point"}}, {"properties": {"name": "Stromstr. (Berlin)", "stop_I": "126"}, "id": "21", "type": "Feature", "geometry": {"coordinates": [13.344012, 52.529192], "type": "Point"}}, {"properties": {"name": "Birkenstr./Rathenower Str. (Berlin)", "stop_I": "127"}, "id": "22", "type": "Feature", "geometry": {"coordinates": [13.352912, 52.529657], "type": "Point"}}, {"properties": {"name": "Seydlitzstr. (Berlin)", "stop_I": "128"}, "id": "23", "type": "Feature", "geometry": {"coordinates": [13.364163, 52.527038], "type": "Point"}}, {"properties": {"name": "Poststadion (Berlin)", "stop_I": "129"}, "id": "24", "type": "Feature", "geometry": {"coordinates": [13.362436, 52.530285], "type": "Point"}}, {"properties": {"name": "Kruppstr. (Berlin)", "stop_I": "130"}, "id": "25", "type": "Feature", "geometry": {"coordinates": [13.359644, 52.53339], "type": "Point"}}, {"properties": {"name": "Havelberger Str. (Berlin)", "stop_I": "131"}, "id": "26", "type": "Feature", "geometry": {"coordinates": [13.347679, 52.531029], "type": "Point"}}, {"properties": {"name": "U Hansaplatz (Berlin)", "stop_I": "132"}, "id": "27", "type": "Feature", "geometry": {"coordinates": [13.342171, 52.518114], "type": "Point"}}, {"properties": {"name": "S Bellevue (Berlin)", "stop_I": "133"}, "id": "28", "type": "Feature", "geometry": {"coordinates": [13.347104, 52.519954], "type": "Point"}}, {"properties": {"name": "S Tiergarten (Berlin)", "stop_I": "134"}, "id": "29", "type": "Feature", "geometry": {"coordinates": [13.33624, 52.513966], "type": "Point"}}, {"properties": {"name": "U Turmstr. (Berlin)", "stop_I": "135"}, "id": "30", "type": "Feature", "geometry": {"coordinates": [13.341422, 52.525941], "type": "Point"}}, {"properties": {"name": "Bachstr. (Berlin)", "stop_I": "136"}, "id": "31", "type": "Feature", "geometry": {"coordinates": [13.339578, 52.518602], "type": "Point"}}, {"properties": {"name": "Alt-Moabit/Gotzkowskystr. (Berlin)", "stop_I": "137"}, "id": "32", "type": "Feature", "geometry": {"coordinates": [13.329898, 52.523933], "type": "Point"}}, {"properties": {"name": "Solinger Str. (Berlin)", "stop_I": "138"}, "id": "33", "type": "Feature", "geometry": {"coordinates": [13.335733, 52.520551], "type": "Point"}}, {"properties": {"name": "Rathaus Tiergarten (Berlin)", "stop_I": "139"}, "id": "34", "type": "Feature", "geometry": {"coordinates": [13.339172, 52.526066], "type": "Point"}}, {"properties": {"name": "Ottostr. (Berlin)", "stop_I": "140"}, "id": "35", "type": "Feature", "geometry": {"coordinates": [13.33493, 52.524685], "type": "Point"}}, {"properties": {"name": "U Turmstr. (Berlin) [Bus Turmstr.]", "stop_I": "141"}, "id": "36", "type": "Feature", "geometry": {"coordinates": [13.341993, 52.526303], "type": "Point"}}, {"properties": {"name": "U Turmstr. (Berlin) [Bus Stromstr.]", "stop_I": "142"}, "id": "37", "type": "Feature", "geometry": {"coordinates": [13.343025, 52.525815], "type": "Point"}}, {"properties": {"name": "U Turmstr. (Berlin) [Bus Alt-Moabit]", "stop_I": "143"}, "id": "38", "type": "Feature", "geometry": {"coordinates": [13.34194, 52.525513], "type": "Point"}}, {"properties": {"name": "Zinzendorfstr. (Berlin)", "stop_I": "144"}, "id": "39", "type": "Feature", "geometry": {"coordinates": [13.331511, 52.522225], "type": "Point"}}, {"properties": {"name": "S+U Berlin Hauptbahnhof (tief)", "stop_I": "145"}, "id": "40", "type": "Feature", "geometry": {"coordinates": [13.369391, 52.525046], "type": "Point"}}, {"properties": {"name": "S+U Berlin Hauptbahnhof", "stop_I": "146"}, "id": "41", "type": "Feature", "geometry": {"coordinates": [13.36893, 52.525851], "type": "Point"}}, {"properties": {"name": "Kirchstr./Alt-Moabit (Berlin)", "stop_I": "147"}, "id": "42", "type": "Feature", "geometry": {"coordinates": [13.349587, 52.524545], "type": "Point"}}, {"properties": {"name": "Alt-Moabit/Rathenower Str. (Berlin)", "stop_I": "148"}, "id": "43", "type": "Feature", "geometry": {"coordinates": [13.357075, 52.523696], "type": "Point"}}, {"properties": {"name": "Kleiner Tiergarten (Berlin)", "stop_I": "149"}, "id": "44", "type": "Feature", "geometry": {"coordinates": [13.34577, 52.524993], "type": "Point"}}, {"properties": {"name": "Paulstr. (Berlin)", "stop_I": "150"}, "id": "45", "type": "Feature", "geometry": {"coordinates": [13.355667, 52.520072], "type": "Point"}}, {"properties": {"name": "Schloss Bellevue (Berlin)", "stop_I": "151"}, "id": "46", "type": "Feature", "geometry": {"coordinates": [13.354209, 52.516719], "type": "Point"}}, {"properties": {"name": "Haus der Kulturen der Welt (Berlin)", "stop_I": "152"}, "id": "47", "type": "Feature", "geometry": {"coordinates": [13.36337, 52.517602], "type": "Point"}}, {"properties": {"name": "U Bundestag (Berlin)", "stop_I": "153"}, "id": "48", "type": "Feature", "geometry": {"coordinates": [13.37346, 52.519912], "type": "Point"}}, {"properties": {"name": "Clara-Jaschke-Str. (Berlin)", "stop_I": "154"}, "id": "49", "type": "Feature", "geometry": {"coordinates": [13.366058, 52.524932], "type": "Point"}}, {"properties": {"name": "Spenerstr. (Berlin)", "stop_I": "155"}, "id": "50", "type": "Feature", "geometry": {"coordinates": [13.353549, 52.524006], "type": "Point"}}, {"properties": {"name": "Lesser-Ury-Weg (Berlin)", "stop_I": "156"}, "id": "51", "type": "Feature", "geometry": {"coordinates": [13.361983, 52.524215], "type": "Point"}}, {"properties": {"name": "L\u00fcneburger Str. (Berlin)", "stop_I": "157"}, "id": "52", "type": "Feature", "geometry": {"coordinates": [13.361655, 52.52314], "type": "Point"}}, {"properties": {"name": "Gro\u00dfer Stern (Berlin)", "stop_I": "158"}, "id": "53", "type": "Feature", "geometry": {"coordinates": [13.350183, 52.515147], "type": "Point"}}, {"properties": {"name": "Reichstag/Bundestag (Berlin)", "stop_I": "159"}, "id": "54", "type": "Feature", "geometry": {"coordinates": [13.376485, 52.51772], "type": "Point"}}, {"properties": {"name": "Platz der Republik (Berlin)", "stop_I": "160"}, "id": "55", "type": "Feature", "geometry": {"coordinates": [13.370447, 52.51779], "type": "Point"}}, {"properties": {"name": "Nordische Botschaften/Adenauer-Stiftung (Berlin)", "stop_I": "161"}, "id": "56", "type": "Feature", "geometry": {"coordinates": [13.351412, 52.509597], "type": "Point"}}, {"properties": {"name": "Hertzallee (Berlin)", "stop_I": "162"}, "id": "57", "type": "Feature", "geometry": {"coordinates": [13.332621, 52.509235], "type": "Point"}}, {"properties": {"name": "Budapester Str. (Berlin)", "stop_I": "163"}, "id": "58", "type": "Feature", "geometry": {"coordinates": [13.345678, 52.506571], "type": "Point"}}, {"properties": {"name": "Corneliusbr\u00fccke (Berlin)", "stop_I": "164"}, "id": "59", "type": "Feature", "geometry": {"coordinates": [13.348671, 52.507624], "type": "Point"}}, {"properties": {"name": "Schillstr. (Berlin)", "stop_I": "165"}, "id": "60", "type": "Feature", "geometry": {"coordinates": [13.349931, 52.503107], "type": "Point"}}, {"properties": {"name": "L\u00fctzowplatz (Berlin)", "stop_I": "166"}, "id": "61", "type": "Feature", "geometry": {"coordinates": [13.351562, 52.504904], "type": "Point"}}, {"properties": {"name": "Tiergartenstr. (Berlin)", "stop_I": "167"}, "id": "62", "type": "Feature", "geometry": {"coordinates": [13.361947, 52.50971], "type": "Point"}}, {"properties": {"name": "Gedenkst\u00e4tte Dt. Widerstand (Berlin)", "stop_I": "168"}, "id": "63", "type": "Feature", "geometry": {"coordinates": [13.363297, 52.50574], "type": "Point"}}, {"properties": {"name": "K\u00f6bisstr. (Berlin)", "stop_I": "169"}, "id": "64", "type": "Feature", "geometry": {"coordinates": [13.356271, 52.507169], "type": "Point"}}, {"properties": {"name": "Hiroshimasteg (Berlin)", "stop_I": "170"}, "id": "65", "type": "Feature", "geometry": {"coordinates": [13.357466, 52.506732], "type": "Point"}}, {"properties": {"name": "Bayreuther Str. (Berlin)", "stop_I": "171"}, "id": "66", "type": "Feature", "geometry": {"coordinates": [13.343963, 52.504433], "type": "Point"}}, {"properties": {"name": "U Kurf\u00fcrstenstr. (Berlin)", "stop_I": "172"}, "id": "67", "type": "Feature", "geometry": {"coordinates": [13.362819, 52.499814], "type": "Point"}}, {"properties": {"name": "L\u00fctzowstr./Potsdamer Str. (Berlin)", "stop_I": "173"}, "id": "68", "type": "Feature", "geometry": {"coordinates": [13.366009, 52.503426], "type": "Point"}}, {"properties": {"name": "Potsdamer Br\u00fccke (Berlin)", "stop_I": "174"}, "id": "69", "type": "Feature", "geometry": {"coordinates": [13.368311, 52.505951], "type": "Point"}}, {"properties": {"name": "Philharmonie (Berlin)", "stop_I": "175"}, "id": "70", "type": "Feature", "geometry": {"coordinates": [13.36844, 52.510084], "type": "Point"}}, {"properties": {"name": "Philharmonie S\u00fcd (Berlin)", "stop_I": "176"}, "id": "71", "type": "Feature", "geometry": {"coordinates": [13.370751, 52.508619], "type": "Point"}}, {"properties": {"name": "Varian-Fry-Str. (Berlin)", "stop_I": "177"}, "id": "72", "type": "Feature", "geometry": {"coordinates": [13.374307, 52.509297], "type": "Point"}}, {"properties": {"name": "U Mendelssohn-Bartholdy-Park (Berlin)", "stop_I": "178"}, "id": "73", "type": "Feature", "geometry": {"coordinates": [13.374725, 52.50381], "type": "Point"}}, {"properties": {"name": "Sch\u00f6neberger Br\u00fccke (Berlin)", "stop_I": "179"}, "id": "74", "type": "Feature", "geometry": {"coordinates": [13.377757, 52.502337], "type": "Point"}}, {"properties": {"name": "Kulturforum (Berlin)", "stop_I": "180"}, "id": "75", "type": "Feature", "geometry": {"coordinates": [13.369186, 52.507568], "type": "Point"}}, {"properties": {"name": "Frobenstr. (Berlin)", "stop_I": "181"}, "id": "76", "type": "Feature", "geometry": {"coordinates": [13.359892, 52.499461], "type": "Point"}}, {"properties": {"name": "S Wollankstr./Sternstr. (Berlin)", "stop_I": "182"}, "id": "77", "type": "Feature", "geometry": {"coordinates": [13.391545, 52.565356], "type": "Point"}}, {"properties": {"name": "Prinzenallee/Soldiner Str. (Berlin)", "stop_I": "183"}, "id": "78", "type": "Feature", "geometry": {"coordinates": [13.386246, 52.558659], "type": "Point"}}, {"properties": {"name": "Residenzstr./Reginhardstr. (Berlin)", "stop_I": "184"}, "id": "79", "type": "Feature", "geometry": {"coordinates": [13.370529, 52.560146], "type": "Point"}}, {"properties": {"name": "Soldiner Str./Koloniestr. (Berlin)", "stop_I": "185"}, "id": "80", "type": "Feature", "geometry": {"coordinates": [13.381056, 52.560086], "type": "Point"}}, {"properties": {"name": "Verl\u00e4ngerte Koloniestr. (Berlin)", "stop_I": "186"}, "id": "81", "type": "Feature", "geometry": {"coordinates": [13.384653, 52.567548], "type": "Point"}}, {"properties": {"name": "St.-Elisabeth-Kirchhof (Berlin)", "stop_I": "187"}, "id": "82", "type": "Feature", "geometry": {"coordinates": [13.387764, 52.560502], "type": "Point"}}, {"properties": {"name": "S+U Gesundbrunnen Bhf (Berlin)", "stop_I": "188"}, "id": "83", "type": "Feature", "geometry": {"coordinates": [13.388377, 52.548641], "type": "Point"}}, {"properties": {"name": "U Voltastr. (Berlin)", "stop_I": "189"}, "id": "84", "type": "Feature", "geometry": {"coordinates": [13.393163, 52.541934], "type": "Point"}}, {"properties": {"name": "S Nordbahnhof (Berlin)", "stop_I": "190"}, "id": "85", "type": "Feature", "geometry": {"coordinates": [13.3888, 52.531677], "type": "Point"}}, {"properties": {"name": "Wolliner Str. (Berlin)", "stop_I": "191"}, "id": "86", "type": "Feature", "geometry": {"coordinates": [13.401805, 52.539774], "type": "Point"}}, {"properties": {"name": "Usedomer Str./Feldstr. (Berlin)", "stop_I": "192"}, "id": "87", "type": "Feature", "geometry": {"coordinates": [13.387137, 52.539237], "type": "Point"}}, {"properties": {"name": "Ruppiner Str. (Berlin)", "stop_I": "193"}, "id": "88", "type": "Feature", "geometry": {"coordinates": [13.398983, 52.539088], "type": "Point"}}, {"properties": {"name": "S Nordbahnhof/Gartenstr. (Berlin)", "stop_I": "194"}, "id": "89", "type": "Feature", "geometry": {"coordinates": [13.387497, 52.533364], "type": "Point"}}, {"properties": {"name": "U Bernauer Str. (Berlin)", "stop_I": "195"}, "id": "90", "type": "Feature", "geometry": {"coordinates": [13.396236, 52.537997], "type": "Point"}}, {"properties": {"name": "Lortzingstr. (Berlin)", "stop_I": "196"}, "id": "91", "type": "Feature", "geometry": {"coordinates": [13.399179, 52.544307], "type": "Point"}}, {"properties": {"name": "Gartenplatz (Berlin)", "stop_I": "197"}, "id": "92", "type": "Feature", "geometry": {"coordinates": [13.384282, 52.538425], "type": "Point"}}, {"properties": {"name": "Theodor-Heuss-Weg (Berlin)", "stop_I": "198"}, "id": "93", "type": "Feature", "geometry": {"coordinates": [13.385867, 52.534956], "type": "Point"}}, {"properties": {"name": "Gartenstr./Feldstr. (Berlin)", "stop_I": "199"}, "id": "94", "type": "Feature", "geometry": {"coordinates": [13.383824, 52.536525], "type": "Point"}}, {"properties": {"name": "Gedenkst\u00e4tte Berliner Mauer (Berlin)", "stop_I": "200"}, "id": "95", "type": "Feature", "geometry": {"coordinates": [13.390489, 52.535701], "type": "Point"}}, {"properties": {"name": "J\u00fclicher Str. (Berlin)", "stop_I": "201"}, "id": "96", "type": "Feature", "geometry": {"coordinates": [13.39062, 52.550088], "type": "Point"}}, {"properties": {"name": "Demminer Str. (Berlin)", "stop_I": "202"}, "id": "97", "type": "Feature", "geometry": {"coordinates": [13.399434, 52.542615], "type": "Point"}}, {"properties": {"name": "Gleimstr. (Berlin)", "stop_I": "203"}, "id": "98", "type": "Feature", "geometry": {"coordinates": [13.398084, 52.546046], "type": "Point"}}, {"properties": {"name": "Swinem\u00fcnder Str. (Berlin)", "stop_I": "204"}, "id": "99", "type": "Feature", "geometry": {"coordinates": [13.394927, 52.545957], "type": "Point"}}, {"properties": {"name": "R\u00fcgener Str. (Berlin)", "stop_I": "205"}, "id": "100", "type": "Feature", "geometry": {"coordinates": [13.390799, 52.545017], "type": "Point"}}, {"properties": {"name": "Humboldtsteg (Berlin)", "stop_I": "206"}, "id": "101", "type": "Feature", "geometry": {"coordinates": [13.381999, 52.547394], "type": "Point"}}, {"properties": {"name": "Gr\u00fcntaler Str. (Berlin)", "stop_I": "207"}, "id": "102", "type": "Feature", "geometry": {"coordinates": [13.390801, 52.555362], "type": "Point"}}, {"properties": {"name": "Usedomer Str. (Berlin)", "stop_I": "208"}, "id": "103", "type": "Feature", "geometry": {"coordinates": [13.389473, 52.539919], "type": "Point"}}, {"properties": {"name": "S Humboldthain (Berlin)", "stop_I": "209"}, "id": "104", "type": "Feature", "geometry": {"coordinates": [13.378731, 52.544745], "type": "Point"}}, {"properties": {"name": "U Reinickendorfer Str. (Berlin)", "stop_I": "210"}, "id": "105", "type": "Feature", "geometry": {"coordinates": [13.370399, 52.539899], "type": "Point"}}, {"properties": {"name": "Nettelbeckplatz/S Wedding (Berlin)", "stop_I": "211"}, "id": "106", "type": "Feature", "geometry": {"coordinates": [13.370194, 52.544674], "type": "Point"}}, {"properties": {"name": "U Reinickendorfer Str./Fennstr. (Berlin)", "stop_I": "212"}, "id": "107", "type": "Feature", "geometry": {"coordinates": [13.369418, 52.541528], "type": "Point"}}, {"properties": {"name": "Brunnenplatz (Berlin)", "stop_I": "213"}, "id": "108", "type": "Feature", "geometry": {"coordinates": [13.378001, 52.550146], "type": "Point"}}, {"properties": {"name": "Gerichtstr./Hochstr. (Berlin)", "stop_I": "214"}, "id": "109", "type": "Feature", "geometry": {"coordinates": [13.375722, 52.543261], "type": "Point"}}, {"properties": {"name": "Wiesenstr. (Berlin)", "stop_I": "215"}, "id": "110", "type": "Feature", "geometry": {"coordinates": [13.373897, 52.547596], "type": "Point"}}, {"properties": {"name": "Schererstr. (Berlin)", "stop_I": "216"}, "id": "111", "type": "Feature", "geometry": {"coordinates": [13.369169, 52.548217], "type": "Point"}}, {"properties": {"name": "U Amrumer Str. (Berlin)", "stop_I": "217"}, "id": "112", "type": "Feature", "geometry": {"coordinates": [13.349539, 52.542206], "type": "Point"}}, {"properties": {"name": "U Leopoldplatz (Berlin)", "stop_I": "218"}, "id": "113", "type": "Feature", "geometry": {"coordinates": [13.359401, 52.546497], "type": "Point"}}, {"properties": {"name": "U Seestr. (Berlin)", "stop_I": "219"}, "id": "114", "type": "Feature", "geometry": {"coordinates": [13.351975, 52.550473], "type": "Point"}}, {"properties": {"name": "S+U Wedding (Berlin)", "stop_I": "220"}, "id": "115", "type": "Feature", "geometry": {"coordinates": [13.366065, 52.542735], "type": "Point"}}, {"properties": {"name": "Seestr./Amrumer Str. (Berlin)", "stop_I": "221"}, "id": "116", "type": "Feature", "geometry": {"coordinates": [13.344061, 52.546223], "type": "Point"}}, {"properties": {"name": "Gerichtstr. (Berlin)", "stop_I": "222"}, "id": "117", "type": "Feature", "geometry": {"coordinates": [13.36267, 52.544482], "type": "Point"}}, {"properties": {"name": "Rathaus Wedding (Berlin)", "stop_I": "223"}, "id": "118", "type": "Feature", "geometry": {"coordinates": [13.356582, 52.54785], "type": "Point"}}, {"properties": {"name": "Luxemburger Str. (Berlin)", "stop_I": "224"}, "id": "119", "type": "Feature", "geometry": {"coordinates": [13.355065, 52.544057], "type": "Point"}}, {"properties": {"name": "Samoastr. (Berlin)", "stop_I": "225"}, "id": "120", "type": "Feature", "geometry": {"coordinates": [13.354149, 52.541605], "type": "Point"}}, {"properties": {"name": "Kiautschoustr. (Berlin)", "stop_I": "226"}, "id": "121", "type": "Feature", "geometry": {"coordinates": [13.35767, 52.54107], "type": "Point"}}, {"properties": {"name": "Antwerpener Str. (Berlin)", "stop_I": "227"}, "id": "122", "type": "Feature", "geometry": {"coordinates": [13.348706, 52.548686], "type": "Point"}}, {"properties": {"name": "U Nauener Platz (Berlin)", "stop_I": "228"}, "id": "123", "type": "Feature", "geometry": {"coordinates": [13.36737, 52.551527], "type": "Point"}}, {"properties": {"name": "U Osloer Str. (Berlin)", "stop_I": "229"}, "id": "124", "type": "Feature", "geometry": {"coordinates": [13.37329, 52.556941], "type": "Point"}}, {"properties": {"name": "U Pankstr. (Berlin)", "stop_I": "230"}, "id": "125", "type": "Feature", "geometry": {"coordinates": [13.381842, 52.552258], "type": "Point"}}, {"properties": {"name": "Osloer Str./Prinzenallee (Berlin)", "stop_I": "231"}, "id": "126", "type": "Feature", "geometry": {"coordinates": [13.383668, 52.555939], "type": "Point"}}, {"properties": {"name": "Drontheimer Str. (Berlin)", "stop_I": "232"}, "id": "127", "type": "Feature", "geometry": {"coordinates": [13.377553, 52.556532], "type": "Point"}}, {"properties": {"name": "Maxstr. (Berlin)", "stop_I": "233"}, "id": "128", "type": "Feature", "geometry": {"coordinates": [13.364002, 52.549418], "type": "Point"}}, {"properties": {"name": "Exerzierstr. (Berlin)", "stop_I": "234"}, "id": "129", "type": "Feature", "geometry": {"coordinates": [13.371709, 52.554021], "type": "Point"}}, {"properties": {"name": "Uferstr. (Berlin)", "stop_I": "235"}, "id": "130", "type": "Feature", "geometry": {"coordinates": [13.378173, 52.553263], "type": "Point"}}, {"properties": {"name": "Ritterlandweg/Soldiner Str. (Berlin)", "stop_I": "236"}, "id": "131", "type": "Feature", "geometry": {"coordinates": [13.376935, 52.560332], "type": "Point"}}, {"properties": {"name": "U Osloer Str. (Berlin) [Bus Troms\u00f6er Str.]", "stop_I": "237"}, "id": "132", "type": "Feature", "geometry": {"coordinates": [13.372497, 52.55802], "type": "Point"}}, {"properties": {"name": "Sylter Str. (Berlin)", "stop_I": "238"}, "id": "133", "type": "Feature", "geometry": {"coordinates": [13.33694, 52.542331], "type": "Point"}}, {"properties": {"name": "Virchow-Klinikum (Berlin)", "stop_I": "239"}, "id": "134", "type": "Feature", "geometry": {"coordinates": [13.338744, 52.543497], "type": "Point"}}, {"properties": {"name": "U Rehberge (Berlin)", "stop_I": "240"}, "id": "135", "type": "Feature", "geometry": {"coordinates": [13.341018, 52.556673], "type": "Point"}}, {"properties": {"name": "U Afrikanische Str. (Berlin)", "stop_I": "241"}, "id": "136", "type": "Feature", "geometry": {"coordinates": [13.333507, 52.560865], "type": "Point"}}, {"properties": {"name": "Otawistr. (Berlin)", "stop_I": "242"}, "id": "137", "type": "Feature", "geometry": {"coordinates": [13.336886, 52.552685], "type": "Point"}}, {"properties": {"name": "Glasgower Str. (Berlin)", "stop_I": "243"}, "id": "138", "type": "Feature", "geometry": {"coordinates": [13.345978, 52.554918], "type": "Point"}}, {"properties": {"name": "Londoner Str. (Berlin)", "stop_I": "244"}, "id": "139", "type": "Feature", "geometry": {"coordinates": [13.342904, 52.563365], "type": "Point"}}, {"properties": {"name": "T\u00fcrkenstr. (Berlin)", "stop_I": "245"}, "id": "140", "type": "Feature", "geometry": {"coordinates": [13.346598, 52.553509], "type": "Point"}}, {"properties": {"name": "Bristolstr. (Berlin)", "stop_I": "246"}, "id": "141", "type": "Feature", "geometry": {"coordinates": [13.351619, 52.558566], "type": "Point"}}, {"properties": {"name": "Septimerstr. (Berlin)", "stop_I": "247"}, "id": "142", "type": "Feature", "geometry": {"coordinates": [13.338713, 52.564257], "type": "Point"}}, {"properties": {"name": "Nachtigalplatz (Berlin)", "stop_I": "248"}, "id": "143", "type": "Feature", "geometry": {"coordinates": [13.334656, 52.556934], "type": "Point"}}, {"properties": {"name": "Transvaalstr. (Berlin)", "stop_I": "249"}, "id": "144", "type": "Feature", "geometry": {"coordinates": [13.338892, 52.550775], "type": "Point"}}, {"properties": {"name": "Louise-Schroeder-Platz (Berlin)", "stop_I": "250"}, "id": "145", "type": "Feature", "geometry": {"coordinates": [13.365608, 52.556985], "type": "Point"}}, {"properties": {"name": "Holl\u00e4nderstr./Aroser Allee (Berlin)", "stop_I": "251"}, "id": "146", "type": "Feature", "geometry": {"coordinates": [13.353763, 52.562091], "type": "Point"}}, {"properties": {"name": "Brienzer Str. (Berlin)", "stop_I": "252"}, "id": "147", "type": "Feature", "geometry": {"coordinates": [13.359584, 52.561952], "type": "Point"}}, {"properties": {"name": "Iranische Str. (Berlin)", "stop_I": "253"}, "id": "148", "type": "Feature", "geometry": {"coordinates": [13.365962, 52.555067], "type": "Point"}}, {"properties": {"name": "Osram-H\u00f6fe (Berlin)", "stop_I": "254"}, "id": "149", "type": "Feature", "geometry": {"coordinates": [13.358296, 52.553699], "type": "Point"}}, {"properties": {"name": "S Anhalter Bahnhof (Berlin)", "stop_I": "255"}, "id": "150", "type": "Feature", "geometry": {"coordinates": [13.382082, 52.504542], "type": "Point"}}, {"properties": {"name": "U Kochstr./Checkpoint Charlie (Berlin)", "stop_I": "256"}, "id": "151", "type": "Feature", "geometry": {"coordinates": [13.390869, 52.506677], "type": "Point"}}, {"properties": {"name": "U Hallesches Tor (Berlin)", "stop_I": "257"}, "id": "152", "type": "Feature", "geometry": {"coordinates": [13.391766, 52.497778], "type": "Point"}}, {"properties": {"name": "Lindenstr./Oranienstr. (Berlin)", "stop_I": "258"}, "id": "153", "type": "Feature", "geometry": {"coordinates": [13.398375, 52.506966], "type": "Point"}}, {"properties": {"name": "Abgeordnetenhaus (Berlin)", "stop_I": "259"}, "id": "154", "type": "Feature", "geometry": {"coordinates": [13.379671, 52.506556], "type": "Point"}}, {"properties": {"name": "Mehringbr\u00fccke (Berlin)", "stop_I": "260"}, "id": "155", "type": "Feature", "geometry": {"coordinates": [13.389269, 52.497978], "type": "Point"}}, {"properties": {"name": "Willy-Brandt-Haus (Berlin)", "stop_I": "261"}, "id": "156", "type": "Feature", "geometry": {"coordinates": [13.387446, 52.500417], "type": "Point"}}, {"properties": {"name": "Bl\u00fccherstr. (Berlin)", "stop_I": "262"}, "id": "157", "type": "Feature", "geometry": {"coordinates": [13.396621, 52.495788], "type": "Point"}}, {"properties": {"name": "Wilhelmstr./Kochstr. (Berlin)", "stop_I": "263"}, "id": "158", "type": "Feature", "geometry": {"coordinates": [13.386367, 52.505894], "type": "Point"}}, {"properties": {"name": "Charlottenstr. (Berlin)", "stop_I": "264"}, "id": "159", "type": "Feature", "geometry": {"coordinates": [13.393541, 52.506888], "type": "Point"}}, {"properties": {"name": "Waldeckpark (Berlin)", "stop_I": "265"}, "id": "160", "type": "Feature", "geometry": {"coordinates": [13.40184, 52.506179], "type": "Point"}}, {"properties": {"name": "Alexandrinenstr. (Berlin)", "stop_I": "266"}, "id": "161", "type": "Feature", "geometry": {"coordinates": [13.405328, 52.505158], "type": "Point"}}, {"properties": {"name": "J\u00fcdisches Museum (Berlin)", "stop_I": "267"}, "id": "162", "type": "Feature", "geometry": {"coordinates": [13.395645, 52.503547], "type": "Point"}}, {"properties": {"name": "Franz-Kl\u00fchs-Str. (Berlin)", "stop_I": "268"}, "id": "163", "type": "Feature", "geometry": {"coordinates": [13.394809, 52.50042], "type": "Point"}}, {"properties": {"name": "Wilhelmstr./Franz-Kl\u00fchs-Str. (Berlin)", "stop_I": "269"}, "id": "164", "type": "Feature", "geometry": {"coordinates": [13.388611, 52.501419], "type": "Point"}}, {"properties": {"name": "U Moritzplatz (Berlin)", "stop_I": "270"}, "id": "165", "type": "Feature", "geometry": {"coordinates": [13.410953, 52.503743], "type": "Point"}}, {"properties": {"name": "U Kottbusser Tor (Berlin)", "stop_I": "271"}, "id": "166", "type": "Feature", "geometry": {"coordinates": [13.417753, 52.499051], "type": "Point"}}, {"properties": {"name": "U Prinzenstr. (Berlin)", "stop_I": "272"}, "id": "167", "type": "Feature", "geometry": {"coordinates": [13.406537, 52.498277], "type": "Point"}}, {"properties": {"name": "Prinzenstr./Ritterstr. (Berlin)", "stop_I": "273"}, "id": "168", "type": "Feature", "geometry": {"coordinates": [13.409281, 52.501651], "type": "Point"}}, {"properties": {"name": "Segitzdamm (Berlin)", "stop_I": "274"}, "id": "169", "type": "Feature", "geometry": {"coordinates": [13.414346, 52.500242], "type": "Point"}}, {"properties": {"name": "Oranienplatz (Berlin)", "stop_I": "275"}, "id": "170", "type": "Feature", "geometry": {"coordinates": [13.415736, 52.502248], "type": "Point"}}, {"properties": {"name": "U Kottbusser Tor (Berlin) [Bus Adalbertstr.]", "stop_I": "276"}, "id": "171", "type": "Feature", "geometry": {"coordinates": [13.418384, 52.499897], "type": "Point"}}, {"properties": {"name": "U Kottbusser Tor (Berlin) [Bus Reichenbg. Str.]", "stop_I": "277"}, "id": "172", "type": "Feature", "geometry": {"coordinates": [13.416765, 52.499449], "type": "Point"}}, {"properties": {"name": "U Kottbusser Tor (Berlin) [Bus Kottbusser Str.]", "stop_I": "278"}, "id": "173", "type": "Feature", "geometry": {"coordinates": [13.419011, 52.498308], "type": "Point"}}, {"properties": {"name": "U G\u00f6rlitzer Bahnhof (Berlin)", "stop_I": "279"}, "id": "174", "type": "Feature", "geometry": {"coordinates": [13.428474, 52.499039], "type": "Point"}}, {"properties": {"name": "U Schlesisches Tor (Berlin)", "stop_I": "280"}, "id": "175", "type": "Feature", "geometry": {"coordinates": [13.441796, 52.501151], "type": "Point"}}, {"properties": {"name": "Adalbertstr./Oranienstr. (Berlin)", "stop_I": "281"}, "id": "176", "type": "Feature", "geometry": {"coordinates": [13.419298, 52.501288], "type": "Point"}}, {"properties": {"name": "Manteuffelstr./K\u00f6penicker Str. (Berlin)", "stop_I": "282"}, "id": "177", "type": "Feature", "geometry": {"coordinates": [13.432016, 52.505638], "type": "Point"}}, {"properties": {"name": "Waldemarstr./Manteuffelstr. (Berlin)", "stop_I": "283"}, "id": "178", "type": "Feature", "geometry": {"coordinates": [13.427925, 52.501175], "type": "Point"}}, {"properties": {"name": "Lausitzer Platz (Berlin)", "stop_I": "284"}, "id": "179", "type": "Feature", "geometry": {"coordinates": [13.431919, 52.499473], "type": "Point"}}, {"properties": {"name": "Bethaniendamm (Berlin)", "stop_I": "285"}, "id": "180", "type": "Feature", "geometry": {"coordinates": [13.428444, 52.507218], "type": "Point"}}, {"properties": {"name": "Waldemarstr./Adalbertstr. (Berlin)", "stop_I": "286"}, "id": "181", "type": "Feature", "geometry": {"coordinates": [13.421824, 52.502894], "type": "Point"}}, {"properties": {"name": "Mariannenplatz (Berlin)", "stop_I": "287"}, "id": "182", "type": "Feature", "geometry": {"coordinates": [13.424423, 52.502206], "type": "Point"}}, {"properties": {"name": "Wrangelstr. (Berlin)", "stop_I": "288"}, "id": "183", "type": "Feature", "geometry": {"coordinates": [13.430017, 52.503496], "type": "Point"}}, {"properties": {"name": "Eisenbahnstr. (Berlin)", "stop_I": "289"}, "id": "184", "type": "Feature", "geometry": {"coordinates": [13.434939, 52.504479], "type": "Point"}}, {"properties": {"name": "Falckensteinstr. (Berlin)", "stop_I": "290"}, "id": "185", "type": "Feature", "geometry": {"coordinates": [13.443955, 52.500055], "type": "Point"}}, {"properties": {"name": "Heinrichplatz (Berlin)", "stop_I": "291"}, "id": "186", "type": "Feature", "geometry": {"coordinates": [13.422918, 52.500274], "type": "Point"}}, {"properties": {"name": "Heckmannufer (Berlin)", "stop_I": "292"}, "id": "187", "type": "Feature", "geometry": {"coordinates": [13.449304, 52.497015], "type": "Point"}}, {"properties": {"name": "Glogauer Str. (Berlin)", "stop_I": "293"}, "id": "188", "type": "Feature", "geometry": {"coordinates": [13.437277, 52.49354], "type": "Point"}}, {"properties": {"name": "Ohlauer Str. (Berlin)", "stop_I": "294"}, "id": "189", "type": "Feature", "geometry": {"coordinates": [13.430482, 52.495572], "type": "Point"}}, {"properties": {"name": "Taborstr. (Berlin)", "stop_I": "295"}, "id": "190", "type": "Feature", "geometry": {"coordinates": [13.447267, 52.498217], "type": "Point"}}, {"properties": {"name": "Spreewaldplatz (Berlin)", "stop_I": "296"}, "id": "191", "type": "Feature", "geometry": {"coordinates": [13.431285, 52.497648], "type": "Point"}}, {"properties": {"name": "U Gneisenaustr. (Berlin)", "stop_I": "297"}, "id": "192", "type": "Feature", "geometry": {"coordinates": [13.395388, 52.491255], "type": "Point"}}, {"properties": {"name": "Zossener Br\u00fccke (Berlin)", "stop_I": "298"}, "id": "193", "type": "Feature", "geometry": {"coordinates": [13.395851, 52.498431], "type": "Point"}}, {"properties": {"name": "Marheinekeplatz (Berlin)", "stop_I": "299"}, "id": "194", "type": "Feature", "geometry": {"coordinates": [13.393827, 52.489386], "type": "Point"}}, {"properties": {"name": "J\u00fcterboger Str. (Berlin)", "stop_I": "300"}, "id": "195", "type": "Feature", "geometry": {"coordinates": [13.39442, 52.486252], "type": "Point"}}, {"properties": {"name": "Gneisenaustr./Baerwaldstr. (Berlin)", "stop_I": "301"}, "id": "196", "type": "Feature", "geometry": {"coordinates": [13.400219, 52.490389], "type": "Point"}}, {"properties": {"name": "Urbanstr./Baerwaldstr. (Berlin)", "stop_I": "302"}, "id": "197", "type": "Feature", "geometry": {"coordinates": [13.403188, 52.493913], "type": "Point"}}, {"properties": {"name": "Tempelherrenstr. (Berlin)", "stop_I": "303"}, "id": "198", "type": "Feature", "geometry": {"coordinates": [13.400639, 52.494339], "type": "Point"}}, {"properties": {"name": "U Sch\u00f6nleinstr. (Berlin)", "stop_I": "304"}, "id": "199", "type": "Feature", "geometry": {"coordinates": [13.422247, 52.493182], "type": "Point"}}, {"properties": {"name": "U S\u00fcdstern (Berlin)", "stop_I": "305"}, "id": "200", "type": "Feature", "geometry": {"coordinates": [13.407691, 52.489222], "type": "Point"}}, {"properties": {"name": "Geibelstr. (Berlin)", "stop_I": "306"}, "id": "201", "type": "Feature", "geometry": {"coordinates": [13.406792, 52.493367], "type": "Point"}}, {"properties": {"name": "K\u00f6rtestr. (Berlin)", "stop_I": "307"}, "id": "202", "type": "Feature", "geometry": {"coordinates": [13.412345, 52.492043], "type": "Point"}}, {"properties": {"name": "Hasenheide (Berlin)", "stop_I": "308"}, "id": "203", "type": "Feature", "geometry": {"coordinates": [13.418974, 52.487559], "type": "Point"}}, {"properties": {"name": "Fichtestr. (Berlin)", "stop_I": "309"}, "id": "204", "type": "Feature", "geometry": {"coordinates": [13.412992, 52.488341], "type": "Point"}}, {"properties": {"name": "Graefestr. (Berlin)", "stop_I": "310"}, "id": "205", "type": "Feature", "geometry": {"coordinates": [13.416154, 52.490972], "type": "Point"}}, {"properties": {"name": "Wilmsstr. (Berlin)", "stop_I": "311"}, "id": "206", "type": "Feature", "geometry": {"coordinates": [13.404347, 52.495194], "type": "Point"}}, {"properties": {"name": "Kottbusser Br\u00fccke (Berlin)", "stop_I": "312"}, "id": "207", "type": "Feature", "geometry": {"coordinates": [13.420703, 52.495537], "type": "Point"}}, {"properties": {"name": "Obentrautstr./U Mehringdamm (Berlin)", "stop_I": "313"}, "id": "208", "type": "Feature", "geometry": {"coordinates": [13.389348, 52.49582], "type": "Point"}}, {"properties": {"name": "U Mehringdamm (Berlin)", "stop_I": "314"}, "id": "209", "type": "Feature", "geometry": {"coordinates": [13.388158, 52.493578], "type": "Point"}}, {"properties": {"name": "U Platz der Luftbr\u00fccke (Berlin)", "stop_I": "315"}, "id": "210", "type": "Feature", "geometry": {"coordinates": [13.386356, 52.484981], "type": "Point"}}, {"properties": {"name": "U Gleisdreieck (Berlin)", "stop_I": "316"}, "id": "211", "type": "Feature", "geometry": {"coordinates": [13.374299, 52.499591], "type": "Point"}}, {"properties": {"name": "U M\u00f6ckernbr\u00fccke (Berlin)", "stop_I": "317"}, "id": "212", "type": "Feature", "geometry": {"coordinates": [13.383262, 52.498947], "type": "Point"}}, {"properties": {"name": "Yorckstr./Gro\u00dfbeerenstr. (Berlin)", "stop_I": "318"}, "id": "213", "type": "Feature", "geometry": {"coordinates": [13.383831, 52.493638], "type": "Point"}}, {"properties": {"name": "Kaiserkorso (Berlin)", "stop_I": "320"}, "id": "214", "type": "Feature", "geometry": {"coordinates": [13.384297, 52.484097], "type": "Point"}}, {"properties": {"name": "Katzbachstr./Kreuzbergstr. (Berlin)", "stop_I": "321"}, "id": "215", "type": "Feature", "geometry": {"coordinates": [13.37707, 52.489313], "type": "Point"}}, {"properties": {"name": "Bergmannstr. (Berlin)", "stop_I": "322"}, "id": "216", "type": "Feature", "geometry": {"coordinates": [13.386517, 52.490074], "type": "Point"}}, {"properties": {"name": "Kreuzberg/Wasserfall (Berlin)", "stop_I": "323"}, "id": "217", "type": "Feature", "geometry": {"coordinates": [13.382338, 52.490177], "type": "Point"}}, {"properties": {"name": "U Mehringdamm (Berlin)", "stop_I": "324"}, "id": "218", "type": "Feature", "geometry": {"coordinates": [13.388398, 52.492776], "type": "Point"}}, {"properties": {"name": "Columbiadamm/Platz der Luftbr\u00fccke (Berlin)", "stop_I": "325"}, "id": "219", "type": "Feature", "geometry": {"coordinates": [13.390017, 52.484362], "type": "Point"}}, {"properties": {"name": "U Jakob-Kaiser-Platz (Berlin)", "stop_I": "326"}, "id": "220", "type": "Feature", "geometry": {"coordinates": [13.293667, 52.536988], "type": "Point"}}, {"properties": {"name": "U Halemweg (Berlin)", "stop_I": "327"}, "id": "221", "type": "Feature", "geometry": {"coordinates": [13.286584, 52.536706], "type": "Point"}}, {"properties": {"name": "Weltlingerbr\u00fccke (Berlin)", "stop_I": "328"}, "id": "222", "type": "Feature", "geometry": {"coordinates": [13.29507, 52.539579], "type": "Point"}}, {"properties": {"name": "Hinckeldeybr\u00fccke (Berlin)", "stop_I": "329"}, "id": "223", "type": "Feature", "geometry": {"coordinates": [13.299228, 52.546624], "type": "Point"}}, {"properties": {"name": "Goerdelerdamm (Berlin)", "stop_I": "330"}, "id": "224", "type": "Feature", "geometry": {"coordinates": [13.298176, 52.534953], "type": "Point"}}, {"properties": {"name": "Habermannzeile (Berlin)", "stop_I": "331"}, "id": "225", "type": "Feature", "geometry": {"coordinates": [13.291284, 52.539675], "type": "Point"}}, {"properties": {"name": "Hofackerzeile (Berlin)", "stop_I": "332"}, "id": "226", "type": "Feature", "geometry": {"coordinates": [13.29087, 52.537109], "type": "Point"}}, {"properties": {"name": "Dahrendorfzeile (Berlin)", "stop_I": "333"}, "id": "227", "type": "Feature", "geometry": {"coordinates": [13.289044, 52.535151], "type": "Point"}}, {"properties": {"name": "Gloedenpfad (Berlin)", "stop_I": "334"}, "id": "228", "type": "Feature", "geometry": {"coordinates": [13.30214, 52.539412], "type": "Point"}}, {"properties": {"name": "Seestr./Beusselstr. (Berlin)", "stop_I": "335"}, "id": "229", "type": "Feature", "geometry": {"coordinates": [13.326351, 52.538253], "type": "Point"}}, {"properties": {"name": "Buchholzweg (Berlin)", "stop_I": "336"}, "id": "230", "type": "Feature", "geometry": {"coordinates": [13.317799, 52.546976], "type": "Point"}}, {"properties": {"name": "Gedenkst\u00e4tte Pl\u00f6tzensee (Berlin)", "stop_I": "337"}, "id": "231", "type": "Feature", "geometry": {"coordinates": [13.324389, 52.542104], "type": "Point"}}, {"properties": {"name": "Friedrich-Olbricht-Damm/Saatwinkler Damm (Berlin)", "stop_I": "338"}, "id": "232", "type": "Feature", "geometry": {"coordinates": [13.312582, 52.547556], "type": "Point"}}, {"properties": {"name": "Stieffring (Berlin)", "stop_I": "339"}, "id": "233", "type": "Feature", "geometry": {"coordinates": [13.31273, 52.545082], "type": "Point"}}, {"properties": {"name": "Thaters Privatweg (Berlin)", "stop_I": "340"}, "id": "234", "type": "Feature", "geometry": {"coordinates": [13.310115, 52.53945], "type": "Point"}}, {"properties": {"name": "Kolonie Zukunft (Berlin)", "stop_I": "341"}, "id": "235", "type": "Feature", "geometry": {"coordinates": [13.305237, 52.539467], "type": "Point"}}, {"properties": {"name": "Berliner Gro\u00dfmarkt (Berlin)", "stop_I": "342"}, "id": "236", "type": "Feature", "geometry": {"coordinates": [13.32701, 52.536655], "type": "Point"}}, {"properties": {"name": "Reichweindamm (Berlin)", "stop_I": "343"}, "id": "237", "type": "Feature", "geometry": {"coordinates": [13.300407, 52.535656], "type": "Point"}}, {"properties": {"name": "Friedrich-Olbricht-Damm/Heckerdamm (Berlin)", "stop_I": "344"}, "id": "238", "type": "Feature", "geometry": {"coordinates": [13.314973, 52.54122], "type": "Point"}}, {"properties": {"name": "U Mierendorffplatz (Berlin)", "stop_I": "345"}, "id": "239", "type": "Feature", "geometry": {"coordinates": [13.305721, 52.525981], "type": "Point"}}, {"properties": {"name": "Quedlinburger Str. (Berlin)", "stop_I": "346"}, "id": "240", "type": "Feature", "geometry": {"coordinates": [13.305925, 52.522924], "type": "Point"}}, {"properties": {"name": "Wirmerzeile (Berlin)", "stop_I": "347"}, "id": "241", "type": "Feature", "geometry": {"coordinates": [13.302714, 52.536907], "type": "Point"}}, {"properties": {"name": "Keplerstr. (Berlin)", "stop_I": "348"}, "id": "242", "type": "Feature", "geometry": {"coordinates": [13.304871, 52.528148], "type": "Point"}}, {"properties": {"name": "Friedh\u00f6fe F\u00fcrstenbrunner Weg (Berlin)", "stop_I": "349"}, "id": "243", "type": "Feature", "geometry": {"coordinates": [13.279301, 52.524473], "type": "Point"}}, {"properties": {"name": "Rohrdammbr\u00fccke (Berlin)", "stop_I": "350"}, "id": "244", "type": "Feature", "geometry": {"coordinates": [13.269796, 52.528502], "type": "Point"}}, {"properties": {"name": "Kirschenallee (Berlin)", "stop_I": "351"}, "id": "245", "type": "Feature", "geometry": {"coordinates": [13.267234, 52.520388], "type": "Point"}}, {"properties": {"name": "Machandelweg (Berlin)", "stop_I": "352"}, "id": "246", "type": "Feature", "geometry": {"coordinates": [13.245068, 52.524829], "type": "Point"}}, {"properties": {"name": "F\u00fcrstenbrunner Weg (Berlin)", "stop_I": "353"}, "id": "247", "type": "Feature", "geometry": {"coordinates": [13.279936, 52.520961], "type": "Point"}}, {"properties": {"name": "Kastanienallee (Berlin)", "stop_I": "354"}, "id": "248", "type": "Feature", "geometry": {"coordinates": [13.272233, 52.519516], "type": "Point"}}, {"properties": {"name": "DRK-Kliniken Westend (Berlin)", "stop_I": "355"}, "id": "249", "type": "Feature", "geometry": {"coordinates": [13.276438, 52.518716], "type": "Point"}}, {"properties": {"name": "S+U Jungfernheide Bhf (Berlin)", "stop_I": "356"}, "id": "250", "type": "Feature", "geometry": {"coordinates": [13.299069, 52.530279], "type": "Point"}}, {"properties": {"name": "S Beusselstr. (Berlin)", "stop_I": "357"}, "id": "251", "type": "Feature", "geometry": {"coordinates": [13.328708, 52.534317], "type": "Point"}}, {"properties": {"name": "Sophie-Charlotten-Str. (Berlin)", "stop_I": "358"}, "id": "252", "type": "Feature", "geometry": {"coordinates": [13.286798, 52.518819], "type": "Point"}}, {"properties": {"name": "Pulsstr. (Berlin)", "stop_I": "359"}, "id": "253", "type": "Feature", "geometry": {"coordinates": [13.285618, 52.524323], "type": "Point"}}, {"properties": {"name": "Tegeler Weg/S Jungfernheide (Berlin)", "stop_I": "360"}, "id": "254", "type": "Feature", "geometry": {"coordinates": [13.296244, 52.529411], "type": "Point"}}, {"properties": {"name": "Osnabr\u00fccker Str. (Berlin)", "stop_I": "361"}, "id": "255", "type": "Feature", "geometry": {"coordinates": [13.297393, 52.526918], "type": "Point"}}, {"properties": {"name": "Schlossbr\u00fccke (Berlin)", "stop_I": "362"}, "id": "256", "type": "Feature", "geometry": {"coordinates": [13.299914, 52.522945], "type": "Point"}}, {"properties": {"name": "Mollwitzstr. (Berlin)", "stop_I": "363"}, "id": "257", "type": "Feature", "geometry": {"coordinates": [13.285909, 52.522172], "type": "Point"}}, {"properties": {"name": "Schlosspark-Klinik (Berlin)", "stop_I": "364"}, "id": "258", "type": "Feature", "geometry": {"coordinates": [13.288742, 52.522842], "type": "Point"}}, {"properties": {"name": "Goerdelersteg (Berlin)", "stop_I": "365"}, "id": "259", "type": "Feature", "geometry": {"coordinates": [13.305905, 52.532181], "type": "Point"}}, {"properties": {"name": "Marchbr\u00fccke (Berlin)", "stop_I": "366"}, "id": "260", "type": "Feature", "geometry": {"coordinates": [13.323756, 52.517153], "type": "Point"}}, {"properties": {"name": "Marchstr. (Berlin)", "stop_I": "367"}, "id": "261", "type": "Feature", "geometry": {"coordinates": [13.322644, 52.513499], "type": "Point"}}, {"properties": {"name": "Franklinstr. (Berlin)", "stop_I": "368"}, "id": "262", "type": "Feature", "geometry": {"coordinates": [13.328146, 52.522047], "type": "Point"}}, {"properties": {"name": "Helmholtzstr. (Berlin)", "stop_I": "369"}, "id": "263", "type": "Feature", "geometry": {"coordinates": [13.321244, 52.52083], "type": "Point"}}, {"properties": {"name": "U Sophie-Charlotte-Platz (Berlin)", "stop_I": "370"}, "id": "264", "type": "Feature", "geometry": {"coordinates": [13.297469, 52.510974], "type": "Point"}}, {"properties": {"name": "Klausenerplatz (Berlin)", "stop_I": "371"}, "id": "265", "type": "Feature", "geometry": {"coordinates": [13.291374, 52.519129], "type": "Point"}}, {"properties": {"name": "Haubachstr. (Berlin)", "stop_I": "372"}, "id": "266", "type": "Feature", "geometry": {"coordinates": [13.300869, 52.515394], "type": "Point"}}, {"properties": {"name": "Bismarckstr./Kaiser-Friedrich-Str. (Berlin)", "stop_I": "373"}, "id": "267", "type": "Feature", "geometry": {"coordinates": [13.301602, 52.511288], "type": "Point"}}, {"properties": {"name": "Eosanderstr. (Berlin)", "stop_I": "374"}, "id": "268", "type": "Feature", "geometry": {"coordinates": [13.304019, 52.518271], "type": "Point"}}, {"properties": {"name": "Seelingstr. (Berlin)", "stop_I": "375"}, "id": "269", "type": "Feature", "geometry": {"coordinates": [13.296449, 52.516377], "type": "Point"}}, {"properties": {"name": "Zillestr. (Berlin)", "stop_I": "376"}, "id": "270", "type": "Feature", "geometry": {"coordinates": [13.296906, 52.513371], "type": "Point"}}, {"properties": {"name": "Schloss Charlottenburg (Berlin)", "stop_I": "377"}, "id": "271", "type": "Feature", "geometry": {"coordinates": [13.29596, 52.519258], "type": "Point"}}, {"properties": {"name": "Luisenplatz/Schloss Charlottenburg (Berlin)", "stop_I": "378"}, "id": "272", "type": "Feature", "geometry": {"coordinates": [13.299637, 52.519578], "type": "Point"}}, {"properties": {"name": "U Deutsche Oper (Berlin)", "stop_I": "379"}, "id": "273", "type": "Feature", "geometry": {"coordinates": [13.309425, 52.511831], "type": "Point"}}, {"properties": {"name": "U Richard-Wagner-Platz (Berlin)", "stop_I": "380"}, "id": "274", "type": "Feature", "geometry": {"coordinates": [13.307227, 52.517157], "type": "Point"}}, {"properties": {"name": "Dovebr\u00fccke (Berlin)", "stop_I": "381"}, "id": "275", "type": "Feature", "geometry": {"coordinates": [13.320274, 52.518441], "type": "Point"}}, {"properties": {"name": "Guerickestr. (Berlin)", "stop_I": "382"}, "id": "276", "type": "Feature", "geometry": {"coordinates": [13.317447, 52.517511], "type": "Point"}}, {"properties": {"name": "Warburgzeile (Berlin)", "stop_I": "383"}, "id": "277", "type": "Feature", "geometry": {"coordinates": [13.31041, 52.516214], "type": "Point"}}, {"properties": {"name": "U Ernst-Reuter-Platz (Berlin)", "stop_I": "384"}, "id": "278", "type": "Feature", "geometry": {"coordinates": [13.322587, 52.511585], "type": "Point"}}, {"properties": {"name": "Otto-Suhr-Allee/Leibnizstr. (Berlin)", "stop_I": "385"}, "id": "279", "type": "Feature", "geometry": {"coordinates": [13.315254, 52.514642], "type": "Point"}}, {"properties": {"name": "Uhlandstr./Kantstr. (Berlin)", "stop_I": "386"}, "id": "280", "type": "Feature", "geometry": {"coordinates": [13.325736, 52.505627], "type": "Point"}}, {"properties": {"name": "Steinplatz (Berlin)", "stop_I": "387"}, "id": "281", "type": "Feature", "geometry": {"coordinates": [13.326208, 52.509046], "type": "Point"}}, {"properties": {"name": "Jebensstr. (Berlin)", "stop_I": "388"}, "id": "282", "type": "Feature", "geometry": {"coordinates": [13.330436, 52.507129], "type": "Point"}}, {"properties": {"name": "S+U Zoologischer Garten Bhf (Berlin)", "stop_I": "389"}, "id": "283", "type": "Feature", "geometry": {"coordinates": [13.332713, 52.506924], "type": "Point"}}, {"properties": {"name": "U Augsburger Str. (Berlin)", "stop_I": "390"}, "id": "284", "type": "Feature", "geometry": {"coordinates": [13.336776, 52.50056], "type": "Point"}}, {"properties": {"name": "U Kurf\u00fcrstendamm (Berlin)", "stop_I": "391"}, "id": "285", "type": "Feature", "geometry": {"coordinates": [13.331424, 52.503766], "type": "Point"}}, {"properties": {"name": "Europa-Center (Berlin)", "stop_I": "392"}, "id": "286", "type": "Feature", "geometry": {"coordinates": [13.337261, 52.503934], "type": "Point"}}, {"properties": {"name": "Joachimsthaler Str./Kantstr. (Berlin)", "stop_I": "393"}, "id": "287", "type": "Feature", "geometry": {"coordinates": [13.330809, 52.505355], "type": "Point"}}, {"properties": {"name": "Breitscheidplatz (Berlin)", "stop_I": "394"}, "id": "288", "type": "Feature", "geometry": {"coordinates": [13.337207, 52.505049], "type": "Point"}}, {"properties": {"name": "U Uhlandstr. (Berlin)", "stop_I": "395"}, "id": "289", "type": "Feature", "geometry": {"coordinates": [13.326239, 52.502746], "type": "Point"}}, {"properties": {"name": "U Adenauerplatz (Berlin)", "stop_I": "396"}, "id": "290", "type": "Feature", "geometry": {"coordinates": [13.307353, 52.500089], "type": "Point"}}, {"properties": {"name": "Olivaer Platz (Berlin)", "stop_I": "397"}, "id": "291", "type": "Feature", "geometry": {"coordinates": [13.313004, 52.500943], "type": "Point"}}, {"properties": {"name": "Lietzenburger Str./Uhlandstr. (Berlin)", "stop_I": "398"}, "id": "292", "type": "Feature", "geometry": {"coordinates": [13.325465, 52.500031], "type": "Point"}}, {"properties": {"name": "Olivaer Platz S\u00fcd (Berlin)", "stop_I": "399"}, "id": "293", "type": "Feature", "geometry": {"coordinates": [13.312919, 52.49956], "type": "Point"}}, {"properties": {"name": "Bleibtreustr. (Berlin)", "stop_I": "400"}, "id": "294", "type": "Feature", "geometry": {"coordinates": [13.32017, 52.501735], "type": "Point"}}, {"properties": {"name": "Pariser Str. (Berlin)", "stop_I": "401"}, "id": "295", "type": "Feature", "geometry": {"coordinates": [13.324429, 52.497913], "type": "Point"}}, {"properties": {"name": "Friedrich-Hollaender-Platz (Berlin)", "stop_I": "402"}, "id": "296", "type": "Feature", "geometry": {"coordinates": [13.330735, 52.500449], "type": "Point"}}, {"properties": {"name": "S Charlottenburg Bhf (Berlin)", "stop_I": "403"}, "id": "297", "type": "Feature", "geometry": {"coordinates": [13.305218, 52.505056], "type": "Point"}}, {"properties": {"name": "S Westkreuz (Berlin)", "stop_I": "404"}, "id": "298", "type": "Feature", "geometry": {"coordinates": [13.283042, 52.501155], "type": "Point"}}, {"properties": {"name": "Amtsgerichtsplatz (Berlin)", "stop_I": "405"}, "id": "299", "type": "Feature", "geometry": {"coordinates": [13.295433, 52.506862], "type": "Point"}}, {"properties": {"name": "S Messe Nord/ICC (Berlin)", "stop_I": "406"}, "id": "300", "type": "Feature", "geometry": {"coordinates": [13.283049, 52.506458], "type": "Point"}}, {"properties": {"name": "Kaiser-Friedrich-Str./Kantstr. (Berlin)", "stop_I": "407"}, "id": "301", "type": "Feature", "geometry": {"coordinates": [13.3025, 52.506784], "type": "Point"}}, {"properties": {"name": "Kuno-Fischer-Str. (Berlin)", "stop_I": "408"}, "id": "302", "type": "Feature", "geometry": {"coordinates": [13.289784, 52.506618], "type": "Point"}}, {"properties": {"name": "Hindemithplatz (Berlin)", "stop_I": "409"}, "id": "303", "type": "Feature", "geometry": {"coordinates": [13.307711, 52.503222], "type": "Point"}}, {"properties": {"name": "U Wilmersdorfer Str./Kantstr. (Berlin)", "stop_I": "410"}, "id": "304", "type": "Feature", "geometry": {"coordinates": [13.307062, 52.506644], "type": "Point"}}, {"properties": {"name": "U Bismarckstr. (Berlin)", "stop_I": "411"}, "id": "305", "type": "Feature", "geometry": {"coordinates": [13.305292, 52.511517], "type": "Point"}}, {"properties": {"name": "U Wilmersdorfer Str. (Berlin)", "stop_I": "412"}, "id": "306", "type": "Feature", "geometry": {"coordinates": [13.306891, 52.505837], "type": "Point"}}, {"properties": {"name": "S Savignyplatz (Berlin)", "stop_I": "413"}, "id": "307", "type": "Feature", "geometry": {"coordinates": [13.319008, 52.505226], "type": "Point"}}, {"properties": {"name": "Savignyplatz (Berlin)", "stop_I": "414"}, "id": "308", "type": "Feature", "geometry": {"coordinates": [13.322384, 52.505818], "type": "Point"}}, {"properties": {"name": "Kantstr./Leibnizstr. (Berlin)", "stop_I": "415"}, "id": "309", "type": "Feature", "geometry": {"coordinates": [13.313974, 52.506298], "type": "Point"}}, {"properties": {"name": "Bismarckstr./Leibnizstr. (Berlin)", "stop_I": "416"}, "id": "310", "type": "Feature", "geometry": {"coordinates": [13.314781, 52.512131], "type": "Point"}}, {"properties": {"name": "Goethestr. (Berlin)", "stop_I": "417"}, "id": "311", "type": "Feature", "geometry": {"coordinates": [13.314315, 52.508829], "type": "Point"}}, {"properties": {"name": "Schl\u00fcterstr. (Berlin)", "stop_I": "418"}, "id": "312", "type": "Feature", "geometry": {"coordinates": [13.317649, 52.506077], "type": "Point"}}, {"properties": {"name": "Mommsenstr. (Berlin)", "stop_I": "419"}, "id": "313", "type": "Feature", "geometry": {"coordinates": [13.313591, 52.503336], "type": "Point"}}, {"properties": {"name": "Scholzplatz (Berlin)", "stop_I": "420"}, "id": "314", "type": "Feature", "geometry": {"coordinates": [13.228293, 52.506599], "type": "Point"}}, {"properties": {"name": "Ragniter Allee (Berlin)", "stop_I": "421"}, "id": "315", "type": "Feature", "geometry": {"coordinates": [13.235302, 52.507092], "type": "Point"}}, {"properties": {"name": "Mohrunger Allee (Berlin)", "stop_I": "422"}, "id": "316", "type": "Feature", "geometry": {"coordinates": [13.249348, 52.507942], "type": "Point"}}, {"properties": {"name": "Am Postfenn (Berlin)", "stop_I": "423"}, "id": "317", "type": "Feature", "geometry": {"coordinates": [13.209544, 52.500735], "type": "Point"}}, {"properties": {"name": "Schildhorn (Berlin)", "stop_I": "424"}, "id": "318", "type": "Feature", "geometry": {"coordinates": [13.19951, 52.494573], "type": "Point"}}, {"properties": {"name": "U Ruhleben (Berlin)", "stop_I": "425"}, "id": "319", "type": "Feature", "geometry": {"coordinates": [13.241907, 52.52559], "type": "Point"}}, {"properties": {"name": "U Olympia-Stadion (Berlin)", "stop_I": "426"}, "id": "320", "type": "Feature", "geometry": {"coordinates": [13.250505, 52.517052], "type": "Point"}}, {"properties": {"name": "Spandauer Damm/Reichsstr. (Berlin)", "stop_I": "427"}, "id": "321", "type": "Feature", "geometry": {"coordinates": [13.250105, 52.523706], "type": "Point"}}, {"properties": {"name": "Park Ruhwald (Berlin)", "stop_I": "428"}, "id": "322", "type": "Feature", "geometry": {"coordinates": [13.255023, 52.522558], "type": "Point"}}, {"properties": {"name": "Meiningenallee (Berlin)", "stop_I": "429"}, "id": "323", "type": "Feature", "geometry": {"coordinates": [13.259303, 52.521784], "type": "Point"}}, {"properties": {"name": "Wiesendammbr\u00fccke (Berlin)", "stop_I": "430"}, "id": "324", "type": "Feature", "geometry": {"coordinates": [13.243593, 52.527909], "type": "Point"}}, {"properties": {"name": "Flatowallee/Olympiastadion (Berlin)", "stop_I": "431"}, "id": "325", "type": "Feature", "geometry": {"coordinates": [13.241529, 52.507476], "type": "Point"}}, {"properties": {"name": "S Olympiastadion (Berlin)", "stop_I": "432"}, "id": "326", "type": "Feature", "geometry": {"coordinates": [13.241116, 52.511138], "type": "Point"}}, {"properties": {"name": "Maik\u00e4ferpfad (Berlin)", "stop_I": "433"}, "id": "327", "type": "Feature", "geometry": {"coordinates": [13.266438, 52.494774], "type": "Point"}}, {"properties": {"name": "S Messe S\u00fcd (Berlin)", "stop_I": "434"}, "id": "328", "type": "Feature", "geometry": {"coordinates": [13.270455, 52.498775], "type": "Point"}}, {"properties": {"name": "S Pichelsberg (Berlin)", "stop_I": "435"}, "id": "329", "type": "Feature", "geometry": {"coordinates": [13.227202, 52.510268], "type": "Point"}}, {"properties": {"name": "Jaff\u00e9str. (Berlin)", "stop_I": "436"}, "id": "330", "type": "Feature", "geometry": {"coordinates": [13.27218, 52.499349], "type": "Point"}}, {"properties": {"name": "Alte Allee (Berlin)", "stop_I": "437"}, "id": "331", "type": "Feature", "geometry": {"coordinates": [13.263049, 52.492123], "type": "Point"}}, {"properties": {"name": "Kiefernweg (Berlin)", "stop_I": "438"}, "id": "332", "type": "Feature", "geometry": {"coordinates": [13.264932, 52.493603], "type": "Point"}}, {"properties": {"name": "Messegel\u00e4nde/Verwaltung (Berlin)", "stop_I": "439"}, "id": "333", "type": "Feature", "geometry": {"coordinates": [13.274923, 52.501513], "type": "Point"}}, {"properties": {"name": "Messegel\u00e4nde/ICC (Berlin)", "stop_I": "440"}, "id": "334", "type": "Feature", "geometry": {"coordinates": [13.27961, 52.504698], "type": "Point"}}, {"properties": {"name": "U Neu-Westend (Berlin)", "stop_I": "441"}, "id": "335", "type": "Feature", "geometry": {"coordinates": [13.259916, 52.516413], "type": "Point"}}, {"properties": {"name": "Brixplatz (Berlin)", "stop_I": "442"}, "id": "336", "type": "Feature", "geometry": {"coordinates": [13.256223, 52.519696], "type": "Point"}}, {"properties": {"name": "S Heerstr. (Berlin)", "stop_I": "443"}, "id": "337", "type": "Feature", "geometry": {"coordinates": [13.258519, 52.508276], "type": "Point"}}, {"properties": {"name": "Hessenallee (Berlin)", "stop_I": "444"}, "id": "338", "type": "Feature", "geometry": {"coordinates": [13.26398, 52.514302], "type": "Point"}}, {"properties": {"name": "Reichsstr./Kastanienallee (Berlin)", "stop_I": "445"}, "id": "339", "type": "Feature", "geometry": {"coordinates": [13.268907, 52.511481], "type": "Point"}}, {"properties": {"name": "W\u00fcrttembergallee (Berlin)", "stop_I": "446"}, "id": "340", "type": "Feature", "geometry": {"coordinates": [13.265623, 52.508946], "type": "Point"}}, {"properties": {"name": "Westendallee (Berlin)", "stop_I": "447"}, "id": "341", "type": "Feature", "geometry": {"coordinates": [13.253249, 52.521327], "type": "Point"}}, {"properties": {"name": "Altenburger Allee (Berlin)", "stop_I": "448"}, "id": "342", "type": "Feature", "geometry": {"coordinates": [13.257915, 52.518591], "type": "Point"}}, {"properties": {"name": "U Theodor-Heuss-Platz (Berlin)", "stop_I": "449"}, "id": "343", "type": "Feature", "geometry": {"coordinates": [13.272983, 52.509802], "type": "Point"}}, {"properties": {"name": "U Kaiserdamm (Berlin)", "stop_I": "450"}, "id": "344", "type": "Feature", "geometry": {"coordinates": [13.281973, 52.509974], "type": "Point"}}, {"properties": {"name": "U Theodor-Heuss-Platz S\u00fcd (Berlin)", "stop_I": "451"}, "id": "345", "type": "Feature", "geometry": {"coordinates": [13.272221, 52.508911], "type": "Point"}}, {"properties": {"name": "Messedamm/ZOB (Berlin)", "stop_I": "452"}, "id": "346", "type": "Feature", "geometry": {"coordinates": [13.280708, 52.507004], "type": "Point"}}, {"properties": {"name": "Knobelsdorffstr. (Berlin)", "stop_I": "453"}, "id": "347", "type": "Feature", "geometry": {"coordinates": [13.281437, 52.512829], "type": "Point"}}, {"properties": {"name": "K\u00f6nigin-Elisabeth-Str/Spandauer Damm (Berlin)", "stop_I": "454"}, "id": "348", "type": "Feature", "geometry": {"coordinates": [13.280302, 52.518351], "type": "Point"}}, {"properties": {"name": "S Westend (Berlin)", "stop_I": "455"}, "id": "349", "type": "Feature", "geometry": {"coordinates": [13.284243, 52.518613], "type": "Point"}}, {"properties": {"name": "Masurenallee/ZOB (Berlin)", "stop_I": "456"}, "id": "350", "type": "Feature", "geometry": {"coordinates": [13.278786, 52.506738], "type": "Point"}}, {"properties": {"name": "Neue Kantstr./ZOB (Berlin)", "stop_I": "457"}, "id": "351", "type": "Feature", "geometry": {"coordinates": [13.281132, 52.506389], "type": "Point"}}, {"properties": {"name": "Haus des Rundfunks (Berlin)", "stop_I": "458"}, "id": "352", "type": "Feature", "geometry": {"coordinates": [13.276596, 52.507426], "type": "Point"}}, {"properties": {"name": "U Theodor-Heuss-Platz West (Berlin)", "stop_I": "459"}, "id": "353", "type": "Feature", "geometry": {"coordinates": [13.271076, 52.510092], "type": "Point"}}, {"properties": {"name": "Oberj\u00e4gerweg (Berlin)", "stop_I": "460"}, "id": "354", "type": "Feature", "geometry": {"coordinates": [13.176941, 52.585029], "type": "Point"}}, {"properties": {"name": "Johannesstift (Berlin)", "stop_I": "461"}, "id": "355", "type": "Feature", "geometry": {"coordinates": [13.192629, 52.566719], "type": "Point"}}, {"properties": {"name": "Klinkeplatz (Berlin)", "stop_I": "462"}, "id": "356", "type": "Feature", "geometry": {"coordinates": [13.19859, 52.555443], "type": "Point"}}, {"properties": {"name": "Havelschanze (Berlin)", "stop_I": "463"}, "id": "357", "type": "Feature", "geometry": {"coordinates": [13.207325, 52.554078], "type": "Point"}}, {"properties": {"name": "Aalemannufer (Berlin)", "stop_I": "464"}, "id": "358", "type": "Feature", "geometry": {"coordinates": [13.212691, 52.573264], "type": "Point"}}, {"properties": {"name": "Rauchstr. (Berlin)", "stop_I": "465"}, "id": "359", "type": "Feature", "geometry": {"coordinates": [13.208444, 52.561525], "type": "Point"}}, {"properties": {"name": "Cautiusstr. (Berlin)", "stop_I": "466"}, "id": "360", "type": "Feature", "geometry": {"coordinates": [13.19688, 52.562515], "type": "Point"}}, {"properties": {"name": "M\u00f6geldorfer Weg (Berlin)", "stop_I": "467"}, "id": "361", "type": "Feature", "geometry": {"coordinates": [13.197456, 52.55984], "type": "Point"}}, {"properties": {"name": "Sch\u00fclerbergstr. (Berlin)", "stop_I": "468"}, "id": "362", "type": "Feature", "geometry": {"coordinates": [13.199761, 52.551899], "type": "Point"}}, {"properties": {"name": "Amorbacher Weg (Berlin)", "stop_I": "469"}, "id": "363", "type": "Feature", "geometry": {"coordinates": [13.207782, 52.557281], "type": "Point"}}, {"properties": {"name": "Mertensstr. (Berlin)", "stop_I": "470"}, "id": "364", "type": "Feature", "geometry": {"coordinates": [13.209346, 52.565345], "type": "Point"}}, {"properties": {"name": "Siedlung Hakenfelde (Berlin)", "stop_I": "471"}, "id": "365", "type": "Feature", "geometry": {"coordinates": [13.212772, 52.570855], "type": "Point"}}, {"properties": {"name": "Goltzstr./Rauchstr. (Berlin)", "stop_I": "472"}, "id": "366", "type": "Feature", "geometry": {"coordinates": [13.212975, 52.56112], "type": "Point"}}, {"properties": {"name": "Mertensstr./Goltzstr. (Berlin)", "stop_I": "473"}, "id": "367", "type": "Feature", "geometry": {"coordinates": [13.215286, 52.564691], "type": "Point"}}, {"properties": {"name": "Rustweg (Berlin)", "stop_I": "474"}, "id": "368", "type": "Feature", "geometry": {"coordinates": [13.21163, 52.57545], "type": "Point"}}, {"properties": {"name": "Werderstr. (Berlin)", "stop_I": "475"}, "id": "369", "type": "Feature", "geometry": {"coordinates": [13.210814, 52.567765], "type": "Point"}}, {"properties": {"name": "Eschenweg (Berlin)", "stop_I": "476"}, "id": "370", "type": "Feature", "geometry": {"coordinates": [13.210176, 52.567655], "type": "Point"}}, {"properties": {"name": "Hugo-Cassirer-Str. (Berlin)", "stop_I": "477"}, "id": "371", "type": "Feature", "geometry": {"coordinates": [13.218841, 52.559927], "type": "Point"}}, {"properties": {"name": "Spandauer-See-Br\u00fccke (Berlin)", "stop_I": "478"}, "id": "372", "type": "Feature", "geometry": {"coordinates": [13.219184, 52.556338], "type": "Point"}}, {"properties": {"name": "Ashdodstr. (Berlin)", "stop_I": "479"}, "id": "373", "type": "Feature", "geometry": {"coordinates": [13.220614, 52.560053], "type": "Point"}}, {"properties": {"name": "Papenberger Weg (Berlin)", "stop_I": "480"}, "id": "374", "type": "Feature", "geometry": {"coordinates": [13.210351, 52.578276], "type": "Point"}}, {"properties": {"name": "B\u00fcrgerablage (Berlin)", "stop_I": "481"}, "id": "375", "type": "Feature", "geometry": {"coordinates": [13.207199, 52.584383], "type": "Point"}}, {"properties": {"name": "Am Kiesteich (Berlin)", "stop_I": "482"}, "id": "376", "type": "Feature", "geometry": {"coordinates": [13.165507, 52.551163], "type": "Point"}}, {"properties": {"name": "Falkenseer Chaussee/Stadtrandstr. (Berlin)", "stop_I": "483"}, "id": "377", "type": "Feature", "geometry": {"coordinates": [13.15364, 52.553445], "type": "Point"}}, {"properties": {"name": "Wasserwerk Spandau (Berlin)", "stop_I": "484"}, "id": "378", "type": "Feature", "geometry": {"coordinates": [13.164193, 52.556667], "type": "Point"}}, {"properties": {"name": "Freudstr./Goldk\u00e4ferweg (Berlin)", "stop_I": "485"}, "id": "379", "type": "Feature", "geometry": {"coordinates": [13.149155, 52.556724], "type": "Point"}}, {"properties": {"name": "Waldkrankenhaus (Berlin)", "stop_I": "486"}, "id": "380", "type": "Feature", "geometry": {"coordinates": [13.158382, 52.562188], "type": "Point"}}, {"properties": {"name": "Griesingerstr./Stadtrandstr. (Berlin)", "stop_I": "487"}, "id": "381", "type": "Feature", "geometry": {"coordinates": [13.157164, 52.560178], "type": "Point"}}, {"properties": {"name": "Hochhausweg (Berlin)", "stop_I": "488"}, "id": "382", "type": "Feature", "geometry": {"coordinates": [13.152824, 52.550442], "type": "Point"}}, {"properties": {"name": "Spektefeld (Berlin)", "stop_I": "489"}, "id": "383", "type": "Feature", "geometry": {"coordinates": [13.16247, 52.54838], "type": "Point"}}, {"properties": {"name": "Paul-Gerhardt-Ring (Berlin)", "stop_I": "490"}, "id": "384", "type": "Feature", "geometry": {"coordinates": [13.15956, 52.548714], "type": "Point"}}, {"properties": {"name": "Im Spektefeld/Schulzentrum (Berlin)", "stop_I": "491"}, "id": "385", "type": "Feature", "geometry": {"coordinates": [13.156222, 52.549034], "type": "Point"}}, {"properties": {"name": "Gl\u00fchw\u00fcrmchenweg (Berlin)", "stop_I": "492"}, "id": "386", "type": "Feature", "geometry": {"coordinates": [13.155095, 52.556648], "type": "Point"}}, {"properties": {"name": "Wolburgsweg (Berlin)", "stop_I": "493"}, "id": "387", "type": "Feature", "geometry": {"coordinates": [13.169252, 52.555619], "type": "Point"}}, {"properties": {"name": "Frankenwaldstr. (Berlin)", "stop_I": "494"}, "id": "388", "type": "Feature", "geometry": {"coordinates": [13.174749, 52.554406], "type": "Point"}}, {"properties": {"name": "Friedhof In den Kisseln (Berlin)", "stop_I": "495"}, "id": "389", "type": "Feature", "geometry": {"coordinates": [13.180022, 52.553095], "type": "Point"}}, {"properties": {"name": "Sandwiesenweg (Berlin)", "stop_I": "496"}, "id": "390", "type": "Feature", "geometry": {"coordinates": [13.165729, 52.56288], "type": "Point"}}, {"properties": {"name": "B\u00f6tzow-Bahn (Berlin)", "stop_I": "497"}, "id": "391", "type": "Feature", "geometry": {"coordinates": [13.172104, 52.560822], "type": "Point"}}, {"properties": {"name": "Gliensteig (Berlin)", "stop_I": "498"}, "id": "392", "type": "Feature", "geometry": {"coordinates": [13.177348, 52.559493], "type": "Point"}}, {"properties": {"name": "Schwanter Weg (Berlin)", "stop_I": "499"}, "id": "393", "type": "Feature", "geometry": {"coordinates": [13.182399, 52.55814], "type": "Point"}}, {"properties": {"name": "Freudstr. (Berlin)", "stop_I": "500"}, "id": "394", "type": "Feature", "geometry": {"coordinates": [13.149382, 52.554151], "type": "Point"}}, {"properties": {"name": "Am Bogen (Berlin)", "stop_I": "501"}, "id": "395", "type": "Feature", "geometry": {"coordinates": [13.159507, 52.552309], "type": "Point"}}, {"properties": {"name": "Beerwinkel (Berlin)", "stop_I": "502"}, "id": "396", "type": "Feature", "geometry": {"coordinates": [13.162059, 52.55179], "type": "Point"}}, {"properties": {"name": "Spektebr\u00fccke (Berlin)", "stop_I": "503"}, "id": "397", "type": "Feature", "geometry": {"coordinates": [13.161504, 52.545855], "type": "Point"}}, {"properties": {"name": "Radelandstr./Pflegeheim (Berlin)", "stop_I": "504"}, "id": "398", "type": "Feature", "geometry": {"coordinates": [13.161585, 52.563972], "type": "Point"}}, {"properties": {"name": "Falkenseer Chaussee/Zeppelinstr. (Berlin)", "stop_I": "505"}, "id": "399", "type": "Feature", "geometry": {"coordinates": [13.184739, 52.547566], "type": "Point"}}, {"properties": {"name": "Pionierstr./Zeppelinstr. (Berlin)", "stop_I": "506"}, "id": "400", "type": "Feature", "geometry": {"coordinates": [13.185582, 52.551512], "type": "Point"}}, {"properties": {"name": "Hohenzollernring/Falkenseer Chaussee (Berlin)", "stop_I": "507"}, "id": "401", "type": "Feature", "geometry": {"coordinates": [13.190899, 52.546425], "type": "Point"}}, {"properties": {"name": "Dyrotzer Str. (Berlin)", "stop_I": "508"}, "id": "402", "type": "Feature", "geometry": {"coordinates": [13.16807, 52.54162], "type": "Point"}}, {"properties": {"name": "Pausiner Str. (Berlin)", "stop_I": "509"}, "id": "403", "type": "Feature", "geometry": {"coordinates": [13.188509, 52.556155], "type": "Point"}}, {"properties": {"name": "Spekteweg (Berlin)", "stop_I": "510"}, "id": "404", "type": "Feature", "geometry": {"coordinates": [13.183498, 52.541997], "type": "Point"}}, {"properties": {"name": "Merziger Str. (Berlin)", "stop_I": "511"}, "id": "405", "type": "Feature", "geometry": {"coordinates": [13.184074, 52.544777], "type": "Point"}}, {"properties": {"name": "Westerwaldstr. (Berlin)", "stop_I": "512"}, "id": "406", "type": "Feature", "geometry": {"coordinates": [13.178122, 52.548773], "type": "Point"}}, {"properties": {"name": "M\u00fclheimer Str. (Berlin)", "stop_I": "513"}, "id": "407", "type": "Feature", "geometry": {"coordinates": [13.172418, 52.549935], "type": "Point"}}, {"properties": {"name": "Falkenhagener Tor (Berlin)", "stop_I": "514"}, "id": "408", "type": "Feature", "geometry": {"coordinates": [13.190265, 52.550206], "type": "Point"}}, {"properties": {"name": "Zweibr\u00fccker Str. (Berlin)", "stop_I": "515"}, "id": "409", "type": "Feature", "geometry": {"coordinates": [13.188259, 52.546901], "type": "Point"}}, {"properties": {"name": "Viersener Str. (Berlin)", "stop_I": "516"}, "id": "410", "type": "Feature", "geometry": {"coordinates": [13.175105, 52.540113], "type": "Point"}}, {"properties": {"name": "Leuthingerweg (Berlin)", "stop_I": "517"}, "id": "411", "type": "Feature", "geometry": {"coordinates": [13.164243, 52.541838], "type": "Point"}}, {"properties": {"name": "Eiswerderstr. (Berlin)", "stop_I": "518"}, "id": "412", "type": "Feature", "geometry": {"coordinates": [13.20981, 52.547941], "type": "Point"}}, {"properties": {"name": "Kirchhofstr. (Berlin)", "stop_I": "519"}, "id": "413", "type": "Feature", "geometry": {"coordinates": [13.208101, 52.545289], "type": "Point"}}, {"properties": {"name": "Neue Bergstr. (Berlin)", "stop_I": "520"}, "id": "414", "type": "Feature", "geometry": {"coordinates": [13.209887, 52.550726], "type": "Point"}}, {"properties": {"name": "S Spandau Bhf (Berlin)", "stop_I": "521"}, "id": "415", "type": "Feature", "geometry": {"coordinates": [13.197482, 52.534802], "type": "Point"}}, {"properties": {"name": "Zeppelinstr./Seegefelder Str. (Berlin)", "stop_I": "522"}, "id": "416", "type": "Feature", "geometry": {"coordinates": [13.182446, 52.538494], "type": "Point"}}, {"properties": {"name": "Falkenseer Platz (Berlin)", "stop_I": "523"}, "id": "417", "type": "Feature", "geometry": {"coordinates": [13.201984, 52.540993], "type": "Point"}}, {"properties": {"name": "Borkzeile (Berlin)", "stop_I": "524"}, "id": "418", "type": "Feature", "geometry": {"coordinates": [13.19034, 52.536635], "type": "Point"}}, {"properties": {"name": "Galenstr. (Berlin)", "stop_I": "525"}, "id": "419", "type": "Feature", "geometry": {"coordinates": [13.194293, 52.535697], "type": "Point"}}, {"properties": {"name": "Borchertweg (Berlin)", "stop_I": "526"}, "id": "420", "type": "Feature", "geometry": {"coordinates": [13.193109, 52.543653], "type": "Point"}}, {"properties": {"name": "Dallgower Str. (Berlin)", "stop_I": "527"}, "id": "421", "type": "Feature", "geometry": {"coordinates": [13.18683, 52.537659], "type": "Point"}}, {"properties": {"name": "Jenneweg (Berlin)", "stop_I": "528"}, "id": "422", "type": "Feature", "geometry": {"coordinates": [13.194981, 52.540947], "type": "Point"}}, {"properties": {"name": "Galenstr./Hohenzollernring (Berlin)", "stop_I": "529"}, "id": "423", "type": "Feature", "geometry": {"coordinates": [13.197471, 52.53872], "type": "Point"}}, {"properties": {"name": "Askanierring (Berlin)", "stop_I": "530"}, "id": "424", "type": "Feature", "geometry": {"coordinates": [13.193393, 52.545951], "type": "Point"}}, {"properties": {"name": "Flankenschanze (Berlin)", "stop_I": "531"}, "id": "425", "type": "Feature", "geometry": {"coordinates": [13.198615, 52.542843], "type": "Point"}}, {"properties": {"name": "Schulzenstr. (Berlin)", "stop_I": "532"}, "id": "426", "type": "Feature", "geometry": {"coordinates": [13.178762, 52.539088], "type": "Point"}}, {"properties": {"name": "Wr\u00f6hm\u00e4nnerpark (Berlin)", "stop_I": "533"}, "id": "427", "type": "Feature", "geometry": {"coordinates": [13.205963, 52.542049], "type": "Point"}}, {"properties": {"name": "Moritzstr. (Berlin)", "stop_I": "534"}, "id": "428", "type": "Feature", "geometry": {"coordinates": [13.200725, 52.538606], "type": "Point"}}, {"properties": {"name": "H\u00fcgelschanze (Berlin)", "stop_I": "535"}, "id": "429", "type": "Feature", "geometry": {"coordinates": [13.200837, 52.548662], "type": "Point"}}, {"properties": {"name": "Windm\u00fchlenberg (Berlin)", "stop_I": "536"}, "id": "430", "type": "Feature", "geometry": {"coordinates": [13.19435, 52.548637], "type": "Point"}}, {"properties": {"name": "Kurze Str./Mittelstr. (Berlin)", "stop_I": "537"}, "id": "431", "type": "Feature", "geometry": {"coordinates": [13.200078, 52.546225], "type": "Point"}}, {"properties": {"name": "Predigergarten (Berlin)", "stop_I": "538"}, "id": "432", "type": "Feature", "geometry": {"coordinates": [13.203694, 52.545307], "type": "Point"}}, {"properties": {"name": "U Altstadt Spandau (Berlin)", "stop_I": "539"}, "id": "433", "type": "Feature", "geometry": {"coordinates": [13.206769, 52.539165], "type": "Point"}}, {"properties": {"name": "S+U Rathaus Spandau (Berlin)", "stop_I": "540"}, "id": "434", "type": "Feature", "geometry": {"coordinates": [13.199897, 52.535802], "type": "Point"}}, {"properties": {"name": "Breite Str./Markt (Berlin)", "stop_I": "541"}, "id": "435", "type": "Feature", "geometry": {"coordinates": [13.204767, 52.53604], "type": "Point"}}, {"properties": {"name": "Berlin, Staaken Bhf", "stop_I": "542"}, "id": "436", "type": "Feature", "geometry": {"coordinates": [13.141732, 52.537743], "type": "Point"}}, {"properties": {"name": "S+U Rathaus Spandau (Berlin) [Bus Seegef. Str.]", "stop_I": "543"}, "id": "437", "type": "Feature", "geometry": {"coordinates": [13.198753, 52.534924], "type": "Point"}}, {"properties": {"name": "Krematorium Ruhleben (Berlin)", "stop_I": "544"}, "id": "438", "type": "Feature", "geometry": {"coordinates": [13.231801, 52.527763], "type": "Point"}}, {"properties": {"name": "Polizeidirektion 2 (Berlin)", "stop_I": "545"}, "id": "439", "type": "Feature", "geometry": {"coordinates": [13.228251, 52.528339], "type": "Point"}}, {"properties": {"name": "G\u00fcterbahnhof Ruhleben (Berlin)", "stop_I": "546"}, "id": "440", "type": "Feature", "geometry": {"coordinates": [13.221659, 52.528677], "type": "Point"}}, {"properties": {"name": "Heidereuterstr. (Berlin)", "stop_I": "547"}, "id": "441", "type": "Feature", "geometry": {"coordinates": [13.207661, 52.528731], "type": "Point"}}, {"properties": {"name": "Freiheit 16-43 (Berlin)", "stop_I": "548"}, "id": "442", "type": "Feature", "geometry": {"coordinates": [13.221424, 52.530836], "type": "Point"}}, {"properties": {"name": "Pichelswerderstr. (Berlin)", "stop_I": "549"}, "id": "443", "type": "Feature", "geometry": {"coordinates": [13.213788, 52.531813], "type": "Point"}}, {"properties": {"name": "Werkring (Berlin)", "stop_I": "550"}, "id": "444", "type": "Feature", "geometry": {"coordinates": [13.237581, 52.528961], "type": "Point"}}, {"properties": {"name": "Tiefwerderweg (Berlin)", "stop_I": "551"}, "id": "445", "type": "Feature", "geometry": {"coordinates": [13.207309, 52.526092], "type": "Point"}}, {"properties": {"name": "Kl\u00e4rwerkstr. (Berlin)", "stop_I": "552"}, "id": "446", "type": "Feature", "geometry": {"coordinates": [13.23303, 52.529547], "type": "Point"}}, {"properties": {"name": "S Stresow (Berlin)", "stop_I": "553"}, "id": "447", "type": "Feature", "geometry": {"coordinates": [13.209136, 52.532508], "type": "Point"}}, {"properties": {"name": "Stresowplatz (Berlin)", "stop_I": "554"}, "id": "448", "type": "Feature", "geometry": {"coordinates": [13.206771, 52.533862], "type": "Point"}}, {"properties": {"name": "S Stresow [Vorplatz]", "stop_I": "555"}, "id": "449", "type": "Feature", "geometry": {"coordinates": [13.208672, 52.53227], "type": "Point"}}, {"properties": {"name": "Ruhlebener Str./Grunewaldstr. (Berlin)", "stop_I": "556"}, "id": "450", "type": "Feature", "geometry": {"coordinates": [13.204028, 52.530565], "type": "Point"}}, {"properties": {"name": "Brunsb\u00fctteler Damm/Ruhlebener Str. (Berlin)", "stop_I": "557"}, "id": "451", "type": "Feature", "geometry": {"coordinates": [13.198198, 52.532961], "type": "Point"}}, {"properties": {"name": "Ziegelhof (Berlin)", "stop_I": "558"}, "id": "452", "type": "Feature", "geometry": {"coordinates": [13.195351, 52.529044], "type": "Point"}}, {"properties": {"name": "P\u00e4wesiner Weg (Berlin)", "stop_I": "559"}, "id": "453", "type": "Feature", "geometry": {"coordinates": [13.176912, 52.533831], "type": "Point"}}, {"properties": {"name": "Krumme G\u00e4rten (Berlin)", "stop_I": "560"}, "id": "454", "type": "Feature", "geometry": {"coordinates": [13.191889, 52.528531], "type": "Point"}}, {"properties": {"name": "Metzer Platz (Berlin)", "stop_I": "561"}, "id": "455", "type": "Feature", "geometry": {"coordinates": [13.197172, 52.525054], "type": "Point"}}, {"properties": {"name": "Elsflether Weg (Berlin)", "stop_I": "562"}, "id": "456", "type": "Feature", "geometry": {"coordinates": [13.193655, 52.533906], "type": "Point"}}, {"properties": {"name": "Gr\u00fcnhofer Weg (Berlin)", "stop_I": "563"}, "id": "457", "type": "Feature", "geometry": {"coordinates": [13.188214, 52.53432], "type": "Point"}}, {"properties": {"name": "Nauener Str. (Berlin)", "stop_I": "564"}, "id": "458", "type": "Feature", "geometry": {"coordinates": [13.18246, 52.534108], "type": "Point"}}, {"properties": {"name": "Egelpfuhlstr. (Berlin)", "stop_I": "565"}, "id": "459", "type": "Feature", "geometry": {"coordinates": [13.17017, 52.533583], "type": "Point"}}, {"properties": {"name": "Harburger Weg (Berlin)", "stop_I": "566"}, "id": "460", "type": "Feature", "geometry": {"coordinates": [13.163295, 52.5333], "type": "Point"}}, {"properties": {"name": "Am Omnibushof (Berlin)", "stop_I": "567"}, "id": "461", "type": "Feature", "geometry": {"coordinates": [13.186245, 52.517624], "type": "Point"}}, {"properties": {"name": "Heerstr./Wilhelmstr. (Berlin)", "stop_I": "568"}, "id": "462", "type": "Feature", "geometry": {"coordinates": [13.179164, 52.516697], "type": "Point"}}, {"properties": {"name": "Weinmeisterhornweg (Berlin)", "stop_I": "569"}, "id": "463", "type": "Feature", "geometry": {"coordinates": [13.171588, 52.511021], "type": "Point"}}, {"properties": {"name": "Melanchthonplatz (Berlin)", "stop_I": "570"}, "id": "464", "type": "Feature", "geometry": {"coordinates": [13.188933, 52.521668], "type": "Point"}}, {"properties": {"name": "Lutoner Str. (Berlin)", "stop_I": "571"}, "id": "465", "type": "Feature", "geometry": {"coordinates": [13.177509, 52.525305], "type": "Point"}}, {"properties": {"name": "Gatower Str./Heerstr. (Berlin)", "stop_I": "572"}, "id": "466", "type": "Feature", "geometry": {"coordinates": [13.184849, 52.515544], "type": "Point"}}, {"properties": {"name": "F\u00f6lderichplatz (Berlin)", "stop_I": "573"}, "id": "467", "type": "Feature", "geometry": {"coordinates": [13.193454, 52.521056], "type": "Point"}}, {"properties": {"name": "Kolonie Hasenheide (Berlin)", "stop_I": "574"}, "id": "468", "type": "Feature", "geometry": {"coordinates": [13.184604, 52.52341], "type": "Point"}}, {"properties": {"name": "Rodensteinstr. (Berlin)", "stop_I": "575"}, "id": "469", "type": "Feature", "geometry": {"coordinates": [13.174842, 52.513738], "type": "Point"}}, {"properties": {"name": "Karolinenh\u00f6he (Berlin)", "stop_I": "576"}, "id": "470", "type": "Feature", "geometry": {"coordinates": [13.167586, 52.508427], "type": "Point"}}, {"properties": {"name": "Seecktstr. (Berlin)", "stop_I": "577"}, "id": "471", "type": "Feature", "geometry": {"coordinates": [13.187889, 52.527763], "type": "Point"}}, {"properties": {"name": "Seeburger Str./P\u00e4wesiner Weg (Berlin)", "stop_I": "578"}, "id": "472", "type": "Feature", "geometry": {"coordinates": [13.181883, 52.526331], "type": "Point"}}, {"properties": {"name": "Gatower Str./Weinmeisterhornweg (Berlin)", "stop_I": "579"}, "id": "473", "type": "Feature", "geometry": {"coordinates": [13.18017, 52.509147], "type": "Point"}}, {"properties": {"name": "Sandheideweg (Berlin)", "stop_I": "580"}, "id": "474", "type": "Feature", "geometry": {"coordinates": [13.182615, 52.512448], "type": "Point"}}, {"properties": {"name": "Zur Haveld\u00fcne (Berlin)", "stop_I": "581"}, "id": "475", "type": "Feature", "geometry": {"coordinates": [13.179721, 52.5034], "type": "Point"}}, {"properties": {"name": "Biberburg (Berlin)", "stop_I": "582"}, "id": "476", "type": "Feature", "geometry": {"coordinates": [13.180052, 52.498148], "type": "Point"}}, {"properties": {"name": "Emil-Basdeck-Str. (Berlin)", "stop_I": "583"}, "id": "477", "type": "Feature", "geometry": {"coordinates": [13.18019, 52.493419], "type": "Point"}}, {"properties": {"name": "Pfirsichweg (Berlin)", "stop_I": "584"}, "id": "478", "type": "Feature", "geometry": {"coordinates": [13.180326, 52.490812], "type": "Point"}}, {"properties": {"name": "Gatow Kirche (Berlin)", "stop_I": "585"}, "id": "479", "type": "Feature", "geometry": {"coordinates": [13.18222, 52.486748], "type": "Point"}}, {"properties": {"name": "Teltower Str. (Berlin)", "stop_I": "586"}, "id": "480", "type": "Feature", "geometry": {"coordinates": [13.216456, 52.527023], "type": "Point"}}, {"properties": {"name": "St\u00f6\u00dfenseebr\u00fccke (Berlin)", "stop_I": "587"}, "id": "481", "type": "Feature", "geometry": {"coordinates": [13.217135, 52.508952], "type": "Point"}}, {"properties": {"name": "Freybr\u00fccke (Berlin)", "stop_I": "588"}, "id": "482", "type": "Feature", "geometry": {"coordinates": [13.200641, 52.512302], "type": "Point"}}, {"properties": {"name": "Pichelswerder (Berlin)", "stop_I": "589"}, "id": "483", "type": "Feature", "geometry": {"coordinates": [13.208786, 52.510655], "type": "Point"}}, {"properties": {"name": "G\u00f6telstr. (Berlin)", "stop_I": "590"}, "id": "484", "type": "Feature", "geometry": {"coordinates": [13.20281, 52.523747], "type": "Point"}}, {"properties": {"name": "Pichelsdorfer Str./Wei\u00dfenburger Str. (Berlin)", "stop_I": "591"}, "id": "485", "type": "Feature", "geometry": {"coordinates": [13.197752, 52.522514], "type": "Point"}}, {"properties": {"name": "Alt-Pichelsdorf (Berlin)", "stop_I": "592"}, "id": "486", "type": "Feature", "geometry": {"coordinates": [13.196954, 52.513211], "type": "Point"}}, {"properties": {"name": "Metzer Str. (Berlin)", "stop_I": "593"}, "id": "487", "type": "Feature", "geometry": {"coordinates": [13.193868, 52.525465], "type": "Point"}}, {"properties": {"name": "Genfenbergstr. (Berlin)", "stop_I": "594"}, "id": "488", "type": "Feature", "geometry": {"coordinates": [13.197633, 52.517599], "type": "Point"}}, {"properties": {"name": "Jaczostr. (Berlin)", "stop_I": "595"}, "id": "489", "type": "Feature", "geometry": {"coordinates": [13.191205, 52.514159], "type": "Point"}}, {"properties": {"name": "Betckestr. (Berlin)", "stop_I": "596"}, "id": "490", "type": "Feature", "geometry": {"coordinates": [13.197799, 52.521012], "type": "Point"}}, {"properties": {"name": "U Zitadelle (Berlin)", "stop_I": "597"}, "id": "491", "type": "Feature", "geometry": {"coordinates": [13.21763, 52.537526], "type": "Point"}}, {"properties": {"name": "Zitadelle Spandau (Berlin)", "stop_I": "598"}, "id": "492", "type": "Feature", "geometry": {"coordinates": [13.214269, 52.538549], "type": "Point"}}, {"properties": {"name": "Motorradwerk (Berlin)", "stop_I": "599"}, "id": "493", "type": "Feature", "geometry": {"coordinates": [13.223367, 52.537107], "type": "Point"}}, {"properties": {"name": "U Paulsternstr. (Berlin)", "stop_I": "600"}, "id": "494", "type": "Feature", "geometry": {"coordinates": [13.248598, 52.538102], "type": "Point"}}, {"properties": {"name": "U Haselhorst (Berlin)", "stop_I": "601"}, "id": "495", "type": "Feature", "geometry": {"coordinates": [13.232314, 52.538722], "type": "Point"}}, {"properties": {"name": "Paulsternstr./Gartenfelder Str. (Berlin)", "stop_I": "602"}, "id": "496", "type": "Feature", "geometry": {"coordinates": [13.246209, 52.544283], "type": "Point"}}, {"properties": {"name": "L\u00fcdenscheider Weg (Berlin)", "stop_I": "603"}, "id": "497", "type": "Feature", "geometry": {"coordinates": [13.236766, 52.547123], "type": "Point"}}, {"properties": {"name": "Haselhorster Damm/Gartenfelder Str. (Berlin)", "stop_I": "604"}, "id": "498", "type": "Feature", "geometry": {"coordinates": [13.240633, 52.543128], "type": "Point"}}, {"properties": {"name": "Siedlung Haselhorst (Berlin)", "stop_I": "605"}, "id": "499", "type": "Feature", "geometry": {"coordinates": [13.235882, 52.54192], "type": "Point"}}, {"properties": {"name": "Burscheider Weg (Berlin)", "stop_I": "606"}, "id": "500", "type": "Feature", "geometry": {"coordinates": [13.238326, 52.544941], "type": "Point"}}, {"properties": {"name": "L\u00fcdenscheider Weg/Daumstr. (Berlin)", "stop_I": "607"}, "id": "501", "type": "Feature", "geometry": {"coordinates": [13.231833, 52.544694], "type": "Point"}}, {"properties": {"name": "Kolonie Haselbusch (Berlin)", "stop_I": "608"}, "id": "502", "type": "Feature", "geometry": {"coordinates": [13.230879, 52.552757], "type": "Point"}}, {"properties": {"name": "Stadion Haselhorst (Berlin)", "stop_I": "609"}, "id": "503", "type": "Feature", "geometry": {"coordinates": [13.230687, 52.546414], "type": "Point"}}, {"properties": {"name": "Kleine Eiswerderstr. (Berlin)", "stop_I": "610"}, "id": "504", "type": "Feature", "geometry": {"coordinates": [13.227683, 52.549159], "type": "Point"}}, {"properties": {"name": "Daumstr./Rhenaniastr. (Berlin)", "stop_I": "611"}, "id": "505", "type": "Feature", "geometry": {"coordinates": [13.225762, 52.554814], "type": "Point"}}, {"properties": {"name": "Haveleck (Berlin)", "stop_I": "612"}, "id": "506", "type": "Feature", "geometry": {"coordinates": [13.227114, 52.557837], "type": "Point"}}, {"properties": {"name": "U Haselhorst/Daumstr. (Berlin)", "stop_I": "613"}, "id": "507", "type": "Feature", "geometry": {"coordinates": [13.232368, 52.539584], "type": "Point"}}, {"properties": {"name": "U Siemensdamm (Berlin)", "stop_I": "614"}, "id": "508", "type": "Feature", "geometry": {"coordinates": [13.273329, 52.537029], "type": "Point"}}, {"properties": {"name": "Saatwinkler Damm/Rohrdamm (Berlin)", "stop_I": "615"}, "id": "509", "type": "Feature", "geometry": {"coordinates": [13.258947, 52.547959], "type": "Point"}}, {"properties": {"name": "Quellweg (Berlin)", "stop_I": "616"}, "id": "510", "type": "Feature", "geometry": {"coordinates": [13.267779, 52.536765], "type": "Point"}}, {"properties": {"name": "M\u00e4ckeritzbr\u00fccke (Berlin)", "stop_I": "617"}, "id": "511", "type": "Feature", "geometry": {"coordinates": [13.270274, 52.548655], "type": "Point"}}, {"properties": {"name": "Gartenfeld (Berlin)", "stop_I": "618"}, "id": "512", "type": "Feature", "geometry": {"coordinates": [13.247783, 52.54832], "type": "Point"}}, {"properties": {"name": "Toeplerstr./Halemweg (Berlin)", "stop_I": "620"}, "id": "513", "type": "Feature", "geometry": {"coordinates": [13.2867, 52.538161], "type": "Point"}}, {"properties": {"name": "Schweiggerweg (Berlin)", "stop_I": "621"}, "id": "514", "type": "Feature", "geometry": {"coordinates": [13.282308, 52.538172], "type": "Point"}}, {"properties": {"name": "Goebelplatz (Berlin)", "stop_I": "622"}, "id": "515", "type": "Feature", "geometry": {"coordinates": [13.280288, 52.538122], "type": "Point"}}, {"properties": {"name": "Popitzweg (Berlin)", "stop_I": "623"}, "id": "516", "type": "Feature", "geometry": {"coordinates": [13.278837, 52.53688], "type": "Point"}}, {"properties": {"name": "Saatwinkler Damm 137 (Berlin)", "stop_I": "624"}, "id": "517", "type": "Feature", "geometry": {"coordinates": [13.262898, 52.548465], "type": "Point"}}, {"properties": {"name": "U Rohrdamm (Berlin)", "stop_I": "625"}, "id": "518", "type": "Feature", "geometry": {"coordinates": [13.262875, 52.536908], "type": "Point"}}, {"properties": {"name": "Wohlrabedamm/Rohrdamm (Berlin)", "stop_I": "626"}, "id": "519", "type": "Feature", "geometry": {"coordinates": [13.268434, 52.533388], "type": "Point"}}, {"properties": {"name": "Wohlrabedamm Mitte (Berlin)", "stop_I": "627"}, "id": "520", "type": "Feature", "geometry": {"coordinates": [13.272757, 52.53256], "type": "Point"}}, {"properties": {"name": "Schaltwerk (Berlin)", "stop_I": "628"}, "id": "521", "type": "Feature", "geometry": {"coordinates": [13.256542, 52.537568], "type": "Point"}}, {"properties": {"name": "Rohrdamm/Wasserwerk (Berlin)", "stop_I": "629"}, "id": "522", "type": "Feature", "geometry": {"coordinates": [13.267355, 52.531243], "type": "Point"}}, {"properties": {"name": "Stra\u00dfe am Schaltwerk (Berlin)", "stop_I": "630"}, "id": "523", "type": "Feature", "geometry": {"coordinates": [13.262407, 52.54164], "type": "Point"}}, {"properties": {"name": "K\u00f6ttgenstr. (Berlin)", "stop_I": "631"}, "id": "524", "type": "Feature", "geometry": {"coordinates": [13.261088, 52.543955], "type": "Point"}}, {"properties": {"name": "Harriesstr. (Berlin)", "stop_I": "632"}, "id": "525", "type": "Feature", "geometry": {"coordinates": [13.259927, 52.546151], "type": "Point"}}, {"properties": {"name": "Magistratsweg/Brunsb\u00fctteler Damm (Berlin)", "stop_I": "633"}, "id": "526", "type": "Feature", "geometry": {"coordinates": [13.157878, 52.532985], "type": "Point"}}, {"properties": {"name": "Heidebergplan (Berlin)", "stop_I": "634"}, "id": "527", "type": "Feature", "geometry": {"coordinates": [13.147281, 52.540844], "type": "Point"}}, {"properties": {"name": "Brunsb\u00fctteler Damm/Nennhauser Damm (Berlin)", "stop_I": "635"}, "id": "528", "type": "Feature", "geometry": {"coordinates": [13.142629, 52.532585], "type": "Point"}}, {"properties": {"name": "Staakener Feldstr. (Berlin)", "stop_I": "636"}, "id": "529", "type": "Feature", "geometry": {"coordinates": [13.137438, 52.535286], "type": "Point"}}, {"properties": {"name": "Gartenstadt Staaken (Berlin)", "stop_I": "637"}, "id": "530", "type": "Feature", "geometry": {"coordinates": [13.149593, 52.539644], "type": "Point"}}, {"properties": {"name": "Klosterbuschweg (Berlin)", "stop_I": "638"}, "id": "531", "type": "Feature", "geometry": {"coordinates": [13.157157, 52.539175], "type": "Point"}}, {"properties": {"name": "Stra\u00dfe 603 (Berlin)", "stop_I": "639"}, "id": "532", "type": "Feature", "geometry": {"coordinates": [13.151196, 52.544572], "type": "Point"}}, {"properties": {"name": "Eckenerweg (Berlin)", "stop_I": "640"}, "id": "533", "type": "Feature", "geometry": {"coordinates": [13.150531, 52.541702], "type": "Point"}}, {"properties": {"name": "D\u00f6beritzer Weg (Berlin)", "stop_I": "641"}, "id": "534", "type": "Feature", "geometry": {"coordinates": [13.132949, 52.528643], "type": "Point"}}, {"properties": {"name": "Schulstr. (Berlin)", "stop_I": "642"}, "id": "535", "type": "Feature", "geometry": {"coordinates": [13.133136, 52.530187], "type": "Point"}}, {"properties": {"name": "Am alten Gaswerk (Berlin)", "stop_I": "643"}, "id": "536", "type": "Feature", "geometry": {"coordinates": [13.130567, 52.536296], "type": "Point"}}, {"properties": {"name": "Brunsb\u00fctteler Damm/Stadtgrenze (Berlin)", "stop_I": "644"}, "id": "537", "type": "Feature", "geometry": {"coordinates": [13.1245, 52.535374], "type": "Point"}}, {"properties": {"name": "Brandwerder (Berlin)", "stop_I": "645"}, "id": "538", "type": "Feature", "geometry": {"coordinates": [13.156971, 52.535483], "type": "Point"}}, {"properties": {"name": "M\u00f6thlower Str. (Berlin)", "stop_I": "646"}, "id": "539", "type": "Feature", "geometry": {"coordinates": [13.137426, 52.54794], "type": "Point"}}, {"properties": {"name": "Alfons-Loewe-Str. (Berlin)", "stop_I": "647"}, "id": "540", "type": "Feature", "geometry": {"coordinates": [13.133327, 52.549058], "type": "Point"}}, {"properties": {"name": "Ungewitterweg (Berlin)", "stop_I": "648"}, "id": "541", "type": "Feature", "geometry": {"coordinates": [13.143336, 52.542761], "type": "Point"}}, {"properties": {"name": "Seegefelder Weg (Berlin)", "stop_I": "649"}, "id": "542", "type": "Feature", "geometry": {"coordinates": [13.143782, 52.546306], "type": "Point"}}, {"properties": {"name": "Louise-Schroeder-Siedlung (Berlin)", "stop_I": "650"}, "id": "543", "type": "Feature", "geometry": {"coordinates": [13.152968, 52.532907], "type": "Point"}}, {"properties": {"name": "Zweiwinkelweg (Berlin)", "stop_I": "651"}, "id": "544", "type": "Feature", "geometry": {"coordinates": [13.148383, 52.532826], "type": "Point"}}, {"properties": {"name": "Seegefelder Weg/Klosterbuschweg (Berlin)", "stop_I": "652"}, "id": "545", "type": "Feature", "geometry": {"coordinates": [13.157849, 52.543087], "type": "Point"}}, {"properties": {"name": "Isenburger Weg (Berlin)", "stop_I": "653"}, "id": "546", "type": "Feature", "geometry": {"coordinates": [13.135548, 52.540274], "type": "Point"}}, {"properties": {"name": "Fachinger Str. (Berlin)", "stop_I": "654"}, "id": "547", "type": "Feature", "geometry": {"coordinates": [13.132582, 52.540743], "type": "Point"}}, {"properties": {"name": "Oberdorfer Steig (Berlin)", "stop_I": "655"}, "id": "548", "type": "Feature", "geometry": {"coordinates": [13.131972, 52.541657], "type": "Point"}}, {"properties": {"name": "Hauptstr. (Berlin)", "stop_I": "656"}, "id": "549", "type": "Feature", "geometry": {"coordinates": [13.140537, 52.530341], "type": "Point"}}, {"properties": {"name": "Am Zeppelinpark (Berlin)", "stop_I": "657"}, "id": "550", "type": "Feature", "geometry": {"coordinates": [13.127133, 52.528842], "type": "Point"}}, {"properties": {"name": "Ferbitzer Weg (Berlin)", "stop_I": "658"}, "id": "551", "type": "Feature", "geometry": {"coordinates": [13.128917, 52.544373], "type": "Point"}}, {"properties": {"name": "Berlin, Albrechtshof Bhf", "stop_I": "659"}, "id": "552", "type": "Feature", "geometry": {"coordinates": [13.128974, 52.54945], "type": "Point"}}, {"properties": {"name": "J\u00e4nickendorfer Weg (Berlin)", "stop_I": "660"}, "id": "553", "type": "Feature", "geometry": {"coordinates": [13.129109, 52.548388], "type": "Point"}}, {"properties": {"name": "Am Kurzen Weg (Berlin)", "stop_I": "661"}, "id": "554", "type": "Feature", "geometry": {"coordinates": [13.146616, 52.539646], "type": "Point"}}, {"properties": {"name": "Finkenkruger Weg (Berlin)", "stop_I": "662"}, "id": "555", "type": "Feature", "geometry": {"coordinates": [13.143402, 52.539615], "type": "Point"}}, {"properties": {"name": "Rudolf-Wissell-Siedlung (Berlin)", "stop_I": "663"}, "id": "556", "type": "Feature", "geometry": {"coordinates": [13.161843, 52.523528], "type": "Point"}}, {"properties": {"name": "Sandstr. (Berlin)", "stop_I": "664"}, "id": "557", "type": "Feature", "geometry": {"coordinates": [13.170006, 52.518549], "type": "Point"}}, {"properties": {"name": "Hahneberg (Berlin)", "stop_I": "665"}, "id": "558", "type": "Feature", "geometry": {"coordinates": [13.146636, 52.523478], "type": "Point"}}, {"properties": {"name": "Reimerweg (Berlin)", "stop_I": "666"}, "id": "559", "type": "Feature", "geometry": {"coordinates": [13.15578, 52.521583], "type": "Point"}}, {"properties": {"name": "Leubnitzer Weg (Berlin)", "stop_I": "667"}, "id": "560", "type": "Feature", "geometry": {"coordinates": [13.172879, 52.52297], "type": "Point"}}, {"properties": {"name": "Weidenweg (Berlin)", "stop_I": "668"}, "id": "561", "type": "Feature", "geometry": {"coordinates": [13.137874, 52.525378], "type": "Point"}}, {"properties": {"name": "Heerstr./Magistratsweg (Berlin)", "stop_I": "669"}, "id": "562", "type": "Feature", "geometry": {"coordinates": [13.16297, 52.521], "type": "Point"}}, {"properties": {"name": "Blasewitzer Ring (Berlin)", "stop_I": "670"}, "id": "563", "type": "Feature", "geometry": {"coordinates": [13.174931, 52.52259], "type": "Point"}}, {"properties": {"name": "Buschower Weg (Berlin)", "stop_I": "671"}, "id": "564", "type": "Feature", "geometry": {"coordinates": [13.132304, 52.52651], "type": "Point"}}, {"properties": {"name": "Heerstr./Nennhauser Damm (Berlin)", "stop_I": "672"}, "id": "565", "type": "Feature", "geometry": {"coordinates": [13.123128, 52.528952], "type": "Point"}}, {"properties": {"name": "Baluschekweg (Berlin)", "stop_I": "673"}, "id": "566", "type": "Feature", "geometry": {"coordinates": [13.166364, 52.523987], "type": "Point"}}, {"properties": {"name": "Springerzeile (Berlin)", "stop_I": "674"}, "id": "567", "type": "Feature", "geometry": {"coordinates": [13.160169, 52.527642], "type": "Point"}}, {"properties": {"name": "Obstallee (Berlin)", "stop_I": "675"}, "id": "568", "type": "Feature", "geometry": {"coordinates": [13.173074, 52.519813], "type": "Point"}}, {"properties": {"name": "Heerstr. 438-446 (Berlin)", "stop_I": "676"}, "id": "569", "type": "Feature", "geometry": {"coordinates": [13.160586, 52.520574], "type": "Point"}}, {"properties": {"name": "Reimerweg (Berlin)", "stop_I": "677"}, "id": "570", "type": "Feature", "geometry": {"coordinates": [13.154436, 52.522001], "type": "Point"}}, {"properties": {"name": "Landschaftsfriedhof Gatow (Berlin)", "stop_I": "678"}, "id": "571", "type": "Feature", "geometry": {"coordinates": [13.152858, 52.498335], "type": "Point"}},