{"features": [{"geometry": {"coordinates": [153.019079, -27.467834], "type": "Point"}, "properties": {"name": "Herschel Street Stop 1 near North Quay", "stop_I": "1"}, "id": "0", "type": "Feature"}, {"geometry": {"coordinates": [153.02397, -27.468003], "type": "Point"}, "properties": {"name": "Ann Street Stop 10 at King George Square", "stop_I": "2"}, "id": "1", "type": "Feature"}, {"geometry": {"coordinates": [153.026745, -27.473751], "type": "Point"}, "properties": {"name": "Parliament Stop 94A Margaret St", "stop_I": "3"}, "id": "2", "type": "Feature"}, {"geometry": {"coordinates": [153.043907, -27.339069], "type": "Point"}, "properties": {"name": "Handford Rd at Songbird Way", "stop_I": "4"}, "id": "3", "type": "Feature"}, {"geometry": {"coordinates": [153.024982, -27.344106], "type": "Point"}, "properties": {"name": "Balcara Ave near Allira Cr", "stop_I": "5"}, "id": "4", "type": "Feature"}, {"geometry": {"coordinates": [153.098237, -27.372728], "type": "Point"}, "properties": {"name": "Nudgee Rd at Golf Course, stop 35/32", "stop_I": "6"}, "id": "5", "type": "Feature"}, {"geometry": {"coordinates": [153.098416, -27.372787], "type": "Point"}, "properties": {"name": "Nudgee Rd at Golf Course, stop 32/35", "stop_I": "7"}, "id": "6", "type": "Feature"}, {"geometry": {"coordinates": [153.090391, -27.382612], "type": "Point"}, "properties": {"name": "Approach Rd near Mellifont St, stop 31", "stop_I": "8"}, "id": "7", "type": "Feature"}, {"geometry": {"coordinates": [153.042985, -27.339592], "type": "Point"}, "properties": {"name": "Handford Rd at Songbird Way", "stop_I": "9"}, "id": "8", "type": "Feature"}, {"geometry": {"coordinates": [153.007388, -27.402593], "type": "Point"}, "properties": {"name": "Redwood St at Farrant Street", "stop_I": "10"}, "id": "9", "type": "Feature"}, {"geometry": {"coordinates": [153.062459, -27.385924], "type": "Point"}, "properties": {"name": "Ridge St at St Vincents, stop 19", "stop_I": "11"}, "id": "10", "type": "Feature"}, {"geometry": {"coordinates": [153.063647, -27.387328], "type": "Point"}, "properties": {"name": "Ridge St at Scott Street, stop 18", "stop_I": "12"}, "id": "11", "type": "Feature"}, {"geometry": {"coordinates": [153.063368, -27.386816], "type": "Point"}, "properties": {"name": "Ridge St at Scott Street, stop 18", "stop_I": "13"}, "id": "12", "type": "Feature"}, {"geometry": {"coordinates": [153.024575, -27.470552], "type": "Point"}, "properties": {"name": "Queen Street, 1E", "stop_I": "14"}, "id": "13", "type": "Feature"}, {"geometry": {"coordinates": [153.061812, -27.385663], "type": "Point"}, "properties": {"name": "Saint Vincents Rd near Ridge St, stop 19", "stop_I": "15"}, "id": "14", "type": "Feature"}, {"geometry": {"coordinates": [152.949066, -27.535123], "type": "Point"}, "properties": {"name": "Goggs Rd near Seventeen Mile Rocks Rd", "stop_I": "16"}, "id": "15", "type": "Feature"}, {"geometry": {"coordinates": [153.059158, -27.398972], "type": "Point"}, "properties": {"name": "Sandgate Rd at Nundah, stop 3", "stop_I": "17"}, "id": "16", "type": "Feature"}, {"geometry": {"coordinates": [152.945914, -27.554283], "type": "Point"}, "properties": {"name": "Bellwood St near Glen Ross Rd, stop 54a", "stop_I": "18"}, "id": "17", "type": "Feature"}, {"geometry": {"coordinates": [152.945855, -27.554201], "type": "Point"}, "properties": {"name": "Bellwood St near Glen Ross Rd, stop 54a", "stop_I": "19"}, "id": "18", "type": "Feature"}, {"geometry": {"coordinates": [153.004353, -27.352058], "type": "Point"}, "properties": {"name": "Ridley Rd at Ridley Road South", "stop_I": "20"}, "id": "19", "type": "Feature"}, {"geometry": {"coordinates": [153.004346, -27.351409], "type": "Point"}, "properties": {"name": "Ridley Rd at Ridley Road South", "stop_I": "21"}, "id": "20", "type": "Feature"}, {"geometry": {"coordinates": [153.022563, -27.345541], "type": "Point"}, "properties": {"name": "Dorville Rd at Dorville North", "stop_I": "22"}, "id": "21", "type": "Feature"}, {"geometry": {"coordinates": [153.024755, -27.470675], "type": "Point"}, "properties": {"name": "Queen Street, 1F", "stop_I": "23"}, "id": "22", "type": "Feature"}, {"geometry": {"coordinates": [153.024334, -27.344441], "type": "Point"}, "properties": {"name": "Balcara Ave near Allira Cr", "stop_I": "24"}, "id": "23", "type": "Feature"}, {"geometry": {"coordinates": [153.027001, -27.347847], "type": "Point"}, "properties": {"name": "Balcara Ave at Beams - Balcara", "stop_I": "25"}, "id": "24", "type": "Feature"}, {"geometry": {"coordinates": [152.949326, -27.532714], "type": "Point"}, "properties": {"name": "Sinnamon Rd at Windermere", "stop_I": "26"}, "id": "25", "type": "Feature"}, {"geometry": {"coordinates": [152.949985, -27.524412], "type": "Point"}, "properties": {"name": "Kenmore Rd at Norman Street", "stop_I": "27"}, "id": "26", "type": "Feature"}, {"geometry": {"coordinates": [152.952962, -27.335588], "type": "Point"}, "properties": {"name": "Queen Elizabeth Dr at Hero", "stop_I": "28"}, "id": "27", "type": "Feature"}, {"geometry": {"coordinates": [153.071782, -27.520257], "type": "Point"}, "properties": {"name": "Elgar St at Rowton Street, stop 47", "stop_I": "29"}, "id": "28", "type": "Feature"}, {"geometry": {"coordinates": [153.04623, -27.481829], "type": "Point"}, "properties": {"name": "Heidelberg St near Mowbray Tce, stop 14", "stop_I": "30"}, "id": "29", "type": "Feature"}, {"geometry": {"coordinates": [152.979364, -27.417726], "type": "Point"}, "properties": {"name": "Taylors Rd near Mitcham St", "stop_I": "31"}, "id": "30", "type": "Feature"}, {"geometry": {"coordinates": [153.041359, -27.341952], "type": "Point"}, "properties": {"name": "Handford Rd at Handford - Roghan", "stop_I": "32"}, "id": "31", "type": "Feature"}, {"geometry": {"coordinates": [153.024996, -27.470652], "type": "Point"}, "properties": {"name": "Queen Street, 1G", "stop_I": "33"}, "id": "32", "type": "Feature"}, {"geometry": {"coordinates": [153.0011, -27.381369], "type": "Point"}, "properties": {"name": "Hamilton Rd at Trouts Rd, stop 46", "stop_I": "34"}, "id": "33", "type": "Feature"}, {"geometry": {"coordinates": [152.943421, -27.547352], "type": "Point"}, "properties": {"name": "Avondale Rd at Avondale - Glen Ross, stop 61", "stop_I": "35"}, "id": "34", "type": "Feature"}, {"geometry": {"coordinates": [152.944985, -27.54525], "type": "Point"}, "properties": {"name": "Avondale Rd at Avondale - Northbrook, stop 60", "stop_I": "36"}, "id": "35", "type": "Feature"}, {"geometry": {"coordinates": [153.025195, -27.470526], "type": "Point"}, "properties": {"name": "Queen Street, 1H", "stop_I": "37"}, "id": "36", "type": "Feature"}, {"geometry": {"coordinates": [153.032086, -27.542069], "type": "Point"}, "properties": {"name": "Tarragindi Rd at Sharon Street, stop 41", "stop_I": "38"}, "id": "37", "type": "Feature"}, {"geometry": {"coordinates": [152.950051, -27.33751], "type": "Point"}, "properties": {"name": "Queen Elizabeth Dr at Corso Street", "stop_I": "39"}, "id": "38", "type": "Feature"}, {"geometry": {"coordinates": [153.032237, -27.54203], "type": "Point"}, "properties": {"name": "Tarragindi Rd at Sharon Street, stop 41", "stop_I": "40"}, "id": "39", "type": "Feature"}, {"geometry": {"coordinates": [152.942862, -27.55125], "type": "Point"}, "properties": {"name": "Glen Ross Rd at St Amand Street, stop 53", "stop_I": "41"}, "id": "40", "type": "Feature"}, {"geometry": {"coordinates": [152.943339, -27.549], "type": "Point"}, "properties": {"name": "Glen Ross Rd at Wanata Street, stop 54", "stop_I": "42"}, "id": "41", "type": "Feature"}, {"geometry": {"coordinates": [152.987852, -27.598757], "type": "Point"}, "properties": {"name": "Blunder Rd near Rosella St, stop 60A", "stop_I": "43"}, "id": "42", "type": "Feature"}, {"geometry": {"coordinates": [152.985126, -27.606422], "type": "Point"}, "properties": {"name": "Wallaroo Way near Brushtail Cr, stop 61", "stop_I": "44"}, "id": "43", "type": "Feature"}, {"geometry": {"coordinates": [152.952169, -27.335962], "type": "Point"}, "properties": {"name": "Queen Elizabeth Dr at Hero Street", "stop_I": "45"}, "id": "44", "type": "Feature"}, {"geometry": {"coordinates": [152.987748, -27.605895], "type": "Point"}, "properties": {"name": "Blunder Rd at Doolandella North, stop 61a", "stop_I": "46"}, "id": "45", "type": "Feature"}, {"geometry": {"coordinates": [152.968959, -27.590417], "type": "Point"}, "properties": {"name": "Azalea St at Barberry St, stop 65", "stop_I": "47"}, "id": "46", "type": "Feature"}, {"geometry": {"coordinates": [152.974839, -27.581266], "type": "Point"}, "properties": {"name": "Rosemary St at Rosemary - Fir, stop 73", "stop_I": "48"}, "id": "47", "type": "Feature"}, {"geometry": {"coordinates": [152.975612, -27.584504], "type": "Point"}, "properties": {"name": "Rosemary St at Holly St, stop 74", "stop_I": "49"}, "id": "48", "type": "Feature"}, {"geometry": {"coordinates": [152.975937, -27.585864], "type": "Point"}, "properties": {"name": "Rosemary St at Inala School, stop 75", "stop_I": "50"}, "id": "49", "type": "Feature"}, {"geometry": {"coordinates": [153.007958, -27.424844], "type": "Point"}, "properties": {"name": "Days Rd at Yarradale Street, stop 2A", "stop_I": "51"}, "id": "50", "type": "Feature"}, {"geometry": {"coordinates": [153.011306, -27.425459], "type": "Point"}, "properties": {"name": "Days Rd at Wilston Road, stop 1A", "stop_I": "52"}, "id": "51", "type": "Feature"}, {"geometry": {"coordinates": [153.018788, -27.369999], "type": "Point"}, "properties": {"name": "Gympie Rd at Aspley South, stop 41", "stop_I": "53"}, "id": "52", "type": "Feature"}, {"geometry": {"coordinates": [153.017008, -27.366169], "type": "Point"}, "properties": {"name": "Gympie Rd near Albany Creek Rd, stop 42", "stop_I": "54"}, "id": "53", "type": "Feature"}, {"geometry": {"coordinates": [153.025416, -27.470372], "type": "Point"}, "properties": {"name": "Queen Street, 1I", "stop_I": "55"}, "id": "54", "type": "Feature"}, {"geometry": {"coordinates": [153.016959, -27.362386], "type": "Point"}, "properties": {"name": "Gympie Rd near Gayford St", "stop_I": "56"}, "id": "55", "type": "Feature"}, {"geometry": {"coordinates": [153.01665, -27.359794], "type": "Point"}, "properties": {"name": "Gympie Rd at Gayford Street, stop 44", "stop_I": "57"}, "id": "56", "type": "Feature"}, {"geometry": {"coordinates": [153.016768, -27.357899], "type": "Point"}, "properties": {"name": "Gympie Rd at Brickfield Street, stop 45", "stop_I": "58"}, "id": "57", "type": "Feature"}, {"geometry": {"coordinates": [152.94997, -27.337395], "type": "Point"}, "properties": {"name": "Queen Elizabeth Dr at Corso Street", "stop_I": "59"}, "id": "58", "type": "Feature"}, {"geometry": {"coordinates": [153.017047, -27.358884], "type": "Point"}, "properties": {"name": "Gympie Rd at Brickfield Street, stop 45/44", "stop_I": "60"}, "id": "59", "type": "Feature"}, {"geometry": {"coordinates": [153.031658, -27.541173], "type": "Point"}, "properties": {"name": "Tarragindi Rd at Davey Street, stop 40", "stop_I": "61"}, "id": "60", "type": "Feature"}, {"geometry": {"coordinates": [153.017316, -27.361745], "type": "Point"}, "properties": {"name": "Gympie Rd at Aspley Shops, stop 43", "stop_I": "62"}, "id": "61", "type": "Feature"}, {"geometry": {"coordinates": [153.017317, -27.362485], "type": "Point"}, "properties": {"name": "Gympie Rd at Aspley", "stop_I": "63"}, "id": "62", "type": "Feature"}, {"geometry": {"coordinates": [152.974401, -27.557877], "type": "Point"}, "properties": {"name": "Englefield Rd at Idriess Street", "stop_I": "64"}, "id": "63", "type": "Feature"}, {"geometry": {"coordinates": [152.955919, -27.334101], "type": "Point"}, "properties": {"name": "Queen Elizabeth Dr at Eatons Hill", "stop_I": "65"}, "id": "64", "type": "Feature"}, {"geometry": {"coordinates": [152.974913, -27.557644], "type": "Point"}, "properties": {"name": "Englefield Rd at Idriess Street", "stop_I": "66"}, "id": "65", "type": "Feature"}, {"geometry": {"coordinates": [152.972385, -27.558152], "type": "Point"}, "properties": {"name": "Englefield Rd at Lucock Street", "stop_I": "67"}, "id": "66", "type": "Feature"}, {"geometry": {"coordinates": [152.970057, -27.558746], "type": "Point"}, "properties": {"name": "Englefield Rd at Englefield West", "stop_I": "68"}, "id": "67", "type": "Feature"}, {"geometry": {"coordinates": [153.00916, -27.461167], "type": "Point"}, "properties": {"name": "Dowse St near Charlotte St, stop 5", "stop_I": "69"}, "id": "68", "type": "Feature"}, {"geometry": {"coordinates": [153.009262, -27.461278], "type": "Point"}, "properties": {"name": "Dowse St near Charlotte St, stop 5", "stop_I": "70"}, "id": "69", "type": "Feature"}, {"geometry": {"coordinates": [153.007261, -27.437667], "type": "Point"}, "properties": {"name": "Enoggera Rd at Newmarket, stop 20", "stop_I": "71"}, "id": "70", "type": "Feature"}, {"geometry": {"coordinates": [153.015439, -27.466129], "type": "Point"}, "properties": {"name": "Roma St at Upper Roma Street, stop 3", "stop_I": "72"}, "id": "71", "type": "Feature"}, {"geometry": {"coordinates": [153.011924, -27.477055], "type": "Point"}, "properties": {"name": "Mollison St near Melbourne St, stop 5", "stop_I": "73"}, "id": "72", "type": "Feature"}, {"geometry": {"coordinates": [153.025136, -27.470357], "type": "Point"}, "properties": {"name": "Queen Street, 3B", "stop_I": "74"}, "id": "73", "type": "Feature"}, {"geometry": {"coordinates": [152.991869, -27.420314], "type": "Point"}, "properties": {"name": "Enoggera interchange, platform B1", "stop_I": "75"}, "id": "74", "type": "Feature"}, {"geometry": {"coordinates": [152.99223, -27.420473], "type": "Point"}, "properties": {"name": "Enoggera interchange, platform C", "stop_I": "76"}, "id": "75", "type": "Feature"}, {"geometry": {"coordinates": [153.019665, -27.480461], "type": "Point"}, "properties": {"name": "Ernest St at Brisbane State High, stop 3", "stop_I": "77"}, "id": "76", "type": "Feature"}, {"geometry": {"coordinates": [153.024839, -27.470371], "type": "Point"}, "properties": {"name": "Queen Street, 3A", "stop_I": "78"}, "id": "77", "type": "Feature"}, {"geometry": {"coordinates": [153.002629, -27.359747], "type": "Point"}, "properties": {"name": "Albany Creek Rd at Bangalow Street", "stop_I": "79"}, "id": "78", "type": "Feature"}, {"geometry": {"coordinates": [152.969912, -27.558645], "type": "Point"}, "properties": {"name": "Englefield Rd at Englefield West", "stop_I": "80"}, "id": "79", "type": "Feature"}, {"geometry": {"coordinates": [153.166299, -27.434366], "type": "Point"}, "properties": {"name": "Tingal Rd at Wynnum North State School, stop 10/5", "stop_I": "81"}, "id": "80", "type": "Feature"}, {"geometry": {"coordinates": [153.176892, -27.459064], "type": "Point"}, "properties": {"name": "Manly Rd near Preston Rd", "stop_I": "82"}, "id": "81", "type": "Feature"}, {"geometry": {"coordinates": [153.166316, -27.43482], "type": "Point"}, "properties": {"name": "Tingal Rd at Wynnum North State School, stop 10/5", "stop_I": "83"}, "id": "82", "type": "Feature"}, {"geometry": {"coordinates": [153.177174, -27.458586], "type": "Point"}, "properties": {"name": "Manly Rd near Fisher St Stop 70", "stop_I": "84"}, "id": "83", "type": "Feature"}, {"geometry": {"coordinates": [153.02477, -27.470161], "type": "Point"}, "properties": {"name": "Queen Street, 2A", "stop_I": "86"}, "id": "84", "type": "Feature"}, {"geometry": {"coordinates": [153.041435, -27.387543], "type": "Point"}, "properties": {"name": "Hamilton Rd at Unmack Street, stop 50", "stop_I": "87"}, "id": "85", "type": "Feature"}, {"geometry": {"coordinates": [152.986175, -27.399706], "type": "Point"}, "properties": {"name": "Old Northern Rd at Everton Junction near", "stop_I": "88"}, "id": "86", "type": "Feature"}, {"geometry": {"coordinates": [153.038887, -27.387041], "type": "Point"}, "properties": {"name": "Hamilton Rd at Corrie Street, stop 51", "stop_I": "90"}, "id": "87", "type": "Feature"}, {"geometry": {"coordinates": [153.070864, -27.436634], "type": "Point"}, "properties": {"name": "Nudgee Rd near Allen St, stop 29", "stop_I": "91"}, "id": "88", "type": "Feature"}, {"geometry": {"coordinates": [152.979171, -27.40267], "type": "Point"}, "properties": {"name": "Osborne Rd at Osborne North, stop 51", "stop_I": "92"}, "id": "89", "type": "Feature"}, {"geometry": {"coordinates": [153.177578, -27.460225], "type": "Point"}, "properties": {"name": "Whites Rd at Curtis Street, stop 71", "stop_I": "93"}, "id": "90", "type": "Feature"}, {"geometry": {"coordinates": [153.177886, -27.460666], "type": "Point"}, "properties": {"name": "Whites Rd at Curtis Street, stop 71", "stop_I": "94"}, "id": "91", "type": "Feature"}, {"geometry": {"coordinates": [153.02489, -27.47007], "type": "Point"}, "properties": {"name": "Queen Street, 2B", "stop_I": "95"}, "id": "92", "type": "Feature"}, {"geometry": {"coordinates": [153.179042, -27.461492], "type": "Point"}, "properties": {"name": "Whites Rd at Gannon Avenue, stop 72", "stop_I": "96"}, "id": "93", "type": "Feature"}, {"geometry": {"coordinates": [153.180486, -27.463601], "type": "Point"}, "properties": {"name": "Whites Rd at Manly Gardens, stop 73", "stop_I": "97"}, "id": "94", "type": "Feature"}, {"geometry": {"coordinates": [153.180593, -27.463498], "type": "Point"}, "properties": {"name": "Whites Rd at Manly Gardens, stop 73", "stop_I": "98"}, "id": "95", "type": "Feature"}, {"geometry": {"coordinates": [153.179271, -27.461867], "type": "Point"}, "properties": {"name": "Whites Rd at Gannon Avenue, stop 72", "stop_I": "99"}, "id": "96", "type": "Feature"}, {"geometry": {"coordinates": [153.181086, -27.464672], "type": "Point"}, "properties": {"name": "Whites Rd at Wynnum Hospital, stop 74", "stop_I": "100"}, "id": "97", "type": "Feature"}, {"geometry": {"coordinates": [153.181061, -27.464888], "type": "Point"}, "properties": {"name": "Whites Rd at Wynnum Hospital, stop 74", "stop_I": "101"}, "id": "98", "type": "Feature"}, {"geometry": {"coordinates": [153.181848, -27.466314], "type": "Point"}, "properties": {"name": "Whites Rd at Hindes Street, stop 75", "stop_I": "102"}, "id": "99", "type": "Feature"}, {"geometry": {"coordinates": [153.181784, -27.466511], "type": "Point"}, "properties": {"name": "Whites Rd at Hindes Street, stop 75", "stop_I": "103"}, "id": "100", "type": "Feature"}, {"geometry": {"coordinates": [153.086892, -27.560707], "type": "Point"}, "properties": {"name": "Tryon St at Centre Tryon Street, stop 80", "stop_I": "104"}, "id": "101", "type": "Feature"}, {"geometry": {"coordinates": [153.002571, -27.35946], "type": "Point"}, "properties": {"name": "Albany Creek Rd at Bangalow Street", "stop_I": "105"}, "id": "102", "type": "Feature"}, {"geometry": {"coordinates": [153.170164, -27.445804], "type": "Point"}, "properties": {"name": "Andrew St near Ronald St Stop 100", "stop_I": "106"}, "id": "103", "type": "Feature"}, {"geometry": {"coordinates": [153.188246, -27.463224], "type": "Point"}, "properties": {"name": "Oceana Tce at Lota House, stop 81", "stop_I": "107"}, "id": "104", "type": "Feature"}, {"geometry": {"coordinates": [153.098928, -27.485727], "type": "Point"}, "properties": {"name": "Creek Rd at Fursden Road, stop 47", "stop_I": "108"}, "id": "105", "type": "Feature"}, {"geometry": {"coordinates": [153.100114, -27.487765], "type": "Point"}, "properties": {"name": "Creek Rd at Carindale Tennis Centre, stop 46", "stop_I": "109"}, "id": "106", "type": "Feature"}, {"geometry": {"coordinates": [153.092815, -27.488892], "type": "Point"}, "properties": {"name": "Stanley Rd at Pembroke Street, stop 42", "stop_I": "110"}, "id": "107", "type": "Feature"}, {"geometry": {"coordinates": [153.093113, -27.488806], "type": "Point"}, "properties": {"name": "Stanley Rd at Pembroke Street, stop 42", "stop_I": "111"}, "id": "108", "type": "Feature"}, {"geometry": {"coordinates": [152.970352, -27.562761], "type": "Point"}, "properties": {"name": "Douglas St at Douglas St Central", "stop_I": "112"}, "id": "109", "type": "Feature"}, {"geometry": {"coordinates": [152.97044, -27.563706], "type": "Point"}, "properties": {"name": "Douglas St at Douglas St Central", "stop_I": "113"}, "id": "110", "type": "Feature"}, {"geometry": {"coordinates": [152.971001, -27.565391], "type": "Point"}, "properties": {"name": "Douglas St at Douglas St South", "stop_I": "114"}, "id": "111", "type": "Feature"}, {"geometry": {"coordinates": [153.025115, -27.469899], "type": "Point"}, "properties": {"name": "Queen Street, 2C", "stop_I": "115"}, "id": "112", "type": "Feature"}, {"geometry": {"coordinates": [153.030209, -27.403857], "type": "Point"}, "properties": {"name": "Strathmore St near Caithness St", "stop_I": "116"}, "id": "113", "type": "Feature"}, {"geometry": {"coordinates": [152.97085, -27.565368], "type": "Point"}, "properties": {"name": "Douglas St at Douglas St South", "stop_I": "117"}, "id": "114", "type": "Feature"}, {"geometry": {"coordinates": [153.018463, -27.523766], "type": "Point"}, "properties": {"name": "Crichton St near Park Rd, stop 27", "stop_I": "118"}, "id": "115", "type": "Feature"}, {"geometry": {"coordinates": [152.974393, -27.497417], "type": "Point"}, "properties": {"name": "Moggill Rd at Stamford Road, stop 22/23", "stop_I": "119"}, "id": "116", "type": "Feature"}, {"geometry": {"coordinates": [153.073016, -27.430397], "type": "Point"}, "properties": {"name": "Brassey St near Lamington Ave, stop 31", "stop_I": "120"}, "id": "117", "type": "Feature"}, {"geometry": {"coordinates": [153.031491, -27.541276], "type": "Point"}, "properties": {"name": "Tarragindi Rd at Davey Street, stop 40", "stop_I": "121"}, "id": "118", "type": "Feature"}, {"geometry": {"coordinates": [153.082346, -27.48728], "type": "Point"}, "properties": {"name": "Stanley Rd at Arrol Street, stop 38", "stop_I": "122"}, "id": "119", "type": "Feature"}, {"geometry": {"coordinates": [152.976062, -27.346127], "type": "Point"}, "properties": {"name": "Albany Creek Rd at Leitchs Road", "stop_I": "123"}, "id": "120", "type": "Feature"}, {"geometry": {"coordinates": [152.962301, -27.345073], "type": "Point"}, "properties": {"name": "South Pine Rd at Hylacola", "stop_I": "124"}, "id": "121", "type": "Feature"}, {"geometry": {"coordinates": [153.09824, -27.507704], "type": "Point"}, "properties": {"name": "Buzacott St near Buckley St, stop 48a", "stop_I": "125"}, "id": "122", "type": "Feature"}, {"geometry": {"coordinates": [152.949178, -27.535238], "type": "Point"}, "properties": {"name": "Goggs Rd at Windermere Village Shopping", "stop_I": "126"}, "id": "123", "type": "Feature"}, {"geometry": {"coordinates": [153.114637, -27.502254], "type": "Point"}, "properties": {"name": "Old Cleveland Rd at Belmont Primary School", "stop_I": "127"}, "id": "124", "type": "Feature"}, {"geometry": {"coordinates": [153.046532, -27.480224], "type": "Point"}, "properties": {"name": "Heidelberg St at Heath Street, stop 15", "stop_I": "128"}, "id": "125", "type": "Feature"}, {"geometry": {"coordinates": [153.060065, -27.443687], "type": "Point"}, "properties": {"name": "Harrison St near McConnell St, stop 40c", "stop_I": "129"}, "id": "126", "type": "Feature"}, {"geometry": {"coordinates": [153.063369, -27.443898], "type": "Point"}, "properties": {"name": "Byron St near Apollo Rd, stop 41", "stop_I": "130"}, "id": "127", "type": "Feature"}, {"geometry": {"coordinates": [153.063316, -27.446394], "type": "Point"}, "properties": {"name": "Apollo Rd at Shakespeare Street, stop 39", "stop_I": "131"}, "id": "128", "type": "Feature"}, {"geometry": {"coordinates": [153.046659, -27.480205], "type": "Point"}, "properties": {"name": "Heidelberg St at Heath Street, stop 15", "stop_I": "132"}, "id": "129", "type": "Feature"}, {"geometry": {"coordinates": [153.046325, -27.481976], "type": "Point"}, "properties": {"name": "Heidelberg St near Mowbray Tce, stop 14", "stop_I": "133"}, "id": "130", "type": "Feature"}, {"geometry": {"coordinates": [152.978127, -27.347822], "type": "Point"}, "properties": {"name": "Albany Creek Rd at Hawkins", "stop_I": "134"}, "id": "131", "type": "Feature"}, {"geometry": {"coordinates": [152.977335, -27.346884], "type": "Point"}, "properties": {"name": "Albany Creek Rd at Hawkins", "stop_I": "135"}, "id": "132", "type": "Feature"}, {"geometry": {"coordinates": [153.025228, -27.469813], "type": "Point"}, "properties": {"name": "Queen Street, 2D", "stop_I": "136"}, "id": "133", "type": "Feature"}, {"geometry": {"coordinates": [153.074426, -27.428782], "type": "Point"}, "properties": {"name": "Hampden St at Hopetoun Street, stop 30", "stop_I": "137"}, "id": "134", "type": "Feature"}, {"geometry": {"coordinates": [153.072921, -27.419184], "type": "Point"}, "properties": {"name": "Gerler Rd at Dorames Street, stop 37/36", "stop_I": "138"}, "id": "135", "type": "Feature"}, {"geometry": {"coordinates": [152.981618, -27.448078], "type": "Point"}, "properties": {"name": "Waterworks Rd at Girraween Grove, stop 21/22", "stop_I": "139"}, "id": "136", "type": "Feature"}, {"geometry": {"coordinates": [152.9928, -27.445555], "type": "Point"}, "properties": {"name": "Waterworks Rd at Ashgrove, stop 17", "stop_I": "140"}, "id": "137", "type": "Feature"}, {"geometry": {"coordinates": [152.942708, -27.436464], "type": "Point"}, "properties": {"name": "Kaloma Rd at Kaloma - Harward, stop 38", "stop_I": "141"}, "id": "138", "type": "Feature"}, {"geometry": {"coordinates": [152.940412, -27.435988], "type": "Point"}, "properties": {"name": "Kaloma Rd at Woorama Rd, stop 39", "stop_I": "142"}, "id": "139", "type": "Feature"}, {"geometry": {"coordinates": [152.935247, -27.436321], "type": "Point"}, "properties": {"name": "Hilder Rd at Kaloma - Hilder, stop 41", "stop_I": "143"}, "id": "140", "type": "Feature"}, {"geometry": {"coordinates": [152.982734, -27.4475], "type": "Point"}, "properties": {"name": "Waterworks Rd at Girraween Grove, stop 21", "stop_I": "144"}, "id": "141", "type": "Feature"}, {"geometry": {"coordinates": [152.95002, -27.453547], "type": "Point"}, "properties": {"name": "Koorong St at Devonhill St, stop 37", "stop_I": "145"}, "id": "142", "type": "Feature"}, {"geometry": {"coordinates": [153.006987, -27.455044], "type": "Point"}, "properties": {"name": "Musgrave Rd at Red Hill Shops, stop 8", "stop_I": "146"}, "id": "143", "type": "Feature"}, {"geometry": {"coordinates": [153.032396, -27.429326], "type": "Point"}, "properties": {"name": "Lutwyche Rd at Old Council Chambers, stop 16", "stop_I": "147"}, "id": "144", "type": "Feature"}, {"geometry": {"coordinates": [153.032368, -27.427683], "type": "Point"}, "properties": {"name": "Lutwyche Rd at Maygar Street, stop 17", "stop_I": "148"}, "id": "145", "type": "Feature"}, {"geometry": {"coordinates": [153.014822, -27.427037], "type": "Point"}, "properties": {"name": "Carberry St near Thomas St, stop 25C", "stop_I": "149"}, "id": "146", "type": "Feature"}, {"geometry": {"coordinates": [153.008154, -27.42499], "type": "Point"}, "properties": {"name": "Days Rd at Yarradale Street, stop 2A", "stop_I": "150"}, "id": "147", "type": "Feature"}, {"geometry": {"coordinates": [152.950269, -27.343729], "type": "Point"}, "properties": {"name": "Queen Elizabeth Dr at Eatonvale", "stop_I": "151"}, "id": "148", "type": "Feature"}, {"geometry": {"coordinates": [153.015186, -27.420919], "type": "Point"}, "properties": {"name": "Grange Rd at Raymont Road, stop 27", "stop_I": "152"}, "id": "149", "type": "Feature"}, {"geometry": {"coordinates": [153.033784, -27.421776], "type": "Point"}, "properties": {"name": "Lutwyche Rd at Lutwyche, stop 20", "stop_I": "153"}, "id": "150", "type": "Feature"}, {"geometry": {"coordinates": [152.991885, -27.353055], "type": "Point"}, "properties": {"name": "Albany Creek Rd at Pinnaroo", "stop_I": "154"}, "id": "151", "type": "Feature"}, {"geometry": {"coordinates": [152.968122, -27.464524], "type": "Point"}, "properties": {"name": "Carwoola St at Bardon, stop 22", "stop_I": "155"}, "id": "152", "type": "Feature"}, {"geometry": {"coordinates": [152.991045, -27.352974], "type": "Point"}, "properties": {"name": "Albany Creek Rd at Pinnaroo", "stop_I": "156"}, "id": "153", "type": "Feature"}, {"geometry": {"coordinates": [152.999818, -27.458818], "type": "Point"}, "properties": {"name": "Latrobe Tce at Old Ithaca Fire Station,", "stop_I": "157"}, "id": "154", "type": "Feature"}, {"geometry": {"coordinates": [152.99807, -27.459242], "type": "Point"}, "properties": {"name": "Latrobe Tce at Paddington Central, stop 10", "stop_I": "158"}, "id": "155", "type": "Feature"}, {"geometry": {"coordinates": [152.986375, -27.458126], "type": "Point"}, "properties": {"name": "MacGregor Tce at Bardon, stop 15", "stop_I": "159"}, "id": "156", "type": "Feature"}, {"geometry": {"coordinates": [153.063752, -27.492161], "type": "Point"}, "properties": {"name": "Old Cleveland Rd at Burke Street Stop 25", "stop_I": "160"}, "id": "157", "type": "Feature"}, {"geometry": {"coordinates": [153.100686, -27.492969], "type": "Point"}, "properties": {"name": "Zahel St at Williams Field, stop 40", "stop_I": "161"}, "id": "158", "type": "Feature"}, {"geometry": {"coordinates": [153.058817, -27.494888], "type": "Point"}, "properties": {"name": "Old Cleveland Rd at Coorparoo, stop 23", "stop_I": "162"}, "id": "159", "type": "Feature"}, {"geometry": {"coordinates": [152.948695, -27.341156], "type": "Point"}, "properties": {"name": "Elizabeth Dr at Saraband Drive", "stop_I": "163"}, "id": "160", "type": "Feature"}, {"geometry": {"coordinates": [153.088418, -27.496928], "type": "Point"}, "properties": {"name": "Jones Rd at Hill Crescent, stop 35/36", "stop_I": "164"}, "id": "161", "type": "Feature"}, {"geometry": {"coordinates": [153.088576, -27.496744], "type": "Point"}, "properties": {"name": "Jones Rd at Hill Crescent, stop 35/36", "stop_I": "165"}, "id": "162", "type": "Feature"}, {"geometry": {"coordinates": [153.043671, -27.498482], "type": "Point"}, "properties": {"name": "Old Cleveland Rd at Stones Corner Library, stop 17", "stop_I": "166"}, "id": "163", "type": "Feature"}, {"geometry": {"coordinates": [153.068326, -27.419561], "type": "Point"}, "properties": {"name": "Burilda St at Derby Street, stop 45", "stop_I": "167"}, "id": "164", "type": "Feature"}, {"geometry": {"coordinates": [153.058566, -27.494703], "type": "Point"}, "properties": {"name": "Old Cleveland Rd at Coorparoo Stop 23", "stop_I": "168"}, "id": "165", "type": "Feature"}, {"geometry": {"coordinates": [153.097236, -27.428715], "type": "Point"}, "properties": {"name": "Kingsford Smith Dr at Smithy, stop 41", "stop_I": "169"}, "id": "166", "type": "Feature"}, {"geometry": {"coordinates": [152.952289, -27.506499], "type": "Point"}, "properties": {"name": "Chapel Hill Rd near Neptune St, stop 1", "stop_I": "170"}, "id": "167", "type": "Feature"}, {"geometry": {"coordinates": [153.108084, -27.493604], "type": "Point"}, "properties": {"name": "Bedivere St at Lindisfarne Street", "stop_I": "171"}, "id": "168", "type": "Feature"}, {"geometry": {"coordinates": [153.107995, -27.493423], "type": "Point"}, "properties": {"name": "Bedivere St at Lindisfarne Street", "stop_I": "172"}, "id": "169", "type": "Feature"}, {"geometry": {"coordinates": [153.097374, -27.507674], "type": "Point"}, "properties": {"name": "Gallipoli Rd at Buzacott Street, stop 48a", "stop_I": "173"}, "id": "170", "type": "Feature"}, {"geometry": {"coordinates": [153.041118, -27.44296], "type": "Point"}, "properties": {"name": "Edmondstone Rd at Parkview, stop 14", "stop_I": "174"}, "id": "171", "type": "Feature"}, {"geometry": {"coordinates": [153.041287, -27.443455], "type": "Point"}, "properties": {"name": "Edmondstone Rd at Parkview, stop 14", "stop_I": "175"}, "id": "172", "type": "Feature"}, {"geometry": {"coordinates": [153.008572, -27.362708], "type": "Point"}, "properties": {"name": "Albany Creek Rd at Aspley Bowl", "stop_I": "176"}, "id": "173", "type": "Feature"}, {"geometry": {"coordinates": [153.008554, -27.362408], "type": "Point"}, "properties": {"name": "Albany Creek Rd at Aspley Bowl", "stop_I": "177"}, "id": "174", "type": "Feature"}, {"geometry": {"coordinates": [153.013906, -27.46621], "type": "Point"}, "properties": {"name": "Upper Roma St near Quay St, stop 3", "stop_I": "178"}, "id": "175", "type": "Feature"}, {"geometry": {"coordinates": [153.059661, -27.593948], "type": "Point"}, "properties": {"name": "Pinelands Rd at Barney Street, stop 70/71", "stop_I": "179"}, "id": "176", "type": "Feature"}, {"geometry": {"coordinates": [153.059318, -27.594033], "type": "Point"}, "properties": {"name": "Pinelands Rd at Barney Street, stop 71/70", "stop_I": "180"}, "id": "177", "type": "Feature"}, {"geometry": {"coordinates": [153.057082, -27.611476], "type": "Point"}, "properties": {"name": "Compton Rd at Sunnybank Hills Shops, stop 83", "stop_I": "181"}, "id": "178", "type": "Feature"}, {"geometry": {"coordinates": [153.063436, -27.611128], "type": "Point"}, "properties": {"name": "Compton Rd at Frizzell Street, stop 85", "stop_I": "182"}, "id": "179", "type": "Feature"}, {"geometry": {"coordinates": [153.062966, -27.611455], "type": "Point"}, "properties": {"name": "Compton Rd at Frizzell Street, stop 85", "stop_I": "183"}, "id": "180", "type": "Feature"}, {"geometry": {"coordinates": [153.038857, -27.452271], "type": "Point"}, "properties": {"name": "Wickham St at Light Street, stop 7", "stop_I": "184"}, "id": "181", "type": "Feature"}, {"geometry": {"coordinates": [153.068824, -27.611233], "type": "Point"}, "properties": {"name": "Compton Rd at Kyabra Street, stop 86", "stop_I": "185"}, "id": "182", "type": "Feature"}, {"geometry": {"coordinates": [153.069371, -27.61161], "type": "Point"}, "properties": {"name": "Compton Rd near Kyabra Street, stop 86", "stop_I": "186"}, "id": "183", "type": "Feature"}, {"geometry": {"coordinates": [153.071125, -27.612344], "type": "Point"}, "properties": {"name": "Eisenhower St at Park, stop 87", "stop_I": "187"}, "id": "184", "type": "Feature"}, {"geometry": {"coordinates": [153.070748, -27.612354], "type": "Point"}, "properties": {"name": "Ian Lynas Memorial Park", "stop_I": "188"}, "id": "185", "type": "Feature"}, {"geometry": {"coordinates": [153.071373, -27.614124], "type": "Point"}, "properties": {"name": "Eisenhower St near Hoover Ct, stop 88", "stop_I": "189"}, "id": "186", "type": "Feature"}, {"geometry": {"coordinates": [153.07036, -27.614436], "type": "Point"}, "properties": {"name": "Roosevelt Dr near Penson St, stop 88", "stop_I": "190"}, "id": "187", "type": "Feature"}, {"geometry": {"coordinates": [153.071322, -27.618659], "type": "Point"}, "properties": {"name": "Harrison St at Washington Place, stop 90", "stop_I": "191"}, "id": "188", "type": "Feature"}, {"geometry": {"coordinates": [153.071822, -27.616026], "type": "Point"}, "properties": {"name": "Harrison St at Truman Court, stop 89", "stop_I": "192"}, "id": "189", "type": "Feature"}, {"geometry": {"coordinates": [153.061242, -27.615961], "type": "Point"}, "properties": {"name": "Gowan Rd at Calam North, stop 35", "stop_I": "193"}, "id": "190", "type": "Feature"}, {"geometry": {"coordinates": [153.008664, -27.405852], "type": "Point"}, "properties": {"name": "Appleby Rd at Quandeine Street, stop 34", "stop_I": "194"}, "id": "191", "type": "Feature"}, {"geometry": {"coordinates": [153.060232, -27.621529], "type": "Point"}, "properties": {"name": "Gowan Rd at Pennant Hills", "stop_I": "195"}, "id": "192", "type": "Feature"}, {"geometry": {"coordinates": [153.091103, -27.488648], "type": "Point"}, "properties": {"name": "Stanley Rd at Sage Street, stop 41", "stop_I": "196"}, "id": "193", "type": "Feature"}, {"geometry": {"coordinates": [153.088507, -27.488282], "type": "Point"}, "properties": {"name": "Stanley Rd at Lunga Street, stop 40", "stop_I": "197"}, "id": "194", "type": "Feature"}, {"geometry": {"coordinates": [153.054765, -27.487205], "type": "Point"}, "properties": {"name": "Stanley St E at Coorparoo Secondary College", "stop_I": "198"}, "id": "195", "type": "Feature"}, {"geometry": {"coordinates": [153.005958, -27.373884], "type": "Point"}, "properties": {"name": "Stringybark Dr at Martindale Street, sto", "stop_I": "199"}, "id": "196", "type": "Feature"}, {"geometry": {"coordinates": [153.00849, -27.406002], "type": "Point"}, "properties": {"name": "Appleby Rd at Quandeine Street, stop 34", "stop_I": "200"}, "id": "197", "type": "Feature"}, {"geometry": {"coordinates": [153.073022, -27.486446], "type": "Point"}, "properties": {"name": "Perth St at St Thomas Primary, stop 31", "stop_I": "201"}, "id": "198", "type": "Feature"}, {"geometry": {"coordinates": [153.071086, -27.478969], "type": "Point"}, "properties": {"name": "Oateson Skyline Dr at Darcy Road, stop 40", "stop_I": "202"}, "id": "199", "type": "Feature"}, {"geometry": {"coordinates": [153.099605, -27.48752], "type": "Point"}, "properties": {"name": "Creek Rd at Carindale Tennis Centre, stop 46", "stop_I": "203"}, "id": "200", "type": "Feature"}, {"geometry": {"coordinates": [153.098672, -27.485915], "type": "Point"}, "properties": {"name": "Creek Rd at Fursden Road, stop 47", "stop_I": "204"}, "id": "201", "type": "Feature"}, {"geometry": {"coordinates": [153.095559, -27.48029], "type": "Point"}, "properties": {"name": "Creek Rd near Foxmont Dr, stop 50", "stop_I": "205"}, "id": "202", "type": "Feature"}, {"geometry": {"coordinates": [152.995507, -27.400825], "type": "Point"}, "properties": {"name": "Felstead St at Heflin Street", "stop_I": "206"}, "id": "203", "type": "Feature"}, {"geometry": {"coordinates": [152.995357, -27.400674], "type": "Point"}, "properties": {"name": "Felstead St at Heflin Street", "stop_I": "207"}, "id": "204", "type": "Feature"}, {"geometry": {"coordinates": [152.980897, -27.379145], "type": "Point"}, "properties": {"name": "Old Northern Rd at Hamilton Road", "stop_I": "208"}, "id": "205", "type": "Feature"}, {"geometry": {"coordinates": [152.966365, -27.627806], "type": "Point"}, "properties": {"name": "Grand Ave at Grand Avenue Cascade", "stop_I": "209"}, "id": "206", "type": "Feature"}, {"geometry": {"coordinates": [153.058865, -27.451234], "type": "Point"}, "properties": {"name": "Oxford St at Wambool Street, stop 31", "stop_I": "210"}, "id": "207", "type": "Feature"}, {"geometry": {"coordinates": [153.034699, -27.628634], "type": "Point"}, "properties": {"name": "Nottingham Rd at Avondale", "stop_I": "211"}, "id": "208", "type": "Feature"}, {"geometry": {"coordinates": [153.033491, -27.628514], "type": "Point"}, "properties": {"name": "Nottingham Rd at Avondale", "stop_I": "212"}, "id": "209", "type": "Feature"}, {"geometry": {"coordinates": [152.990764, -27.494259], "type": "Point"}, "properties": {"name": "Indooroopilly Rd at Jack Cook Park, stop 18/19", "stop_I": "213"}, "id": "210", "type": "Feature"}, {"geometry": {"coordinates": [152.990954, -27.493965], "type": "Point"}, "properties": {"name": "Indooroopilly Rd at Jack Cook Park, stop 18/19", "stop_I": "214"}, "id": "211", "type": "Feature"}, {"geometry": {"coordinates": [153.019112, -27.306492], "type": "Point"}, "properties": {"name": "Arnica Cr at Mantias Street, stop 56", "stop_I": "215"}, "id": "212", "type": "Feature"}, {"geometry": {"coordinates": [153.016431, -27.305887], "type": "Point"}, "properties": {"name": "Arnica Cr near Korina St, stop 57", "stop_I": "216"}, "id": "213", "type": "Feature"}, {"geometry": {"coordinates": [153.000098, -27.477925], "type": "Point"}, "properties": {"name": "Coronation Dr at Chasely Street, stop 8", "stop_I": "217"}, "id": "214", "type": "Feature"}, {"geometry": {"coordinates": [152.993878, -27.400581], "type": "Point"}, "properties": {"name": "Felstead St at Sizer Street", "stop_I": "218"}, "id": "215", "type": "Feature"}, {"geometry": {"coordinates": [152.993788, -27.400439], "type": "Point"}, "properties": {"name": "Felstead St at Sizer Street", "stop_I": "219"}, "id": "216", "type": "Feature"}, {"geometry": {"coordinates": [153.022243, -27.346523], "type": "Point"}, "properties": {"name": "Dorville Rd at Dorville North", "stop_I": "221"}, "id": "217", "type": "Feature"}, {"geometry": {"coordinates": [153.021355, -27.351794], "type": "Point"}, "properties": {"name": "Dorville Rd at Denver East", "stop_I": "222"}, "id": "218", "type": "Feature"}, {"geometry": {"coordinates": [153.021421, -27.350819], "type": "Point"}, "properties": {"name": "Dorville Rd at Denver East", "stop_I": "223"}, "id": "219", "type": "Feature"}, {"geometry": {"coordinates": [152.965641, -27.627967], "type": "Point"}, "properties": {"name": "Grand Ave at Grand Avenue Cascade", "stop_I": "224"}, "id": "220", "type": "Feature"}, {"geometry": {"coordinates": [153.041201, -27.504483], "type": "Point"}, "properties": {"name": "Juliette St at Baron Street, stop 18", "stop_I": "225"}, "id": "221", "type": "Feature"}, {"geometry": {"coordinates": [153.019507, -27.590389], "type": "Point"}, "properties": {"name": "Alderwood St at Benton Street Stop 67", "stop_I": "226"}, "id": "222", "type": "Feature"}, {"geometry": {"coordinates": [153.064867, -27.504762], "type": "Point"}, "properties": {"name": "Chatsworth Rd at Rossmore Ave, stop 32", "stop_I": "227"}, "id": "223", "type": "Feature"}, {"geometry": {"coordinates": [153.040346, -27.347398], "type": "Point"}, "properties": {"name": "Handford Rd at Liberty Dr", "stop_I": "228"}, "id": "224", "type": "Feature"}, {"geometry": {"coordinates": [153.019496, -27.590498], "type": "Point"}, "properties": {"name": "Alderwood St at Benton Street Stop 67", "stop_I": "229"}, "id": "225", "type": "Feature"}, {"geometry": {"coordinates": [153.000447, -27.425292], "type": "Point"}, "properties": {"name": "Samford Rd at Alderley Junction, stop 26", "stop_I": "230"}, "id": "226", "type": "Feature"}, {"geometry": {"coordinates": [152.99839, -27.424411], "type": "Point"}, "properties": {"name": "Samford Rd at Musgrave Terrace, stop 27", "stop_I": "231"}, "id": "227", "type": "Feature"}, {"geometry": {"coordinates": [152.995656, -27.423746], "type": "Point"}, "properties": {"name": "Samford Rd at Camborne Street, stop 28", "stop_I": "232"}, "id": "228", "type": "Feature"}, {"geometry": {"coordinates": [152.992514, -27.423071], "type": "Point"}, "properties": {"name": "Samford Rd at Bond Street, stop 29", "stop_I": "233"}, "id": "229", "type": "Feature"}, {"geometry": {"coordinates": [152.991285, -27.311329], "type": "Point"}, "properties": {"name": "Gympie Rd near Mecklem St", "stop_I": "235"}, "id": "230", "type": "Feature"}, {"geometry": {"coordinates": [152.989, -27.313642], "type": "Point"}, "properties": {"name": "South Pine Rd near Mott St", "stop_I": "236"}, "id": "231", "type": "Feature"}, {"geometry": {"coordinates": [152.990364, -27.312393], "type": "Point"}, "properties": {"name": "South Pine Rd near Station St", "stop_I": "237"}, "id": "232", "type": "Feature"}, {"geometry": {"coordinates": [152.987129, -27.325215], "type": "Point"}, "properties": {"name": "South Pine Rd near Deakin St", "stop_I": "238"}, "id": "233", "type": "Feature"}, {"geometry": {"coordinates": [152.988418, -27.316906], "type": "Point"}, "properties": {"name": "South Pine Rd near Hinkler Ct", "stop_I": "239"}, "id": "234", "type": "Feature"}, {"geometry": {"coordinates": [153.075796, -27.428979], "type": "Point"}, "properties": {"name": "Hampden St at St Ledger, stop 29", "stop_I": "240"}, "id": "235", "type": "Feature"}, {"geometry": {"coordinates": [152.988475, -27.317505], "type": "Point"}, "properties": {"name": "South Pine Rd near Kremzow Rd", "stop_I": "241"}, "id": "236", "type": "Feature"}, {"geometry": {"coordinates": [152.977658, -27.326135], "type": "Point"}, "properties": {"name": "South Pine Rd near Leitchs Rd", "stop_I": "242"}, "id": "237", "type": "Feature"}, {"geometry": {"coordinates": [152.978664, -27.326591], "type": "Point"}, "properties": {"name": "South Pine Rd near Leitchs Rd", "stop_I": "243"}, "id": "238", "type": "Feature"}, {"geometry": {"coordinates": [153.005888, -27.316742], "type": "Point"}, "properties": {"name": "Strathpine Rd at Adair Street", "stop_I": "244"}, "id": "239", "type": "Feature"}, {"geometry": {"coordinates": [153.00923, -27.317246], "type": "Point"}, "properties": {"name": "Strathpine Rd near Bald Hills Rd", "stop_I": "245"}, "id": "240", "type": "Feature"}, {"geometry": {"coordinates": [153.016549, -27.316976], "type": "Point"}, "properties": {"name": "Hoyland St near Kluver St", "stop_I": "246"}, "id": "241", "type": "Feature"}, {"geometry": {"coordinates": [153.016446, -27.317362], "type": "Point"}, "properties": {"name": "Hoyland St near Dresden St", "stop_I": "247"}, "id": "242", "type": "Feature"}, {"geometry": {"coordinates": [153.038735, -27.350181], "type": "Point"}, "properties": {"name": "Beams Rd at St Flannans", "stop_I": "248"}, "id": "243", "type": "Feature"}, {"geometry": {"coordinates": [153.010575, -27.510793], "type": "Point"}, "properties": {"name": "Hyde Rd at Rome Street North, stop 27", "stop_I": "249"}, "id": "244", "type": "Feature"}, {"geometry": {"coordinates": [153.032501, -27.403864], "type": "Point"}, "properties": {"name": "Castle St near Seabrook St", "stop_I": "250"}, "id": "245", "type": "Feature"}, {"geometry": {"coordinates": [153.039921, -27.354094], "type": "Point"}, "properties": {"name": "Battersby St near Victory St", "stop_I": "251"}, "id": "246", "type": "Feature"}, {"geometry": {"coordinates": [152.977226, -27.348284], "type": "Point"}, "properties": {"name": "Keong Rd near Seligan St", "stop_I": "252"}, "id": "247", "type": "Feature"}, {"geometry": {"coordinates": [152.976938, -27.34989], "type": "Point"}, "properties": {"name": "Keong Rd near Malvern Rd", "stop_I": "253"}, "id": "248", "type": "Feature"}, {"geometry": {"coordinates": [152.993501, -27.307531], "type": "Point"}, "properties": {"name": "Strathpine Shopping Centre, stop D", "stop_I": "254"}, "id": "249", "type": "Feature"}, {"geometry": {"coordinates": [153.023877, -27.401248], "type": "Point"}, "properties": {"name": "Mawson St at Oates Street", "stop_I": "255"}, "id": "250", "type": "Feature"}, {"geometry": {"coordinates": [153.072665, -27.425245], "type": "Point"}, "properties": {"name": "Nudgee Rd at Lilley Street, stop 34", "stop_I": "257"}, "id": "251", "type": "Feature"}, {"geometry": {"coordinates": [153.099875, -27.548349], "type": "Point"}, "properties": {"name": "Wishart Rd near Elkana Pl, stop 76", "stop_I": "258"}, "id": "252", "type": "Feature"}, {"geometry": {"coordinates": [153.020033, -27.544712], "type": "Point"}, "properties": {"name": "Beaudesert Rd at Moorooka South, stop 38", "stop_I": "259"}, "id": "253", "type": "Feature"}, {"geometry": {"coordinates": [153.09993, -27.548466], "type": "Point"}, "properties": {"name": "Wishart Rd near Elkana Pl, stop 76", "stop_I": "260"}, "id": "254", "type": "Feature"}, {"geometry": {"coordinates": [152.962107, -27.407642], "type": "Point"}, "properties": {"name": "Dawson Pde near Link Rd", "stop_I": "261"}, "id": "255", "type": "Feature"}, {"geometry": {"coordinates": [153.050659, -27.5595], "type": "Point"}, "properties": {"name": "Troughton Rd at QEII Hospital", "stop_I": "262"}, "id": "256", "type": "Feature"}, {"geometry": {"coordinates": [153.09648, -27.561427], "type": "Point"}, "properties": {"name": "Delavan St at Delavan Street Park, stop 85", "stop_I": "263"}, "id": "257", "type": "Feature"}, {"geometry": {"coordinates": [153.044225, -27.472553], "type": "Point"}, "properties": {"name": "Sydney St at Llewellyn Street", "stop_I": "264"}, "id": "258", "type": "Feature"}, {"geometry": {"coordinates": [153.048783, -27.505209], "type": "Point"}, "properties": {"name": "Logan Rd at Bardsley Avenue, stop 20", "stop_I": "265"}, "id": "259", "type": "Feature"}, {"geometry": {"coordinates": [153.072864, -27.425026], "type": "Point"}, "properties": {"name": "Nudgee Rd near Lilley St, stop 34", "stop_I": "266"}, "id": "260", "type": "Feature"}, {"geometry": {"coordinates": [153.080741, -27.558713], "type": "Point"}, "properties": {"name": "Logan Rd at Mt Gravatt Corner, stop 44", "stop_I": "267"}, "id": "261", "type": "Feature"}, {"geometry": {"coordinates": [152.9618, -27.404816], "type": "Point"}, "properties": {"name": "Dawson Pde at Grovely station", "stop_I": "268"}, "id": "262", "type": "Feature"}, {"geometry": {"coordinates": [153.069195, -27.497859], "type": "Point"}, "properties": {"name": "Newman Ave at Kelsey Street, stop 35", "stop_I": "269"}, "id": "263", "type": "Feature"}, {"geometry": {"coordinates": [153.050402, -27.559921], "type": "Point"}, "properties": {"name": "Troughton Rd at QEII Hospital, stop 37", "stop_I": "270"}, "id": "264", "type": "Feature"}, {"geometry": {"coordinates": [153.089608, -27.547789], "type": "Point"}, "properties": {"name": "Wemvern St near Sunnydale St, stop 74", "stop_I": "271"}, "id": "265", "type": "Feature"}, {"geometry": {"coordinates": [152.977723, -27.495156], "type": "Point"}, "properties": {"name": "York St near Prince St, stop 29", "stop_I": "272"}, "id": "266", "type": "Feature"}, {"geometry": {"coordinates": [153.04902, -27.471632], "type": "Point"}, "properties": {"name": "Elystan Rd near Mark St", "stop_I": "273"}, "id": "267", "type": "Feature"}, {"geometry": {"coordinates": [152.980125, -27.484285], "type": "Point"}, "properties": {"name": "Soudan St near Bent St, stop 24", "stop_I": "274"}, "id": "268", "type": "Feature"}, {"geometry": {"coordinates": [152.977131, -27.484734], "type": "Point"}, "properties": {"name": "Exmouth St near Camp St, stop 26", "stop_I": "275"}, "id": "269", "type": "Feature"}, {"geometry": {"coordinates": [153.04107, -27.457563], "type": "Point"}, "properties": {"name": "James St near Arthur St, stop 9", "stop_I": "276"}, "id": "270", "type": "Feature"}, {"geometry": {"coordinates": [153.072993, -27.612198], "type": "Point"}, "properties": {"name": "Compton Rd at Piccadilly Way, stop 28", "stop_I": "277"}, "id": "271", "type": "Feature"}, {"geometry": {"coordinates": [153.015036, -27.571551], "type": "Point"}, "properties": {"name": "Kerry Rd at Beatty Rd, stop 52", "stop_I": "278"}, "id": "272", "type": "Feature"}, {"geometry": {"coordinates": [153.014931, -27.571423], "type": "Point"}, "properties": {"name": "Kerry Rd at Beatty Rd, stop 52", "stop_I": "279"}, "id": "273", "type": "Feature"}, {"geometry": {"coordinates": [153.026712, -27.322829], "type": "Point"}, "properties": {"name": "Norris Rd near Barbour Rd", "stop_I": "280"}, "id": "274", "type": "Feature"}, {"geometry": {"coordinates": [153.049733, -27.463393], "type": "Point"}, "properties": {"name": "Merthyr Rd at Hawthorne Street, stop 13", "stop_I": "281"}, "id": "275", "type": "Feature"}, {"geometry": {"coordinates": [153.050037, -27.461113], "type": "Point"}, "properties": {"name": "Macquarie St at Saratoga, stop 13A", "stop_I": "282"}, "id": "276", "type": "Feature"}, {"geometry": {"coordinates": [153.049984, -27.46333], "type": "Point"}, "properties": {"name": "Merthyr Rd at Hawthorne Street, stop 13", "stop_I": "283"}, "id": "277", "type": "Feature"}, {"geometry": {"coordinates": [153.0276, -27.403461], "type": "Point"}, "properties": {"name": "Strathmore St near Connolly St", "stop_I": "284"}, "id": "278", "type": "Feature"}, {"geometry": {"coordinates": [153.054424, -27.513511], "type": "Point"}, "properties": {"name": "Logan Rd at Raff Ave, stop 25", "stop_I": "285"}, "id": "279", "type": "Feature"}, {"geometry": {"coordinates": [152.995632, -27.428508], "type": "Point"}, "properties": {"name": "Cole St near Elfreda St, stop 27", "stop_I": "286"}, "id": "280", "type": "Feature"}, {"geometry": {"coordinates": [153.019958, -27.400867], "type": "Point"}, "properties": {"name": "Wattle St near Mawson St, stop 35", "stop_I": "287"}, "id": "281", "type": "Feature"}, {"geometry": {"coordinates": [152.995528, -27.428407], "type": "Point"}, "properties": {"name": "Cole St near Hilda St, stop 27", "stop_I": "288"}, "id": "282", "type": "Feature"}, {"geometry": {"coordinates": [153.020815, -27.402326], "type": "Point"}, "properties": {"name": "Scott St at Chisholm Street", "stop_I": "289"}, "id": "283", "type": "Feature"}, {"geometry": {"coordinates": [153.026776, -27.323259], "type": "Point"}, "properties": {"name": "Norris Rd near Barbour Rd", "stop_I": "290"}, "id": "284", "type": "Feature"}, {"geometry": {"coordinates": [153.021184, -27.402491], "type": "Point"}, "properties": {"name": "Scott St at Chisholm Street", "stop_I": "291"}, "id": "285", "type": "Feature"}, {"geometry": {"coordinates": [153.056685, -27.515304], "type": "Point"}, "properties": {"name": "Logan Rd at CB Mott Park, stop 26", "stop_I": "292"}, "id": "286", "type": "Feature"}, {"geometry": {"coordinates": [152.995934, -27.426875], "type": "Point"}, "properties": {"name": "Cole St at Cole - Lloyd, stop 28", "stop_I": "293"}, "id": "287", "type": "Feature"}, {"geometry": {"coordinates": [152.995836, -27.426495], "type": "Point"}, "properties": {"name": "Cole St at Cole - Lloyd, stop 28", "stop_I": "294"}, "id": "288", "type": "Feature"}, {"geometry": {"coordinates": [153.06936, -27.517091], "type": "Point"}, "properties": {"name": "Holland Rd at Greenmount Avenue, stop 45", "stop_I": "295"}, "id": "289", "type": "Feature"}, {"geometry": {"coordinates": [153.072084, -27.520203], "type": "Point"}, "properties": {"name": "Elgar St at Rowton Street, stop 47", "stop_I": "296"}, "id": "290", "type": "Feature"}, {"geometry": {"coordinates": [153.070803, -27.521005], "type": "Point"}, "properties": {"name": "Elgar St near Olroy St, stop 47a", "stop_I": "297"}, "id": "291", "type": "Feature"}, {"geometry": {"coordinates": [153.027166, -27.38913], "type": "Point"}, "properties": {"name": "Wallace St near Farnell St", "stop_I": "298"}, "id": "292", "type": "Feature"}, {"geometry": {"coordinates": [153.045954, -27.454457], "type": "Point"}, "properties": {"name": "Harcourt St at Hough Lane", "stop_I": "299"}, "id": "293", "type": "Feature"}, {"geometry": {"coordinates": [153.044979, -27.455284], "type": "Point"}, "properties": {"name": "Harcourt St at Hough Lane", "stop_I": "300"}, "id": "294", "type": "Feature"}, {"geometry": {"coordinates": [153.074012, -27.521385], "type": "Point"}, "properties": {"name": "Seville Rd at Seville Shops, stop 48", "stop_I": "301"}, "id": "295", "type": "Feature"}, {"geometry": {"coordinates": [152.979155, -27.402251], "type": "Point"}, "properties": {"name": "Osborne Rd at Osborne North, stop 51", "stop_I": "302"}, "id": "296", "type": "Feature"}, {"geometry": {"coordinates": [153.075965, -27.523064], "type": "Point"}, "properties": {"name": "Cradock St at Mar Street, stop 49", "stop_I": "303"}, "id": "297", "type": "Feature"}, {"geometry": {"coordinates": [153.070971, -27.522808], "type": "Point"}, "properties": {"name": "Glindemann Dr near Seville Rd, stop 47b", "stop_I": "304"}, "id": "298", "type": "Feature"}, {"geometry": {"coordinates": [152.991736, -27.465642], "type": "Point"}, "properties": {"name": "Rainworth Rd at Norm Buchan Park East, stop 12", "stop_I": "305"}, "id": "299", "type": "Feature"}, {"geometry": {"coordinates": [153.040856, -27.35434], "type": "Point"}, "properties": {"name": "Battersby St near Birdwood St", "stop_I": "306"}, "id": "300", "type": "Feature"}, {"geometry": {"coordinates": [153.071139, -27.522831], "type": "Point"}, "properties": {"name": "Glindemann Dr near Seville Rd, stop 47b", "stop_I": "307"}, "id": "301", "type": "Feature"}, {"geometry": {"coordinates": [153.071953, -27.522817], "type": "Point"}, "properties": {"name": "Seville Rd near Glindemann Dr, stop 47c", "stop_I": "308"}, "id": "302", "type": "Feature"}, {"geometry": {"coordinates": [153.016081, -27.452014], "type": "Point"}, "properties": {"name": "Victoria Park Rd at QUT Victoria Park Rd", "stop_I": "309"}, "id": "303", "type": "Feature"}, {"geometry": {"coordinates": [153.072017, -27.522644], "type": "Point"}, "properties": {"name": "Seville Rd near Dobbie St, stop 47c", "stop_I": "310"}, "id": "304", "type": "Feature"}, {"geometry": {"coordinates": [153.080316, -27.560331], "type": "Point"}, "properties": {"name": "Kessels Rd at Cremin Street, stop 60/45", "stop_I": "311"}, "id": "305", "type": "Feature"}, {"geometry": {"coordinates": [153.079722, -27.560243], "type": "Point"}, "properties": {"name": "Kessels Rd at Cremin Street, stop 45/60", "stop_I": "312"}, "id": "306", "type": "Feature"}, {"geometry": {"coordinates": [153.079725, -27.553968], "type": "Point"}, "properties": {"name": "Logan Rd at St Bernard, stop 42", "stop_I": "313"}, "id": "307", "type": "Feature"}, {"geometry": {"coordinates": [153.073503, -27.611986], "type": "Point"}, "properties": {"name": "Compton Rd at Piccadilly Way, stop 28", "stop_I": "314"}, "id": "308", "type": "Feature"}, {"geometry": {"coordinates": [153.057404, -27.430105], "type": "Point"}, "properties": {"name": "Upper Lancaster Rd near Wren Street, stop 25", "stop_I": "315"}, "id": "309", "type": "Feature"}, {"geometry": {"coordinates": [153.070353, -27.521158], "type": "Point"}, "properties": {"name": "Elgar St near Olroy St, stop 47a", "stop_I": "316"}, "id": "310", "type": "Feature"}, {"geometry": {"coordinates": [153.057326, -27.430224], "type": "Point"}, "properties": {"name": "Upper Lancaster Rd near Wren Street, stop 25", "stop_I": "317"}, "id": "311", "type": "Feature"}, {"geometry": {"coordinates": [153.06976, -27.517006], "type": "Point"}, "properties": {"name": "Holland Rd at Greenmount Avenue, stop 45", "stop_I": "318"}, "id": "312", "type": "Feature"}, {"geometry": {"coordinates": [152.961319, -27.401056], "type": "Point"}, "properties": {"name": "Dawson Pde near Casey St", "stop_I": "319"}, "id": "313", "type": "Feature"}, {"geometry": {"coordinates": [152.952272, -27.50816], "type": "Point"}, "properties": {"name": "Moggill Rd at Bredden Street, stop 32", "stop_I": "320"}, "id": "314", "type": "Feature"}, {"geometry": {"coordinates": [152.961675, -27.402725], "type": "Point"}, "properties": {"name": "Dawson Pde near Madsen St", "stop_I": "321"}, "id": "315", "type": "Feature"}, {"geometry": {"coordinates": [152.950016, -27.507521], "type": "Point"}, "properties": {"name": "Moggill Rd at Marshall Lane, stop 33", "stop_I": "322"}, "id": "316", "type": "Feature"}, {"geometry": {"coordinates": [152.946793, -27.513475], "type": "Point"}, "properties": {"name": "Marshall Lane near Gilruth Rd, stop 36", "stop_I": "323"}, "id": "317", "type": "Feature"}, {"geometry": {"coordinates": [152.922767, -27.520362], "type": "Point"}, "properties": {"name": "Moggill Rd at Rafting Ground Park", "stop_I": "324"}, "id": "318", "type": "Feature"}, {"geometry": {"coordinates": [152.945302, -27.412563], "type": "Point"}, "properties": {"name": "Gilliat St near Camoola St, stop 36b", "stop_I": "325"}, "id": "319", "type": "Feature"}, {"geometry": {"coordinates": [152.93265, -27.512468], "type": "Point"}, "properties": {"name": "Lanark St near Kilkivan Ave, stop 39a", "stop_I": "326"}, "id": "320", "type": "Feature"}, {"geometry": {"coordinates": [152.975708, -27.454754], "type": "Point"}, "properties": {"name": "Davies Rd near Coolibah St, stop 33", "stop_I": "327"}, "id": "321", "type": "Feature"}, {"geometry": {"coordinates": [152.994264, -27.450517], "type": "Point"}, "properties": {"name": "Arthur Tce near Dean St, stop 15A", "stop_I": "328"}, "id": "322", "type": "Feature"}, {"geometry": {"coordinates": [152.993903, -27.488733], "type": "Point"}, "properties": {"name": "Brisbane St at Kayes Rocks, stop 15", "stop_I": "329"}, "id": "323", "type": "Feature"}, {"geometry": {"coordinates": [152.933696, -27.506013], "type": "Point"}, "properties": {"name": "Brookfield Rd at Kenmore West, stop 37", "stop_I": "330"}, "id": "324", "type": "Feature"}, {"geometry": {"coordinates": [153.022598, -27.525557], "type": "Point"}, "properties": {"name": "Ipswich Rd at Clifton Hill near Beaudesert Rd", "stop_I": "331"}, "id": "325", "type": "Feature"}, {"geometry": {"coordinates": [152.962524, -27.410908], "type": "Point"}, "properties": {"name": "Dawson Pde at Crampton St", "stop_I": "332"}, "id": "326", "type": "Feature"}, {"geometry": {"coordinates": [153.060535, -27.496449], "type": "Point"}, "properties": {"name": "Cavendish Rd at Shire Street, stop 27/28", "stop_I": "333"}, "id": "327", "type": "Feature"}, {"geometry": {"coordinates": [153.062257, -27.505963], "type": "Point"}, "properties": {"name": "Cavendish Rd near Kanumbra St", "stop_I": "334"}, "id": "328", "type": "Feature"}, {"geometry": {"coordinates": [153.013202, -27.472301], "type": "Point"}, "properties": {"name": "Montague Rd near Boundary St, stop 4", "stop_I": "335"}, "id": "329", "type": "Feature"}, {"geometry": {"coordinates": [153.064067, -27.50935], "type": "Point"}, "properties": {"name": "Cavendish Rd at Loreto College, stop 35", "stop_I": "336"}, "id": "330", "type": "Feature"}, {"geometry": {"coordinates": [153.009095, -27.321863], "type": "Point"}, "properties": {"name": "Gympie Rd near Bald Hills Rd", "stop_I": "337"}, "id": "331", "type": "Feature"}, {"geometry": {"coordinates": [153.066316, -27.511741], "type": "Point"}, "properties": {"name": "Cavendish Rd at Arlington Street, stop 37", "stop_I": "338"}, "id": "332", "type": "Feature"}, {"geometry": {"coordinates": [153.069986, -27.512769], "type": "Point"}, "properties": {"name": "Cavendish Rd at Stoneleigh Street, stop 38", "stop_I": "339"}, "id": "333", "type": "Feature"}, {"geometry": {"coordinates": [153.072894, -27.515466], "type": "Point"}, "properties": {"name": "Cavendish Rd at Cavendish Rd Reservoir, stop 40", "stop_I": "340"}, "id": "334", "type": "Feature"}, {"geometry": {"coordinates": [153.078518, -27.518807], "type": "Point"}, "properties": {"name": "Cavendish Rd at Crystal Street, stop 50", "stop_I": "341"}, "id": "335", "type": "Feature"}, {"geometry": {"coordinates": [153.015074, -27.534291], "type": "Point"}, "properties": {"name": "Ipswich Rd at Moorooka station, stop 38/39", "stop_I": "342"}, "id": "336", "type": "Feature"}, {"geometry": {"coordinates": [152.983353, -27.53013], "type": "Point"}, "properties": {"name": "Thomas St near Oxley Rd, stop 55", "stop_I": "343"}, "id": "337", "type": "Feature"}, {"geometry": {"coordinates": [152.983501, -27.52997], "type": "Point"}, "properties": {"name": "Thomas St near Oxley Rd, stop 55", "stop_I": "345"}, "id": "338", "type": "Feature"}, {"geometry": {"coordinates": [152.931482, -27.401122], "type": "Point"}, "properties": {"name": "Archdale Rd near Ballylin St", "stop_I": "346"}, "id": "339", "type": "Feature"}, {"geometry": {"coordinates": [153.075737, -27.558246], "type": "Point"}, "properties": {"name": "Nagle St near Pickworth St, stop 79", "stop_I": "347"}, "id": "340", "type": "Feature"}, {"geometry": {"coordinates": [153.071096, -27.556472], "type": "Point"}, "properties": {"name": "Tora St near Ilya St, stop 77", "stop_I": "348"}, "id": "341", "type": "Feature"}, {"geometry": {"coordinates": [153.093255, -27.561696], "type": "Point"}, "properties": {"name": "Delavan St at Wolcott Street, stop 86", "stop_I": "349"}, "id": "342", "type": "Feature"}, {"geometry": {"coordinates": [153.093236, -27.561583], "type": "Point"}, "properties": {"name": "Delavan St at Wolcott Street, stop 86", "stop_I": "350"}, "id": "343", "type": "Feature"}, {"geometry": {"coordinates": [153.09652, -27.561268], "type": "Point"}, "properties": {"name": "Delavan St at Delavan Street Park, stop 85", "stop_I": "351"}, "id": "344", "type": "Feature"}, {"geometry": {"coordinates": [153.061705, -27.49859], "type": "Point"}, "properties": {"name": "Cavendish Rd at York Street, stop 29", "stop_I": "352"}, "id": "345", "type": "Feature"}, {"geometry": {"coordinates": [153.011385, -27.474026], "type": "Point"}, "properties": {"name": "Montague Rd near Brereton St, stop 5", "stop_I": "353"}, "id": "346", "type": "Feature"}, {"geometry": {"coordinates": [153.086976, -27.553974], "type": "Point"}, "properties": {"name": "Dawson Rd at Brockhouse Street, stop 77", "stop_I": "354"}, "id": "347", "type": "Feature"}, {"geometry": {"coordinates": [153.048331, -27.505208], "type": "Point"}, "properties": {"name": "Logan Rd at Bardsley Avenue, stop 20", "stop_I": "355"}, "id": "348", "type": "Feature"}, {"geometry": {"coordinates": [153.087519, -27.544358], "type": "Point"}, "properties": {"name": "Hillgrove St at Kingsway Street, stop 41", "stop_I": "356"}, "id": "349", "type": "Feature"}, {"geometry": {"coordinates": [153.088959, -27.546712], "type": "Point"}, "properties": {"name": "Wishart Rd at Pinner Street, stop 43", "stop_I": "357"}, "id": "350", "type": "Feature"}, {"geometry": {"coordinates": [153.084706, -27.559157], "type": "Point"}, "properties": {"name": "Tryon St at Mascar Street, stop 81", "stop_I": "358"}, "id": "351", "type": "Feature"}, {"geometry": {"coordinates": [152.955433, -27.414021], "type": "Point"}, "properties": {"name": "Satinay St at Samford - Blackbutt", "stop_I": "359"}, "id": "352", "type": "Feature"}, {"geometry": {"coordinates": [153.006995, -27.452119], "type": "Point"}, "properties": {"name": "Windsor Rd at Windsor - Prospect, stop 9", "stop_I": "360"}, "id": "353", "type": "Feature"}, {"geometry": {"coordinates": [153.006252, -27.446478], "type": "Point"}, "properties": {"name": "Windsor Rd near Errard St, stop 12", "stop_I": "361"}, "id": "354", "type": "Feature"}, {"geometry": {"coordinates": [152.995539, -27.442376], "type": "Point"}, "properties": {"name": "Ashgrove Ave near Bott St, stop 25", "stop_I": "362"}, "id": "355", "type": "Feature"}, {"geometry": {"coordinates": [152.987965, -27.434562], "type": "Point"}, "properties": {"name": "Victoria St near Wardell St, stop 33", "stop_I": "363"}, "id": "356", "type": "Feature"}, {"geometry": {"coordinates": [152.983624, -27.440478], "type": "Point"}, "properties": {"name": "Arinya Rd near Mirrabooka Rd, stop 39", "stop_I": "364"}, "id": "357", "type": "Feature"}, {"geometry": {"coordinates": [153.067883, -27.438254], "type": "Point"}, "properties": {"name": "Kingsford Smith Dr at Seymour Rd, stop 28", "stop_I": "365"}, "id": "358", "type": "Feature"}, {"geometry": {"coordinates": [152.962677, -27.41099], "type": "Point"}, "properties": {"name": "Dawson Pde near Crampton St", "stop_I": "366"}, "id": "359", "type": "Feature"}, {"geometry": {"coordinates": [153.070113, -27.437751], "type": "Point"}, "properties": {"name": "Kingsford Smith Dr at Remora Road, stop 29", "stop_I": "367"}, "id": "360", "type": "Feature"}, {"geometry": {"coordinates": [153.066833, -27.438696], "type": "Point"}, "properties": {"name": "Kingsford Smith Dr at Harbour View, stop 28/27", "stop_I": "368"}, "id": "361", "type": "Feature"}, {"geometry": {"coordinates": [153.069018, -27.476662], "type": "Point"}, "properties": {"name": "Agnew Street Stop 42 near Walker Ave", "stop_I": "369"}, "id": "362", "type": "Feature"}, {"geometry": {"coordinates": [153.050916, -27.503623], "type": "Point"}, "properties": {"name": "Cornwall St at Rialto Street, stop 19a", "stop_I": "370"}, "id": "363", "type": "Feature"}, {"geometry": {"coordinates": [153.047706, -27.503087], "type": "Point"}, "properties": {"name": "Cornwall St at Darreen St, stop 19", "stop_I": "371"}, "id": "364", "type": "Feature"}, {"geometry": {"coordinates": [153.015386, -27.515542], "type": "Point"}, "properties": {"name": "Kadumba St near Eversley Tce, stop 23", "stop_I": "372"}, "id": "365", "type": "Feature"}, {"geometry": {"coordinates": [153.00947, -27.526926], "type": "Point"}, "properties": {"name": "Tennyson Memorial Ave at Brisbane Golf,", "stop_I": "373"}, "id": "366", "type": "Feature"}, {"geometry": {"coordinates": [153.009845, -27.475406], "type": "Point"}, "properties": {"name": "Montague Rd near Cameron St, stop 6", "stop_I": "374"}, "id": "367", "type": "Feature"}, {"geometry": {"coordinates": [153.004506, -27.524981], "type": "Point"}, "properties": {"name": "Softstone St near King Arthur Tce, stop 38", "stop_I": "375"}, "id": "368", "type": "Feature"}, {"geometry": {"coordinates": [152.974861, -27.510183], "type": "Point"}, "properties": {"name": "Wharf St near Bridge St, stop 52", "stop_I": "376"}, "id": "369", "type": "Feature"}, {"geometry": {"coordinates": [153.000393, -27.504585], "type": "Point"}, "properties": {"name": "Hawken Dr at Tarcoola Street, stop 27", "stop_I": "377"}, "id": "370", "type": "Feature"}, {"geometry": {"coordinates": [152.975053, -27.510196], "type": "Point"}, "properties": {"name": "Wharf St near Bridge St, stop 52", "stop_I": "378"}, "id": "371", "type": "Feature"}, {"geometry": {"coordinates": [153.022998, -27.526054], "type": "Point"}, "properties": {"name": "Beaudesert Rd at Stimpson Park, stop 29", "stop_I": "379"}, "id": "372", "type": "Feature"}, {"geometry": {"coordinates": [153.030805, -27.544907], "type": "Point"}, "properties": {"name": "Evans Rd at Pentex Street, stop 43", "stop_I": "380"}, "id": "373", "type": "Feature"}, {"geometry": {"coordinates": [153.016356, -27.41399], "type": "Point"}, "properties": {"name": "Webster Rd at Lindley Street, stop 29", "stop_I": "381"}, "id": "374", "type": "Feature"}, {"geometry": {"coordinates": [153.008904, -27.476066], "type": "Point"}, "properties": {"name": "Montague Rd at Mollison Street, stop 6", "stop_I": "382"}, "id": "375", "type": "Feature"}, {"geometry": {"coordinates": [153.053578, -27.554046], "type": "Point"}, "properties": {"name": "Griffith University Stop A", "stop_I": "383"}, "id": "376", "type": "Feature"}, {"geometry": {"coordinates": [153.032437, -27.545278], "type": "Point"}, "properties": {"name": "Evans Rd at Pentex Street, stop 43", "stop_I": "384"}, "id": "377", "type": "Feature"}, {"geometry": {"coordinates": [153.032119, -27.615712], "type": "Point"}, "properties": {"name": "Endiandra St near Satinash St, stop 87", "stop_I": "385"}, "id": "378", "type": "Feature"}, {"geometry": {"coordinates": [153.031444, -27.623], "type": "Point"}, "properties": {"name": "Algester Rd at Crestone Street Stop 90/89", "stop_I": "386"}, "id": "379", "type": "Feature"}, {"geometry": {"coordinates": [153.080867, -27.379112], "type": "Point"}, "properties": {"name": "Tufnell Rd at Earnshaw Road, stop 32", "stop_I": "387"}, "id": "380", "type": "Feature"}, {"geometry": {"coordinates": [153.070452, -27.439345], "type": "Point"}, "properties": {"name": "Remora Rd at Seymour St", "stop_I": "388"}, "id": "381", "type": "Feature"}, {"geometry": {"coordinates": [153.03138, -27.622835], "type": "Point"}, "properties": {"name": "Algester Rd at Crestone Street Stop 90/89", "stop_I": "389"}, "id": "382", "type": "Feature"}, {"geometry": {"coordinates": [153.00821, -27.476864], "type": "Point"}, "properties": {"name": "Montague Rd at Donkin Street, stop 7", "stop_I": "390"}, "id": "383", "type": "Feature"}, {"geometry": {"coordinates": [153.022783, -27.563743], "type": "Point"}, "properties": {"name": "Beaudesert Rd at Boyland Avenue, stop 42/41", "stop_I": "391"}, "id": "384", "type": "Feature"}, {"geometry": {"coordinates": [153.023796, -27.572781], "type": "Point"}, "properties": {"name": "Kerry Rd near Beaudesert Rd, stop 51", "stop_I": "392"}, "id": "385", "type": "Feature"}, {"geometry": {"coordinates": [152.976661, -27.351434], "type": "Point"}, "properties": {"name": "Keong Rd near Crofty St", "stop_I": "393"}, "id": "386", "type": "Feature"}, {"geometry": {"coordinates": [153.008191, -27.476702], "type": "Point"}, "properties": {"name": "Montague Rd at Donkin Street, stop 7", "stop_I": "394"}, "id": "387", "type": "Feature"}, {"geometry": {"coordinates": [153.014721, -27.515571], "type": "Point"}, "properties": {"name": "Kadumba St near Eversley Tce, stop 23", "stop_I": "395"}, "id": "388", "type": "Feature"}, {"geometry": {"coordinates": [153.063205, -27.313792], "type": "Point"}, "properties": {"name": "Deagon St near Brisbane St, stop 37", "stop_I": "396"}, "id": "389", "type": "Feature"}, {"geometry": {"coordinates": [152.957583, -27.569544], "type": "Point"}, "properties": {"name": "Winslow St at Rowe Tce, stop 67/68", "stop_I": "397"}, "id": "390", "type": "Feature"}, {"geometry": {"coordinates": [152.957844, -27.569609], "type": "Point"}, "properties": {"name": "Winslow St at Rowe Tce, stop 67/68", "stop_I": "398"}, "id": "391", "type": "Feature"}, {"geometry": {"coordinates": [152.947992, -27.543988], "type": "Point"}, "properties": {"name": "Northbrooke St near Allamanda Ct, stop 59", "stop_I": "399"}, "id": "392", "type": "Feature"}, {"geometry": {"coordinates": [152.948262, -27.544914], "type": "Point"}, "properties": {"name": "Northbrook St at Cityview Rd, stop 59", "stop_I": "400"}, "id": "393", "type": "Feature"}, {"geometry": {"coordinates": [152.951381, -27.54458], "type": "Point"}, "properties": {"name": "Oldfield Rd at Oldfield Shops, stop 57a", "stop_I": "401"}, "id": "394", "type": "Feature"}, {"geometry": {"coordinates": [153.006306, -27.478641], "type": "Point"}, "properties": {"name": "Montague Rd at Davies Park, stop 8", "stop_I": "402"}, "id": "395", "type": "Feature"}, {"geometry": {"coordinates": [152.951376, -27.544347], "type": "Point"}, "properties": {"name": "Oldfield Rd at Oldfield Shops, stop 57a", "stop_I": "403"}, "id": "396", "type": "Feature"}, {"geometry": {"coordinates": [153.02771, -27.35828], "type": "Point"}, "properties": {"name": "Kirby Rd near Zillmere Rd, stop 52a", "stop_I": "404"}, "id": "397", "type": "Feature"}, {"geometry": {"coordinates": [153.088123, -27.488099], "type": "Point"}, "properties": {"name": "Stanley Rd at Lunga Street, stop 39/40", "stop_I": "405"}, "id": "398", "type": "Feature"}, {"geometry": {"coordinates": [152.942218, -27.495278], "type": "Point"}, "properties": {"name": "Ironbark Rd near Birchley St", "stop_I": "406"}, "id": "399", "type": "Feature"}, {"geometry": {"coordinates": [152.976196, -27.354053], "type": "Point"}, "properties": {"name": "Keong Rd near Rafter Ave", "stop_I": "407"}, "id": "400", "type": "Feature"}, {"geometry": {"coordinates": [152.974998, -27.358135], "type": "Point"}, "properties": {"name": "Keong Rd near Dawn Rd", "stop_I": "408"}, "id": "401", "type": "Feature"}, {"geometry": {"coordinates": [153.010717, -27.487712], "type": "Point"}, "properties": {"name": "Boundary Street Hail 'n' Ride", "stop_I": "409"}, "id": "402", "type": "Feature"}, {"geometry": {"coordinates": [153.006088, -27.478724], "type": "Point"}, "properties": {"name": "Montague Rd at Davies Park, stop 8", "stop_I": "410"}, "id": "403", "type": "Feature"}, {"geometry": {"coordinates": [153.011009, -27.48617], "type": "Point"}, "properties": {"name": "Boundary near Bristol Street Hail 'n' Ride", "stop_I": "411"}, "id": "404", "type": "Feature"}, {"geometry": {"coordinates": [153.01119, -27.485213], "type": "Point"}, "properties": {"name": "Boundary at Whynot Street Hail 'n' Ride", "stop_I": "412"}, "id": "405", "type": "Feature"}, {"geometry": {"coordinates": [153.011491, -27.483559], "type": "Point"}, "properties": {"name": "Boundary at Granville Street Hail 'n' Ride", "stop_I": "413"}, "id": "406", "type": "Feature"}, {"geometry": {"coordinates": [153.015412, -27.483713], "type": "Point"}, "properties": {"name": "Brighton Road Hail 'n' Ride", "stop_I": "414"}, "id": "407", "type": "Feature"}, {"geometry": {"coordinates": [152.973052, -27.3599], "type": "Point"}, "properties": {"name": "Keong Rd near Hampshire Tce", "stop_I": "415"}, "id": "408", "type": "Feature"}, {"geometry": {"coordinates": [153.016368, -27.413916], "type": "Point"}, "properties": {"name": "Webster Rd at Stafford City", "stop_I": "416"}, "id": "409", "type": "Feature"}, {"geometry": {"coordinates": [153.01841, -27.487328], "type": "Point"}, "properties": {"name": "Dornoch Tce near Gladstone Rd, stop 21a", "stop_I": "417"}, "id": "410", "type": "Feature"}, {"geometry": {"coordinates": [153.016652, -27.487036], "type": "Point"}, "properties": {"name": "Dornoch Tce near Hampstead Road, stop 21", "stop_I": "418"}, "id": "411", "type": "Feature"}, {"geometry": {"coordinates": [153.00803, -27.487118], "type": "Point"}, "properties": {"name": "Dornoch Terrace Hail 'n' Ride", "stop_I": "419"}, "id": "412", "type": "Feature"}, {"geometry": {"coordinates": [153.015465, -27.479395], "type": "Point"}, "properties": {"name": "Edmondstone Street Hail 'n' Ride", "stop_I": "420"}, "id": "413", "type": "Feature"}, {"geometry": {"coordinates": [153.004817, -27.480984], "type": "Point"}, "properties": {"name": "Montague Rd at Ashington Street, stop 9", "stop_I": "421"}, "id": "414", "type": "Feature"}, {"geometry": {"coordinates": [153.013992, -27.477252], "type": "Point"}, "properties": {"name": "Edmondstone Street Hail 'n' Ride", "stop_I": "422"}, "id": "415", "type": "Feature"}, {"geometry": {"coordinates": [153.016684, -27.48117], "type": "Point"}, "properties": {"name": "Edmondstone near Vulture Street Hail 'n' Ride", "stop_I": "423"}, "id": "416", "type": "Feature"}, {"geometry": {"coordinates": [152.966648, -27.326135], "type": "Point"}, "properties": {"name": "Brendale St near Currajon St", "stop_I": "424"}, "id": "417", "type": "Feature"}, {"geometry": {"coordinates": [153.015723, -27.487223], "type": "Point"}, "properties": {"name": "Dornoch Tce at Hampstead Road, stop 21", "stop_I": "425"}, "id": "418", "type": "Feature"}, {"geometry": {"coordinates": [153.016115, -27.485604], "type": "Point"}, "properties": {"name": "Hampstead near Bellevue Street Hail 'n' Ride", "stop_I": "426"}, "id": "419", "type": "Feature"}, {"geometry": {"coordinates": [153.016515, -27.484399], "type": "Point"}, "properties": {"name": "Hampstead Road Hail 'n' Ride", "stop_I": "427"}, "id": "420", "type": "Feature"}, {"geometry": {"coordinates": [152.972111, -27.499129], "type": "Point"}, "properties": {"name": "Musgrave Rd at Indooroopilly Shopping Ctr, stop F", "stop_I": "428"}, "id": "421", "type": "Feature"}, {"geometry": {"coordinates": [152.942357, -27.495254], "type": "Point"}, "properties": {"name": "Ironbark Rd near Birchley St", "stop_I": "429"}, "id": "422", "type": "Feature"}, {"geometry": {"coordinates": [153.009555, -27.47886], "type": "Point"}, "properties": {"name": "Jane Street", "stop_I": "430"}, "id": "423", "type": "Feature"}, {"geometry": {"coordinates": [153.004695, -27.48092], "type": "Point"}, "properties": {"name": "Montague Rd at Ashington Street, stop 9", "stop_I": "432"}, "id": "424", "type": "Feature"}, {"geometry": {"coordinates": [152.983424, -27.383099], "type": "Point"}, "properties": {"name": "Old Northern Rd at Chinook", "stop_I": "433"}, "id": "425", "type": "Feature"}, {"geometry": {"coordinates": [152.956684, -27.397132], "type": "Point"}, "properties": {"name": "Patricks Rd near Leslie St", "stop_I": "434"}, "id": "426", "type": "Feature"}, {"geometry": {"coordinates": [153.012748, -27.483064], "type": "Point"}, "properties": {"name": "Sussex Street Hail 'n' Ride", "stop_I": "435"}, "id": "427", "type": "Feature"}, {"geometry": {"coordinates": [153.013013, -27.481665], "type": "Point"}, "properties": {"name": "Sussex Street Hail 'n' Ride", "stop_I": "436"}, "id": "428", "type": "Feature"}, {"geometry": {"coordinates": [153.019475, -27.482155], "type": "Point"}, "properties": {"name": "Vulture Street Hail 'n' Ride", "stop_I": "437"}, "id": "429", "type": "Feature"}, {"geometry": {"coordinates": [153.012684, -27.481004], "type": "Point"}, "properties": {"name": "Vulture Street Hail 'n' Ride", "stop_I": "438"}, "id": "430", "type": "Feature"}, {"geometry": {"coordinates": [153.011797, -27.481997], "type": "Point"}, "properties": {"name": "Boundary near Vulture Street Hail 'n' Ride", "stop_I": "439"}, "id": "431", "type": "Feature"}, {"geometry": {"coordinates": [153.013467, -27.483418], "type": "Point"}, "properties": {"name": "Brighton at Franklin Street Hail 'n' Ride", "stop_I": "440"}, "id": "432", "type": "Feature"}, {"geometry": {"coordinates": [153.035405, -27.421603], "type": "Point"}, "properties": {"name": "Chalk St near Challis Lane, stop 20", "stop_I": "441"}, "id": "433", "type": "Feature"}, {"geometry": {"coordinates": [153.038075, -27.422645], "type": "Point"}, "properties": {"name": "McLennan St near Chalk St, stop 19", "stop_I": "442"}, "id": "434", "type": "Feature"}, {"geometry": {"coordinates": [153.00381, -27.48251], "type": "Point"}, "properties": {"name": "Montague Rd near Victoria St, stop 10", "stop_I": "443"}, "id": "435", "type": "Feature"}, {"geometry": {"coordinates": [153.038229, -27.422483], "type": "Point"}, "properties": {"name": "McLennan St near Chalk St, stop 19", "stop_I": "444"}, "id": "436", "type": "Feature"}, {"geometry": {"coordinates": [153.042782, -27.325845], "type": "Point"}, "properties": {"name": "Denham St at Childs Street, stop 33", "stop_I": "445"}, "id": "437", "type": "Feature"}, {"geometry": {"coordinates": [153.005762, -27.374125], "type": "Point"}, "properties": {"name": "Stringybark Dr at Martindale Street, sto", "stop_I": "446"}, "id": "438", "type": "Feature"}, {"geometry": {"coordinates": [153.037591, -27.425279], "type": "Point"}, "properties": {"name": "McLennan St at Marne Street, stop 17", "stop_I": "447"}, "id": "439", "type": "Feature"}, {"geometry": {"coordinates": [153.037685, -27.425442], "type": "Point"}, "properties": {"name": "McLennan St at Marne Street, stop 17", "stop_I": "448"}, "id": "440", "type": "Feature"}, {"geometry": {"coordinates": [153.091129, -27.488524], "type": "Point"}, "properties": {"name": "Stanley Rd at Sage Street, stop 41", "stop_I": "449"}, "id": "441", "type": "Feature"}, {"geometry": {"coordinates": [153.080746, -27.379178], "type": "Point"}, "properties": {"name": "Tufnell Rd at Earnshaw Road, stop 32", "stop_I": "450"}, "id": "442", "type": "Feature"}, {"geometry": {"coordinates": [152.973374, -27.35943], "type": "Point"}, "properties": {"name": "Keong Rd near Hampshire Tce", "stop_I": "451"}, "id": "443", "type": "Feature"}, {"geometry": {"coordinates": [152.974557, -27.358356], "type": "Point"}, "properties": {"name": "Keong Rd near Dawn Rd", "stop_I": "452"}, "id": "444", "type": "Feature"}, {"geometry": {"coordinates": [153.054198, -27.553722], "type": "Point"}, "properties": {"name": "Griffith University Stop B", "stop_I": "453"}, "id": "445", "type": "Feature"}, {"geometry": {"coordinates": [153.003769, -27.482327], "type": "Point"}, "properties": {"name": "Montague Rd near Victoria St, stop 10", "stop_I": "454"}, "id": "446", "type": "Feature"}, {"geometry": {"coordinates": [153.051961, -27.503681], "type": "Point"}, "properties": {"name": "Cornwall St at Raby Street, stop 19b", "stop_I": "455"}, "id": "447", "type": "Feature"}, {"geometry": {"coordinates": [153.062067, -27.53407], "type": "Point"}, "properties": {"name": "Bapaume Rd at Dobbs Street, stop 63", "stop_I": "456"}, "id": "448", "type": "Feature"}, {"geometry": {"coordinates": [153.175623, -27.44166], "type": "Point"}, "properties": {"name": "Wynnum Esp near Florence St", "stop_I": "457"}, "id": "449", "type": "Feature"}, {"geometry": {"coordinates": [153.081731, -27.544382], "type": "Point"}, "properties": {"name": "Logan Rd at Mt Gravatt Showgrounds, stop", "stop_I": "458"}, "id": "450", "type": "Feature"}, {"geometry": {"coordinates": [152.954089, -27.570052], "type": "Point"}, "properties": {"name": "Scotts Rd at Winslow St, stop 66", "stop_I": "459"}, "id": "451", "type": "Feature"}, {"geometry": {"coordinates": [153.000858, -27.487249], "type": "Point"}, "properties": {"name": "Montague Rd at Gray Rd, stop 13", "stop_I": "460"}, "id": "452", "type": "Feature"}, {"geometry": {"coordinates": [153.017523, -27.515842], "type": "Point"}, "properties": {"name": "Kadumba St near Fairfield Rd, stop 22", "stop_I": "461"}, "id": "453", "type": "Feature"}, {"geometry": {"coordinates": [153.04153, -27.34194], "type": "Point"}, "properties": {"name": "Handford Rd at Handford - Roghan", "stop_I": "462"}, "id": "454", "type": "Feature"}, {"geometry": {"coordinates": [153.096698, -27.521695], "type": "Point"}, "properties": {"name": "Creek Rd at Greenmeadow", "stop_I": "463"}, "id": "455", "type": "Feature"}, {"geometry": {"coordinates": [152.934843, -27.611994], "type": "Point"}, "properties": {"name": "John Street near Julie Rd", "stop_I": "464"}, "id": "456", "type": "Feature"}, {"geometry": {"coordinates": [153.098121, -27.555061], "type": "Point"}, "properties": {"name": "Mt Gravatt Capalaba Rd at Agaton", "stop_I": "465"}, "id": "457", "type": "Feature"}, {"geometry": {"coordinates": [153.027516, -27.624362], "type": "Point"}, "properties": {"name": "Ridgewood Rd at Ridgewood Heights", "stop_I": "466"}, "id": "458", "type": "Feature"}, {"geometry": {"coordinates": [153.10287, -27.55294], "type": "Point"}, "properties": {"name": "Mt Gravatt Capalaba Rd at Ham Road South", "stop_I": "467"}, "id": "459", "type": "Feature"}, {"geometry": {"coordinates": [153.062159, -27.290303], "type": "Point"}, "properties": {"name": "Hornibrook Hwy at Eventide", "stop_I": "468"}, "id": "460", "type": "Feature"}, {"geometry": {"coordinates": [153.000701, -27.487242], "type": "Point"}, "properties": {"name": "Montague Rd at Gray Rd, stop 13", "stop_I": "469"}, "id": "461", "type": "Feature"}, {"geometry": {"coordinates": [153.06256, -27.287539], "type": "Point"}, "properties": {"name": "Hornibrook Hwy at Brighton Bayside Park", "stop_I": "470"}, "id": "462", "type": "Feature"}, {"geometry": {"coordinates": [153.062651, -27.287674], "type": "Point"}, "properties": {"name": "Hornibrook Hwy at Eventide Aged Home", "stop_I": "471"}, "id": "463", "type": "Feature"}, {"geometry": {"coordinates": [152.934978, -27.612041], "type": "Point"}, "properties": {"name": "John Street near Skepper St", "stop_I": "472"}, "id": "464", "type": "Feature"}, {"geometry": {"coordinates": [153.062122, -27.292756], "type": "Point"}, "properties": {"name": "Beaconsfield Tce near Duke St", "stop_I": "473"}, "id": "465", "type": "Feature"}, {"geometry": {"coordinates": [153.061714, -27.296468], "type": "Point"}, "properties": {"name": "Beaconsfield Tce near Princess St", "stop_I": "474"}, "id": "466", "type": "Feature"}, {"geometry": {"coordinates": [153.061867, -27.296567], "type": "Point"}, "properties": {"name": "Beaconsfield Tce near Shepherd St", "stop_I": "475"}, "id": "467", "type": "Feature"}, {"geometry": {"coordinates": [153.061953, -27.299955], "type": "Point"}, "properties": {"name": "Beaconsfield Tce near Seaview St", "stop_I": "476"}, "id": "468", "type": "Feature"}, {"geometry": {"coordinates": [153.062031, -27.299583], "type": "Point"}, "properties": {"name": "Beaconsfield Tce near Seaview St", "stop_I": "477"}, "id": "469", "type": "Feature"}, {"geometry": {"coordinates": [153.06267, -27.304133], "type": "Point"}, "properties": {"name": "Brighton Tce near Twelfth Ave", "stop_I": "478"}, "id": "470", "type": "Feature"}, {"geometry": {"coordinates": [153.000018, -27.488328], "type": "Point"}, "properties": {"name": "Montague Rd at Cordeaux Street, stop 30/14", "stop_I": "479"}, "id": "471", "type": "Feature"}, {"geometry": {"coordinates": [153.06272, -27.303383], "type": "Point"}, "properties": {"name": "Beaconsfield Tce near Twelfth Ave", "stop_I": "480"}, "id": "472", "type": "Feature"}, {"geometry": {"coordinates": [153.063814, -27.307409], "type": "Point"}, "properties": {"name": "Brighton Tce near Tenth Ave", "stop_I": "481"}, "id": "473", "type": "Feature"}, {"geometry": {"coordinates": [153.063865, -27.308339], "type": "Point"}, "properties": {"name": "Brighton Rd near Tenth Ave", "stop_I": "482"}, "id": "474", "type": "Feature"}, {"geometry": {"coordinates": [153.06508, -27.311923], "type": "Point"}, "properties": {"name": "Brighton Rd near Wakefield St", "stop_I": "483"}, "id": "475", "type": "Feature"}, {"geometry": {"coordinates": [153.065059, -27.311444], "type": "Point"}, "properties": {"name": "Brighton Rd near Wakefield St", "stop_I": "484"}, "id": "476", "type": "Feature"}, {"geometry": {"coordinates": [152.933829, -27.611112], "type": "Point"}, "properties": {"name": "David St at Stephen Street", "stop_I": "485"}, "id": "477", "type": "Feature"}, {"geometry": {"coordinates": [152.934278, -27.610379], "type": "Point"}, "properties": {"name": "Muriel Ave at Stephen Street", "stop_I": "486"}, "id": "478", "type": "Feature"}, {"geometry": {"coordinates": [153.061421, -27.312557], "type": "Point"}, "properties": {"name": "Wakefield St at Freemasons", "stop_I": "487"}, "id": "479", "type": "Feature"}, {"geometry": {"coordinates": [153.061639, -27.312635], "type": "Point"}, "properties": {"name": "Wakefield St at Freemasons", "stop_I": "488"}, "id": "480", "type": "Feature"}, {"geometry": {"coordinates": [153.051609, -27.3071], "type": "Point"}, "properties": {"name": "Baskerville St at Nashville School", "stop_I": "489"}, "id": "481", "type": "Feature"}, {"geometry": {"coordinates": [153.012496, -27.46567], "type": "Point"}, "properties": {"name": "Petrie Tce at Windmill Cafe, stop 3", "stop_I": "490"}, "id": "482", "type": "Feature"}, {"geometry": {"coordinates": [153.051974, -27.30725], "type": "Point"}, "properties": {"name": "Baskerville St at Nashville School", "stop_I": "491"}, "id": "483", "type": "Feature"}, {"geometry": {"coordinates": [153.056119, -27.309945], "type": "Point"}, "properties": {"name": "Baskerville St at Peace Park", "stop_I": "492"}, "id": "484", "type": "Feature"}, {"geometry": {"coordinates": [153.056063, -27.310041], "type": "Point"}, "properties": {"name": "Baskerville St at Peace Park", "stop_I": "493"}, "id": "485", "type": "Feature"}, {"geometry": {"coordinates": [153.047107, -27.303218], "type": "Point"}, "properties": {"name": "Craig St at Nashville", "stop_I": "494"}, "id": "486", "type": "Feature"}, {"geometry": {"coordinates": [153.047396, -27.303601], "type": "Point"}, "properties": {"name": "Craig St at Nashville", "stop_I": "495"}, "id": "487", "type": "Feature"}, {"geometry": {"coordinates": [153.050035, -27.297394], "type": "Point"}, "properties": {"name": "Lascelles St at Brighton, stop 56a", "stop_I": "496"}, "id": "488", "type": "Feature"}, {"geometry": {"coordinates": [153.059142, -27.293004], "type": "Point"}, "properties": {"name": "North Rd at Brighton North, stop 62", "stop_I": "497"}, "id": "489", "type": "Feature"}, {"geometry": {"coordinates": [153.061743, -27.291523], "type": "Point"}, "properties": {"name": "North Rd at Bayview, stop 63", "stop_I": "498"}, "id": "490", "type": "Feature"}, {"geometry": {"coordinates": [153.054439, -27.294353], "type": "Point"}, "properties": {"name": "North Rd at St Kieran", "stop_I": "499"}, "id": "491", "type": "Feature"}, {"geometry": {"coordinates": [153.05444, -27.29448], "type": "Point"}, "properties": {"name": "North Rd at St Kieran", "stop_I": "500"}, "id": "492", "type": "Feature"}, {"geometry": {"coordinates": [153.068816, -27.321527], "type": "Point"}, "properties": {"name": "Sandgate bus station, stop 33", "stop_I": "501"}, "id": "493", "type": "Feature"}, {"geometry": {"coordinates": [153.025461, -27.329694], "type": "Point"}, "properties": {"name": "Norris Rd at Bracken Ridge Plaza", "stop_I": "502"}, "id": "494", "type": "Feature"}, {"geometry": {"coordinates": [152.959243, -27.347855], "type": "Point"}, "properties": {"name": "Faheys Rd West at Kingfisher", "stop_I": "503"}, "id": "495", "type": "Feature"}, {"geometry": {"coordinates": [153.04468, -27.336169], "type": "Point"}, "properties": {"name": "Lemke Rd at Sandgate AFC Ground", "stop_I": "504"}, "id": "496", "type": "Feature"}, {"geometry": {"coordinates": [152.933411, -27.608009], "type": "Point"}, "properties": {"name": "Waterford Rd at Carole Park Primary School", "stop_I": "505"}, "id": "497", "type": "Feature"}, {"geometry": {"coordinates": [153.027144, -27.347737], "type": "Point"}, "properties": {"name": "Balcara Ave at Beams - Balcara", "stop_I": "506"}, "id": "498", "type": "Feature"}, {"geometry": {"coordinates": [152.992834, -27.307899], "type": "Point"}, "properties": {"name": "Strathpine Shopping Centre, stop A", "stop_I": "508"}, "id": "499", "type": "Feature"}, {"geometry": {"coordinates": [152.933343, -27.608126], "type": "Point"}, "properties": {"name": "Waterford Rd at Carole Park Primary School", "stop_I": "509"}, "id": "500", "type": "Feature"}, {"geometry": {"coordinates": [153.014117, -27.515133], "type": "Point"}, "properties": {"name": "Kingsley Pde near Kadumba St, stop 24A", "stop_I": "510"}, "id": "501", "type": "Feature"}, {"geometry": {"coordinates": [152.958997, -27.347943], "type": "Point"}, "properties": {"name": "Faheys Rd West at Kingfisher", "stop_I": "511"}, "id": "502", "type": "Feature"}, {"geometry": {"coordinates": [153.014321, -27.514022], "type": "Point"}, "properties": {"name": "Kingsley Pde near Violet St, stop 24", "stop_I": "512"}, "id": "503", "type": "Feature"}, {"geometry": {"coordinates": [153.014165, -27.514202], "type": "Point"}, "properties": {"name": "Kingsley Pde near Violet St, stop 24", "stop_I": "513"}, "id": "504", "type": "Feature"}, {"geometry": {"coordinates": [152.969374, -27.35688], "type": "Point"}, "properties": {"name": "Old Northern Rd near Albany Forest Dr", "stop_I": "514"}, "id": "505", "type": "Feature"}, {"geometry": {"coordinates": [153.007434, -27.480254], "type": "Point"}, "properties": {"name": "Hardgrave Rd near Vulture St, stop 9C", "stop_I": "515"}, "id": "506", "type": "Feature"}, {"geometry": {"coordinates": [152.977387, -27.393963], "type": "Point"}, "properties": {"name": "South Pine Rd at Rogers Pde W, stop 44", "stop_I": "516"}, "id": "507", "type": "Feature"}, {"geometry": {"coordinates": [153.040103, -27.372967], "type": "Point"}, "properties": {"name": "Piccadilly St at Haymarket Street, stop 48", "stop_I": "517"}, "id": "508", "type": "Feature"}, {"geometry": {"coordinates": [153.042259, -27.367529], "type": "Point"}, "properties": {"name": "Robinson Rd at Bassano Street", "stop_I": "518"}, "id": "509", "type": "Feature"}, {"geometry": {"coordinates": [153.043564, -27.367927], "type": "Point"}, "properties": {"name": "Robinson Rd at Bassano Street", "stop_I": "519"}, "id": "510", "type": "Feature"}, {"geometry": {"coordinates": [153.018369, -27.468033], "type": "Point"}, "properties": {"name": "North Quay Stop 106 near Herschel St", "stop_I": "520"}, "id": "511", "type": "Feature"}, {"geometry": {"coordinates": [153.007636, -27.480594], "type": "Point"}, "properties": {"name": "Vulture St at West End School, stop 9", "stop_I": "521"}, "id": "512", "type": "Feature"}, {"geometry": {"coordinates": [153.021367, -27.588571], "type": "Point"}, "properties": {"name": "Elizabeth St at Kilkenny", "stop_I": "522"}, "id": "513", "type": "Feature"}, {"geometry": {"coordinates": [153.021261, -27.588665], "type": "Point"}, "properties": {"name": "Elizabeth St at Kilkenny", "stop_I": "523"}, "id": "514", "type": "Feature"}, {"geometry": {"coordinates": [153.013705, -27.314684], "type": "Point"}, "properties": {"name": "Taragon St near Chervil St", "stop_I": "524"}, "id": "515", "type": "Feature"}, {"geometry": {"coordinates": [153.014735, -27.316498], "type": "Point"}, "properties": {"name": "Coriander St near Kluver St, stop 60", "stop_I": "525"}, "id": "516", "type": "Feature"}, {"geometry": {"coordinates": [153.014794, -27.316813], "type": "Point"}, "properties": {"name": "Coriander St near Kluver St", "stop_I": "526"}, "id": "517", "type": "Feature"}, {"geometry": {"coordinates": [153.01326, -27.306967], "type": "Point"}, "properties": {"name": "Kluver St near Bracken Ridge Rd", "stop_I": "527"}, "id": "518", "type": "Feature"}, {"geometry": {"coordinates": [153.013459, -27.306871], "type": "Point"}, "properties": {"name": "Kluver St near Bracken Ridge Rd", "stop_I": "528"}, "id": "519", "type": "Feature"}, {"geometry": {"coordinates": [153.016684, -27.305818], "type": "Point"}, "properties": {"name": "Arnica Cr near Korina St, stop 57", "stop_I": "529"}, "id": "520", "type": "Feature"}, {"geometry": {"coordinates": [153.007723, -27.480489], "type": "Point"}, "properties": {"name": "Vulture St at West End School, stop 9", "stop_I": "530"}, "id": "521", "type": "Feature"}, {"geometry": {"coordinates": [153.018309, -27.306076], "type": "Point"}, "properties": {"name": "Arnica Cr near Mantias Street, stop 56", "stop_I": "531"}, "id": "522", "type": "Feature"}, {"geometry": {"coordinates": [153.019334, -27.306917], "type": "Point"}, "properties": {"name": "Charlock Rd near Arnica Cr, stop 55", "stop_I": "532"}, "id": "523", "type": "Feature"}, {"geometry": {"coordinates": [153.02104, -27.309892], "type": "Point"}, "properties": {"name": "Bracken Ridge Rd at Wetlands", "stop_I": "533"}, "id": "524", "type": "Feature"}, {"geometry": {"coordinates": [153.021939, -27.310139], "type": "Point"}, "properties": {"name": "Bracken Ridge Rd at Wetlands", "stop_I": "534"}, "id": "525", "type": "Feature"}, {"geometry": {"coordinates": [153.025551, -27.330057], "type": "Point"}, "properties": {"name": "Norris Rd at Bracken Ridge Plaza", "stop_I": "535"}, "id": "526", "type": "Feature"}, {"geometry": {"coordinates": [153.040703, -27.328309], "type": "Point"}, "properties": {"name": "Phillips St near Tomah Rd", "stop_I": "536"}, "id": "527", "type": "Feature"}, {"geometry": {"coordinates": [153.040833, -27.328441], "type": "Point"}, "properties": {"name": "Phillips St at Tomah Street", "stop_I": "537"}, "id": "528", "type": "Feature"}, {"geometry": {"coordinates": [153.038887, -27.329282], "type": "Point"}, "properties": {"name": "Enbrook St near Appledore St", "stop_I": "538"}, "id": "529", "type": "Feature"}, {"geometry": {"coordinates": [153.03902, -27.329241], "type": "Point"}, "properties": {"name": "Enbrook St near Appledore St", "stop_I": "539"}, "id": "530", "type": "Feature"}, {"geometry": {"coordinates": [153.036244, -27.330559], "type": "Point"}, "properties": {"name": "Enbrook St near Mustang St", "stop_I": "540"}, "id": "531", "type": "Feature"}, {"geometry": {"coordinates": [153.010155, -27.48063], "type": "Point"}, "properties": {"name": "Vulture St at Cambridge Street, stop 8", "stop_I": "541"}, "id": "532", "type": "Feature"}, {"geometry": {"coordinates": [153.035845, -27.330599], "type": "Point"}, "properties": {"name": "Enbrook St near Mustang St", "stop_I": "542"}, "id": "533", "type": "Feature"}, {"geometry": {"coordinates": [153.034399, -27.331926], "type": "Point"}, "properties": {"name": "Mustang St near Telegraph Rd", "stop_I": "543"}, "id": "534", "type": "Feature"}, {"geometry": {"coordinates": [153.034478, -27.332102], "type": "Point"}, "properties": {"name": "Mustang St near Telegraph Rd", "stop_I": "544"}, "id": "535", "type": "Feature"}, {"geometry": {"coordinates": [153.033055, -27.33215], "type": "Point"}, "properties": {"name": "Telegraph Rd near Mustang St", "stop_I": "545"}, "id": "536", "type": "Feature"}, {"geometry": {"coordinates": [153.033018, -27.332291], "type": "Point"}, "properties": {"name": "Telegraph Rd near Mustang St", "stop_I": "546"}, "id": "537", "type": "Feature"}, {"geometry": {"coordinates": [153.058763, -27.343598], "type": "Point"}, "properties": {"name": "Roghan Rd at Roghan East", "stop_I": "547"}, "id": "538", "type": "Feature"}, {"geometry": {"coordinates": [153.058807, -27.343733], "type": "Point"}, "properties": {"name": "Roghan Rd at Roghan East near Sovereign Pl", "stop_I": "548"}, "id": "539", "type": "Feature"}, {"geometry": {"coordinates": [153.056419, -27.343384], "type": "Point"}, "properties": {"name": "Roghan Rd near Lindeman St", "stop_I": "549"}, "id": "540", "type": "Feature"}, {"geometry": {"coordinates": [153.056465, -27.343263], "type": "Point"}, "properties": {"name": "Roghan Rd near Lindeman St", "stop_I": "550"}, "id": "541", "type": "Feature"}, {"geometry": {"coordinates": [153.010292, -27.480778], "type": "Point"}, "properties": {"name": "Vulture St at Cambridge Street, stop 8", "stop_I": "551"}, "id": "542", "type": "Feature"}, {"geometry": {"coordinates": [153.045851, -27.352656], "type": "Point"}, "properties": {"name": "Church Rd near Keyatta St", "stop_I": "552"}, "id": "543", "type": "Feature"},