{"type": "FeatureCollection", "features": [{"id": "0", "properties": {"name": "Skybus Coach Terminal/Spencer St (Melbourne City)", "stop_I": "1"}, "type": "Feature", "geometry": {"coordinates": [144.952814580226, -37.8164829105554], "type": "Point"}}, {"id": "1", "properties": {"name": "Melbourne Airport T1 Skybus/Arrival Dr (Melbourne Airport)", "stop_I": "2"}, "type": "Feature", "geometry": {"coordinates": [144.85109913117, -37.669374950325], "type": "Point"}}, {"id": "2", "properties": {"name": "Melbourne Airport T3 Skybus/Arrival Dr (Melbourne Airport)", "stop_I": "3"}, "type": "Feature", "geometry": {"coordinates": [144.848822563648, -37.6712619542574], "type": "Point"}}, {"id": "3", "properties": {"name": "Yuille St/Centenary Ave (Melton)", "stop_I": "4"}, "type": "Feature", "geometry": {"coordinates": [144.595789405033, -37.6761595024019], "type": "Point"}}, {"id": "4", "properties": {"name": "Kings Rd/Main Rd West (St Albans)", "stop_I": "5"}, "type": "Feature", "geometry": {"coordinates": [144.78008474429, -37.7419455261211], "type": "Point"}}, {"id": "5", "properties": {"name": "Joffre Rd/Boundary Rd (Pascoe Vale)", "stop_I": "6"}, "type": "Feature", "geometry": {"coordinates": [144.940084629272, -37.7169149244717], "type": "Point"}}, {"id": "6", "properties": {"name": "Stirling Rd/Maroondah Hwy (Croydon)", "stop_I": "7"}, "type": "Feature", "geometry": {"coordinates": [145.270640431011, -37.7884960004284], "type": "Point"}}, {"id": "7", "properties": {"name": "Dorset (after) Rd/Maroondah Hwy (Croydon)", "stop_I": "8"}, "type": "Feature", "geometry": {"coordinates": [145.293888524573, -37.772099318218], "type": "Point"}}, {"id": "8", "properties": {"name": "Fletcher Rd/Maroondah Hwy (Mooroolbark)", "stop_I": "9"}, "type": "Feature", "geometry": {"coordinates": [145.310299296251, -37.7619086451557], "type": "Point"}}, {"id": "9", "properties": {"name": "Oliver St/Maroondah Hwy (Ringwood)", "stop_I": "10"}, "type": "Feature", "geometry": {"coordinates": [145.239209153042, -37.8094521917832], "type": "Point"}}, {"id": "10", "properties": {"name": "Oban Rd/Maroondah Hwy (Ringwood)", "stop_I": "11"}, "type": "Feature", "geometry": {"coordinates": [145.25351776554, -37.7980485981165], "type": "Point"}}, {"id": "11", "properties": {"name": "Highland Ave/Maroondah Hwy (Croydon)", "stop_I": "12"}, "type": "Feature", "geometry": {"coordinates": [145.270884705629, -37.7882472451923], "type": "Point"}}, {"id": "12", "properties": {"name": "Kings Rd/Main Rd West (St Albans)", "stop_I": "13"}, "type": "Feature", "geometry": {"coordinates": [144.78029512335, -37.7421207101233], "type": "Point"}}, {"id": "13", "properties": {"name": "Clarinda Shopping Centre/Bourke Rd (Clarinda)", "stop_I": "14"}, "type": "Feature", "geometry": {"coordinates": [145.102995300577, -37.9413522039992], "type": "Point"}}, {"id": "14", "properties": {"name": "West St/Glenroy Rd (Glenroy)", "stop_I": "15"}, "type": "Feature", "geometry": {"coordinates": [144.93770538615, -37.7073928374734], "type": "Point"}}, {"id": "15", "properties": {"name": "Birdwood St/Gordon St (Maribyrnong)", "stop_I": "16"}, "type": "Feature", "geometry": {"coordinates": [144.890566764306, -37.7852220985858], "type": "Point"}}, {"id": "16", "properties": {"name": "Victoria University/Ballarat Rd (Footscray)", "stop_I": "17"}, "type": "Feature", "geometry": {"coordinates": [144.897626842118, -37.7937292174329], "type": "Point"}}, {"id": "17", "properties": {"name": "Taylors Lakes Shopping Centre/Melton Hwy (Taylors Lakes)", "stop_I": "18"}, "type": "Feature", "geometry": {"coordinates": [144.800553734868, -37.7017770446203], "type": "Point"}}, {"id": "18", "properties": {"name": "Green Gully Rd/Sunshine Ave (St Albans)", "stop_I": "19"}, "type": "Feature", "geometry": {"coordinates": [144.815950054021, -37.7305672853878], "type": "Point"}}, {"id": "19", "properties": {"name": "Harcourt Ave/Sunshine Ave (St Albans)", "stop_I": "20"}, "type": "Feature", "geometry": {"coordinates": [144.824493035314, -37.7406742010165], "type": "Point"}}, {"id": "20", "properties": {"name": "Union St/Punt Rd (Windsor)", "stop_I": "21"}, "type": "Feature", "geometry": {"coordinates": [144.98385900359, -37.8532818910123], "type": "Point"}}, {"id": "21", "properties": {"name": "Alfred Hospital/Punt Rd (South Yarra)", "stop_I": "22"}, "type": "Feature", "geometry": {"coordinates": [144.985190794194, -37.8452752327652], "type": "Point"}}, {"id": "22", "properties": {"name": "Toorak Rd/Punt Rd (South Yarra)", "stop_I": "23"}, "type": "Feature", "geometry": {"coordinates": [144.986634303584, -37.8381626214802], "type": "Point"}}, {"id": "23", "properties": {"name": "Richmond Railway Station/Punt Rd (Richmond)", "stop_I": "24"}, "type": "Feature", "geometry": {"coordinates": [144.988972497823, -37.8244506241045], "type": "Point"}}, {"id": "24", "properties": {"name": "Nepean Hwy/Playne St (Frankston)", "stop_I": "25"}, "type": "Feature", "geometry": {"coordinates": [145.120989635124, -38.1444664003867], "type": "Point"}}, {"id": "25", "properties": {"name": "Davies Ave/Mount Eliza Way (Mount Eliza)", "stop_I": "26"}, "type": "Feature", "geometry": {"coordinates": [145.090175564457, -38.183142045129], "type": "Point"}}, {"id": "26", "properties": {"name": "Kunyung Rd/Nepean Hwy (Mount Eliza)", "stop_I": "27"}, "type": "Feature", "geometry": {"coordinates": [145.083367579545, -38.1998283421987], "type": "Point"}}, {"id": "27", "properties": {"name": "Nepean Hwy/Playne St (Frankston)", "stop_I": "28"}, "type": "Feature", "geometry": {"coordinates": [145.121469155233, -38.1444560498295], "type": "Point"}}, {"id": "28", "properties": {"name": "Mt Eliza Shopping Centre/Mount Eliza Way (Mount Eliza)", "stop_I": "29"}, "type": "Feature", "geometry": {"coordinates": [145.089613084042, -38.1832590520391], "type": "Point"}}, {"id": "29", "properties": {"name": "Kunyung Rd/Nepean Hwy (Mount Eliza)", "stop_I": "30"}, "type": "Feature", "geometry": {"coordinates": [145.084037806509, -38.1990913395546], "type": "Point"}}, {"id": "30", "properties": {"name": "The Grove/Caroline Springs Bvd (Caroline Springs)", "stop_I": "31"}, "type": "Feature", "geometry": {"coordinates": [144.735769817641, -37.7419762979048], "type": "Point"}}, {"id": "31", "properties": {"name": "The Grove/Caroline Springs Bvd (Caroline Springs)", "stop_I": "32"}, "type": "Feature", "geometry": {"coordinates": [144.735962434216, -37.7423584833278], "type": "Point"}}, {"id": "32", "properties": {"name": "Station St/Darebin Rd (Thornbury)", "stop_I": "33"}, "type": "Feature", "geometry": {"coordinates": [145.019938366725, -37.7654971696313], "type": "Point"}}, {"id": "33", "properties": {"name": "Tarran St/Old Geelong Rd (Laverton)", "stop_I": "34"}, "type": "Feature", "geometry": {"coordinates": [144.777713197408, -37.846524482894], "type": "Point"}}, {"id": "34", "properties": {"name": "Stooke St/Geelong Rd (Brooklyn)", "stop_I": "35"}, "type": "Feature", "geometry": {"coordinates": [144.864899069424, -37.812632567686], "type": "Point"}}, {"id": "35", "properties": {"name": "567 Geelong Rd (Brooklyn)", "stop_I": "36"}, "type": "Feature", "geometry": {"coordinates": [144.848305211624, -37.81726884844], "type": "Point"}}, {"id": "36", "properties": {"name": "Sanctuary Lakes SC/Point Cook Rd (Point Cook)", "stop_I": "37"}, "type": "Feature", "geometry": {"coordinates": [144.754533793504, -37.8954579079833], "type": "Point"}}, {"id": "37", "properties": {"name": "Millicent Ave/Thompsons Rd (Bulleen)", "stop_I": "38"}, "type": "Feature", "geometry": {"coordinates": [145.097237759786, -37.7720431003952], "type": "Point"}}, {"id": "38", "properties": {"name": "Hoddle St/Johnston St (Abbotsford)", "stop_I": "39"}, "type": "Feature", "geometry": {"coordinates": [144.993566006747, -37.7999808417251], "type": "Point"}}, {"id": "39", "properties": {"name": "Melton Secondary College/Coburns Rd (Melton)", "stop_I": "40"}, "type": "Feature", "geometry": {"coordinates": [144.56864109531, -37.6825954277689], "type": "Point"}}, {"id": "40", "properties": {"name": "Bungower Rd/Nepean Hwy (Mornington)", "stop_I": "41"}, "type": "Feature", "geometry": {"coordinates": [145.056923139594, -38.2199033381914], "type": "Point"}}, {"id": "41", "properties": {"name": "Bursaria Cres/Frankston-Dandenong Rd (Frankston North)", "stop_I": "42"}, "type": "Feature", "geometry": {"coordinates": [145.156274166422, -38.1135482770228], "type": "Point"}}, {"id": "42", "properties": {"name": "Monterey Bvd/Frankston-Dandenong Rd (Frankston North)", "stop_I": "43"}, "type": "Feature", "geometry": {"coordinates": [145.148603995759, -38.1187264387669], "type": "Point"}}, {"id": "43", "properties": {"name": "Bungower Rd/Nepean Hwy (Mornington)", "stop_I": "44"}, "type": "Feature", "geometry": {"coordinates": [145.056255951921, -38.2209376030949], "type": "Point"}}, {"id": "44", "properties": {"name": "Forest Dr/Nepean Hwy (Mount Martha)", "stop_I": "45"}, "type": "Feature", "geometry": {"coordinates": [145.030983875635, -38.2854784073603], "type": "Point"}}, {"id": "45", "properties": {"name": "Smith St/Johnston St (Collingwood)", "stop_I": "47"}, "type": "Feature", "geometry": {"coordinates": [144.984550579176, -37.7990608903866], "type": "Point"}}, {"id": "46", "properties": {"name": "Johnston St/Hoddle St (Abbotsford)", "stop_I": "48"}, "type": "Feature", "geometry": {"coordinates": [144.99306591944, -37.800413899431], "type": "Point"}}, {"id": "47", "properties": {"name": "Springvale Rd/Ferntree Gully Rd (Mulgrave)", "stop_I": "49"}, "type": "Feature", "geometry": {"coordinates": [145.160447893951, -37.9035227118402], "type": "Point"}}, {"id": "48", "properties": {"name": "Blackburn (after) Rd/Ferntree Gully Rd (Notting Hill)", "stop_I": "50"}, "type": "Feature", "geometry": {"coordinates": [145.141933258079, -37.9012041277166], "type": "Point"}}, {"id": "49", "properties": {"name": "Clayton Rd/Ferntree Gully Rd (Clayton)", "stop_I": "51"}, "type": "Feature", "geometry": {"coordinates": [145.123946887405, -37.8991794418459], "type": "Point"}}, {"id": "50", "properties": {"name": "Linden Place SC/Power Rd (Doveton)", "stop_I": "53"}, "type": "Feature", "geometry": {"coordinates": [145.239805657478, -37.9853754212265], "type": "Point"}}, {"id": "51", "properties": {"name": "Forest Dr/Nepean Hwy (Mount Martha)", "stop_I": "56"}, "type": "Feature", "geometry": {"coordinates": [145.030993368801, -38.2851271294362], "type": "Point"}}, {"id": "52", "properties": {"name": "The Bays Hospital/Main (north) St (Mornington)", "stop_I": "57"}, "type": "Feature", "geometry": {"coordinates": [145.041132216941, -38.2234976376295], "type": "Point"}}, {"id": "53", "properties": {"name": "Bellara Dr/Dorset Rd (Croydon)", "stop_I": "58"}, "type": "Feature", "geometry": {"coordinates": [145.295192714358, -37.7721632598712], "type": "Point"}}, {"id": "54", "properties": {"name": "Karnak Cl/Bellara Dr (Croydon)", "stop_I": "59"}, "type": "Feature", "geometry": {"coordinates": [145.295935646923, -37.7714530290284], "type": "Point"}}, {"id": "55", "properties": {"name": "Casey Central Shopping Centre/Narre Warren-Cranbourne Rd (Narre Warren South)", "stop_I": "60"}, "type": "Feature", "geometry": {"coordinates": [145.299069354836, -38.0647862880908], "type": "Point"}}, {"id": "56", "properties": {"name": "Jardier Tce/The Lakes Bvd (South Morang)", "stop_I": "61"}, "type": "Feature", "geometry": {"coordinates": [145.067376266776, -37.6315186682844], "type": "Point"}}, {"id": "57", "properties": {"name": "Casey Central Shopping Centre/Narre Warren-Cranbourne Rd (Narre Warren South)", "stop_I": "62"}, "type": "Feature", "geometry": {"coordinates": [145.299094280279, -38.0656788208824], "type": "Point"}}, {"id": "58", "properties": {"name": "Stud Park Shopping Centre/Stud Rd (Rowville)", "stop_I": "63"}, "type": "Feature", "geometry": {"coordinates": [145.235055347413, -37.9179400931817], "type": "Point"}}, {"id": "59", "properties": {"name": "Scoresby Village Shopping Centre/Stud Rd (Scoresby)", "stop_I": "64"}, "type": "Feature", "geometry": {"coordinates": [145.233126393639, -37.8982379863812], "type": "Point"}}, {"id": "60", "properties": {"name": "Jardier Tce/The Lakes Bvd (South Morang)", "stop_I": "65"}, "type": "Feature", "geometry": {"coordinates": [145.067209863672, -37.6313807593025], "type": "Point"}}, {"id": "61", "properties": {"name": "Maidstone St/Blyth St (Altona)", "stop_I": "66"}, "type": "Feature", "geometry": {"coordinates": [144.81255384091, -37.8704177305557], "type": "Point"}}, {"id": "62", "properties": {"name": "Lyndale Secondary College/Gladstone Rd (Dandenong North)", "stop_I": "67"}, "type": "Feature", "geometry": {"coordinates": [145.207211380709, -37.9575770378255], "type": "Point"}}, {"id": "63", "properties": {"name": "Birmingham Rd/Hereford Rd (Mount Evelyn)", "stop_I": "68"}, "type": "Feature", "geometry": {"coordinates": [145.38177570057, -37.7846498100395], "type": "Point"}}, {"id": "64", "properties": {"name": "Clyde Rd/Greaves Rd (Berwick)", "stop_I": "70"}, "type": "Feature", "geometry": {"coordinates": [145.337515405758, -38.0598302442087], "type": "Point"}}, {"id": "65", "properties": {"name": "Tarran St/Old Geelong Rd (Laverton)", "stop_I": "71"}, "type": "Feature", "geometry": {"coordinates": [144.777716983238, -37.8463983941416], "type": "Point"}}, {"id": "66", "properties": {"name": "McDonald Rd/Geelong Rd (Brooklyn)", "stop_I": "72"}, "type": "Feature", "geometry": {"coordinates": [144.848156722724, -37.8169056711293], "type": "Point"}}, {"id": "67", "properties": {"name": "Kororoit St/Geelong Rd (West Footscray)", "stop_I": "73"}, "type": "Feature", "geometry": {"coordinates": [144.866303599681, -37.8119821564544], "type": "Point"}}, {"id": "68", "properties": {"name": "Blackburn Rd/Ferntree Gully Rd (Glen Waverley)", "stop_I": "74"}, "type": "Feature", "geometry": {"coordinates": [145.144192901868, -37.9013479305388], "type": "Point"}}, {"id": "69", "properties": {"name": "Forster Rd/Ferntree Gully Rd (Mount Waverley)", "stop_I": "75"}, "type": "Feature", "geometry": {"coordinates": [145.129951103822, -37.8996535160773], "type": "Point"}}, {"id": "70", "properties": {"name": "Stud Park Shopping Centre/Stud Rd (Rowville)", "stop_I": "76"}, "type": "Feature", "geometry": {"coordinates": [145.234959934062, -37.9171726443823], "type": "Point"}}, {"id": "71", "properties": {"name": "Scoresby Village Shopping Centre/Stud (West) Rd (Scoresby)", "stop_I": "77"}, "type": "Feature", "geometry": {"coordinates": [145.232880324631, -37.8985406991822], "type": "Point"}}, {"id": "72", "properties": {"name": "Knox City Shopping Centre/Stud Rd (Wantirna)", "stop_I": "78"}, "type": "Feature", "geometry": {"coordinates": [145.23631380361, -37.8666536110504], "type": "Point"}}, {"id": "73", "properties": {"name": "Boronia Rd/Stud Rd (Wantirna)", "stop_I": "79"}, "type": "Feature", "geometry": {"coordinates": [145.24275911791, -37.8542232484364], "type": "Point"}}, {"id": "74", "properties": {"name": "Boronia Rd/Wantirna Rd (Wantirna)", "stop_I": "80"}, "type": "Feature", "geometry": {"coordinates": [145.227031391692, -37.8469850578207], "type": "Point"}}, {"id": "75", "properties": {"name": "Gibson Ct/Wantirna Rd (Ringwood)", "stop_I": "81"}, "type": "Feature", "geometry": {"coordinates": [145.227134506835, -37.8312875858182], "type": "Point"}}, {"id": "76", "properties": {"name": "Jones Rd/Princes Hwy (Dandenong)", "stop_I": "82"}, "type": "Feature", "geometry": {"coordinates": [145.204149871514, -37.9757883684515], "type": "Point"}}, {"id": "77", "properties": {"name": "Knox City Shopping Centre/Stud Rd (Wantirna South)", "stop_I": "83"}, "type": "Feature", "geometry": {"coordinates": [145.236109425436, -37.8675968128541], "type": "Point"}}, {"id": "78", "properties": {"name": "Boronia Rd/Stud Rd (Wantirna South)", "stop_I": "84"}, "type": "Feature", "geometry": {"coordinates": [145.243425784928, -37.8534311240381], "type": "Point"}}, {"id": "79", "properties": {"name": "Garrisson Gr/Wantirna Rd (Wantirna)", "stop_I": "85"}, "type": "Feature", "geometry": {"coordinates": [145.227286291993, -37.8467816190222], "type": "Point"}}, {"id": "80", "properties": {"name": "Canterbury Rd/Wantirna Rd (Ringwood)", "stop_I": "86"}, "type": "Feature", "geometry": {"coordinates": [145.2272290398, -37.8311358038105], "type": "Point"}}, {"id": "81", "properties": {"name": "South Eastern Private Hospital/Princes Hwy (Noble Park)", "stop_I": "87"}, "type": "Feature", "geometry": {"coordinates": [145.193502022469, -37.9661628368719], "type": "Point"}}, {"id": "82", "properties": {"name": "Albert Ave/Princes Hwy (Springvale)", "stop_I": "88"}, "type": "Feature", "geometry": {"coordinates": [145.152072228812, -37.9300756156789], "type": "Point"}}, {"id": "83", "properties": {"name": "McNaughton Rd/Princes Hwy (Clayton)", "stop_I": "89"}, "type": "Feature", "geometry": {"coordinates": [145.141889433524, -37.92374210408], "type": "Point"}}, {"id": "84", "properties": {"name": "Albert Ave/Boronia Rd (Boronia)", "stop_I": "90"}, "type": "Feature", "geometry": {"coordinates": [145.2926826941, -37.8629336132029], "type": "Point"}}, {"id": "85", "properties": {"name": "Warrigal Rd/Centre Rd (Oakleigh South)", "stop_I": "91"}, "type": "Feature", "geometry": {"coordinates": [145.081338139138, -37.9239416704216], "type": "Point"}}, {"id": "86", "properties": {"name": "Highview Ave/Camms Rd (Cranbourne)", "stop_I": "92"}, "type": "Feature", "geometry": {"coordinates": [145.279888179764, -38.0977515821], "type": "Point"}}, {"id": "87", "properties": {"name": "Mill Park Stables SC/Childs Rd (Mill Park)", "stop_I": "93"}, "type": "Feature", "geometry": {"coordinates": [145.059511235992, -37.6672577446902], "type": "Point"}}, {"id": "88", "properties": {"name": "Cranbourne Park SC/Lyall St (Cranbourne)", "stop_I": "94"}, "type": "Feature", "geometry": {"coordinates": [145.284272796048, -38.109702223466], "type": "Point"}}, {"id": "89", "properties": {"name": "Lillian St/Camms Rd (Cranbourne)", "stop_I": "95"}, "type": "Feature", "geometry": {"coordinates": [145.268616254256, -38.0965135925412], "type": "Point"}}, {"id": "90", "properties": {"name": "Fairbank Rd/Westall Rd (Clayton South)", "stop_I": "96"}, "type": "Feature", "geometry": {"coordinates": [145.13956535242, -37.9446308425435], "type": "Point"}}, {"id": "91", "properties": {"name": "Wards Gr/Centre Rd (Bentleigh East)", "stop_I": "97"}, "type": "Feature", "geometry": {"coordinates": [145.062955047427, -37.9217209113316], "type": "Point"}}, {"id": "92", "properties": {"name": "RMIT Bundoora Campus West/Plenty Rd (Bundoora)", "stop_I": "98"}, "type": "Feature", "geometry": {"coordinates": [145.068991955138, -37.6807062323091], "type": "Point"}}, {"id": "93", "properties": {"name": "Brunswick St/Johnston St (Fitzroy)", "stop_I": "99"}, "type": "Feature", "geometry": {"coordinates": [144.978922939025, -37.7984417587919], "type": "Point"}}, {"id": "94", "properties": {"name": "2057 Western Fwy (Rockbank)", "stop_I": "100"}, "type": "Feature", "geometry": {"coordinates": [144.660295798026, -37.7289759785428], "type": "Point"}}, {"id": "95", "properties": {"name": "Warrigal Rd/Centre Rd (Oakleigh South)", "stop_I": "102"}, "type": "Feature", "geometry": {"coordinates": [145.081137194562, -37.9237942046263], "type": "Point"}}, {"id": "96", "properties": {"name": "Wards Gr/Centre Rd (Bentleigh East)", "stop_I": "103"}, "type": "Feature", "geometry": {"coordinates": [145.062664358838, -37.9215268778934], "type": "Point"}}, {"id": "97", "properties": {"name": "Grimshaw St/Plenty Rd (Bundoora)", "stop_I": "104"}, "type": "Feature", "geometry": {"coordinates": [145.058128294992, -37.7011653997918], "type": "Point"}}, {"id": "98", "properties": {"name": "36-Hope St/Melville Rd (Brunswick West)", "stop_I": "105"}, "type": "Feature", "geometry": {"coordinates": [144.944384140438, -37.7620401454899], "type": "Point"}}, {"id": "99", "properties": {"name": "40-Moreland Rd/Melville Rd (Brunswick West)", "stop_I": "106"}, "type": "Feature", "geometry": {"coordinates": [144.945901075068, -37.7531629379661], "type": "Point"}}, {"id": "100", "properties": {"name": "Cranbourne Park SC/Lyall St (Cranbourne)", "stop_I": "107"}, "type": "Feature", "geometry": {"coordinates": [145.284152014261, -38.1095022004844], "type": "Point"}}, {"id": "101", "properties": {"name": "Camms Rd/South Gippsland Hwy (Cranbourne)", "stop_I": "108"}, "type": "Feature", "geometry": {"coordinates": [145.282771283161, -38.0973521856084], "type": "Point"}}, {"id": "102", "properties": {"name": "Thompsons Rd/South Gippsland Hwy (Cranbourne)", "stop_I": "109"}, "type": "Feature", "geometry": {"coordinates": [145.275531815944, -38.0812592425674], "type": "Point"}}, {"id": "103", "properties": {"name": "Evans Rd/South Gippsland Hwy (Lynbrook)", "stop_I": "110"}, "type": "Feature", "geometry": {"coordinates": [145.262876035895, -38.0591110719571], "type": "Point"}}, {"id": "104", "properties": {"name": "Hampton Park SC/Hallam Rd (Hampton Park)", "stop_I": "111"}, "type": "Feature", "geometry": {"coordinates": [145.267203399777, -38.0351043711635], "type": "Point"}}, {"id": "105", "properties": {"name": "51-Hawthorn Rd/Balaclava Rd (Caulfield North)", "stop_I": "112"}, "type": "Feature", "geometry": {"coordinates": [145.024947353926, -37.8727950786443], "type": "Point"}}, {"id": "106", "properties": {"name": "36-Hope St/Melville Rd (Brunswick West)", "stop_I": "113"}, "type": "Feature", "geometry": {"coordinates": [144.944153729554, -37.7621622898493], "type": "Point"}}, {"id": "107", "properties": {"name": "40-Moreland Rd/Melville Rd (Brunswick West)", "stop_I": "114"}, "type": "Feature", "geometry": {"coordinates": [144.945655363689, -37.753429008046], "type": "Point"}}, {"id": "108", "properties": {"name": "47-North Balwyn Shopping Centre/Doncaster Rd (Balwyn North)", "stop_I": "115"}, "type": "Feature", "geometry": {"coordinates": [145.070860542084, -37.7927110539134], "type": "Point"}}, {"id": "109", "properties": {"name": "125-Blyth St/Lygon St (Brunswick East)", "stop_I": "116"}, "type": "Feature", "geometry": {"coordinates": [144.972511656487, -37.7666640399032], "type": "Point"}}, {"id": "110", "properties": {"name": "Glenroy Railway Station/Hartington St (Glenroy)", "stop_I": "117"}, "type": "Feature", "geometry": {"coordinates": [144.917744433627, -37.7040499382616], "type": "Point"}}, {"id": "111", "properties": {"name": "24-Mooltan St/Mt Alexander Rd (Flemington)", "stop_I": "118"}, "type": "Feature", "geometry": {"coordinates": [144.936998788049, -37.7839358226832], "type": "Point"}}, {"id": "112", "properties": {"name": "125-Blyth St/Lygon St (Brunswick East)", "stop_I": "119"}, "type": "Feature", "geometry": {"coordinates": [144.972698618112, -37.7664689972755], "type": "Point"}}, {"id": "113", "properties": {"name": "47-Mt Alexander Rd/Keilor Rd (Essendon)", "stop_I": "120"}, "type": "Feature", "geometry": {"coordinates": [144.908943590641, -37.743951582351], "type": "Point"}}, {"id": "114", "properties": {"name": "Melbourne Central/Lonsdale St (Melbourne City)", "stop_I": "123"}, "type": "Feature", "geometry": {"coordinates": [144.965082316955, -37.8115498497348], "type": "Point"}}, {"id": "115", "properties": {"name": "Lonsdale St/Spencer St (Melbourne City)", "stop_I": "124"}, "type": "Feature", "geometry": {"coordinates": [144.952099643101, -37.814812317733], "type": "Point"}}, {"id": "116", "properties": {"name": "Spencer St/Lonsdale St (Melbourne City)", "stop_I": "125"}, "type": "Feature", "geometry": {"coordinates": [144.952696183739, -37.8150119381031], "type": "Point"}}, {"id": "117", "properties": {"name": "Abbotsford St/Spencer St (West Melbourne)", "stop_I": "126"}, "type": "Feature", "geometry": {"coordinates": [144.944540986188, -37.805966261635], "type": "Point"}}, {"id": "118", "properties": {"name": "North Melbourne Railway Station/Spencer St (West Melbourne)", "stop_I": "127"}, "type": "Feature", "geometry": {"coordinates": [144.943425068707, -37.8056584019263], "type": "Point"}}, {"id": "119", "properties": {"name": "24-Mooltan St/Mt Alexander Rd (Flemington)", "stop_I": "128"}, "type": "Feature", "geometry": {"coordinates": [144.93715066464, -37.7841908121892], "type": "Point"}}, {"id": "120", "properties": {"name": "Harcourt Ave/Princes Hwy (Mulgrave)", "stop_I": "129"}, "type": "Feature", "geometry": {"coordinates": [145.153160545618, -37.9306874889064], "type": "Point"}}, {"id": "121", "properties": {"name": "Knox City Shopping Centre Interchange/Burwood Hwy (Wantirna South)", "stop_I": "130"}, "type": "Feature", "geometry": {"coordinates": [145.2387735329, -37.8693399822107], "type": "Point"}}, {"id": "122", "properties": {"name": "Renver Rd/Princes Hwy (Clayton)", "stop_I": "131"}, "type": "Feature", "geometry": {"coordinates": [145.142520604359, -37.9239773675676], "type": "Point"}}, {"id": "123", "properties": {"name": "Monash University/Wellington Rd (Clayton)", "stop_I": "132"}, "type": "Feature", "geometry": {"coordinates": [145.131303769537, -37.914517533594], "type": "Point"}}, {"id": "124", "properties": {"name": "Dandenong Station/Foster St (Dandenong)", "stop_I": "133"}, "type": "Feature", "geometry": {"coordinates": [145.209541498194, -37.9895685946823], "type": "Point"}}, {"id": "125", "properties": {"name": "Dandenong Railway Station/Foster St (Dandenong)", "stop_I": "134"}, "type": "Feature", "geometry": {"coordinates": [145.209812711743, -37.9896538308733], "type": "Point"}}, {"id": "126", "properties": {"name": "Dandenong Railway Station/Foster St (Dandenong)", "stop_I": "135"}, "type": "Feature", "geometry": {"coordinates": [145.209981919472, -37.9897194898786], "type": "Point"}}, {"id": "127", "properties": {"name": "Dandenong Railway Station/Foster St (Dandenong)", "stop_I": "136"}, "type": "Feature", "geometry": {"coordinates": [145.210308953126, -37.9898506339212], "type": "Point"}}, {"id": "128", "properties": {"name": "Whitehall St/Hopkins St (Footscray)", "stop_I": "137"}, "type": "Feature", "geometry": {"coordinates": [144.90567855068, -37.800559363093], "type": "Point"}}, {"id": "129", "properties": {"name": "Little Collins St/Queen St (Melbourne City)", "stop_I": "138"}, "type": "Feature", "geometry": {"coordinates": [144.961333635216, -37.8160990261774], "type": "Point"}}, {"id": "130", "properties": {"name": "Grimshaw St/Plenty Rd (Bundoora)", "stop_I": "139"}, "type": "Feature", "geometry": {"coordinates": [145.057883050348, -37.7005665644901], "type": "Point"}}, {"id": "131", "properties": {"name": "Bent St/Centre Rd (Bentleigh)", "stop_I": "140"}, "type": "Feature", "geometry": {"coordinates": [145.037837023907, -37.9182767075526], "type": "Point"}}, {"id": "132", "properties": {"name": "Bentleigh SC/Centre Rd (Bentleigh)", "stop_I": "141"}, "type": "Feature", "geometry": {"coordinates": [145.038185921216, -37.9184177020268], "type": "Point"}}, {"id": "133", "properties": {"name": "Caulfield Railway Station/Sir John Monash Dr (Caulfield East)", "stop_I": "142"}, "type": "Feature", "geometry": {"coordinates": [145.042322453217, -37.8769424244474], "type": "Point"}}, {"id": "134", "properties": {"name": "Forum Pl/Melrose Dr (Tullamarine)", "stop_I": "143"}, "type": "Feature", "geometry": {"coordinates": [144.881043940717, -37.700331824058], "type": "Point"}}, {"id": "135", "properties": {"name": "Ringwood Station/Maroondah Hwy (Ringwood)", "stop_I": "144"}, "type": "Feature", "geometry": {"coordinates": [145.22988517169, -37.8150801638921], "type": "Point"}}, {"id": "136", "properties": {"name": "Glen Waverley Railway Station/Railway Pde (Glen Waverley)", "stop_I": "145"}, "type": "Feature", "geometry": {"coordinates": [145.163195435081, -37.8794677650945], "type": "Point"}}, {"id": "137", "properties": {"name": "Fountain Gate SC/Overland Dr (Narre Warren)", "stop_I": "146"}, "type": "Feature", "geometry": {"coordinates": [145.303501434127, -38.0194485294009], "type": "Point"}}, {"id": "138", "properties": {"name": "Watergardens Railway Station/Watergardens Circuit Rd (Sydenham)", "stop_I": "148"}, "type": "Feature", "geometry": {"coordinates": [144.77433050877, -37.701041435963], "type": "Point"}}, {"id": "139", "properties": {"name": "Melton Railway Station/Staughton St (Melton South)", "stop_I": "149"}, "type": "Feature", "geometry": {"coordinates": [144.572753052903, -37.7035774117542], "type": "Point"}}, {"id": "140", "properties": {"name": "Frankston Railway Station/Young St (Frankston)", "stop_I": "150"}, "type": "Feature", "geometry": {"coordinates": [145.125364081978, -38.1438604561199], "type": "Point"}}, {"id": "141", "properties": {"name": "Croydon Railway Station/Railway Gr (Croydon)", "stop_I": "151"}, "type": "Feature", "geometry": {"coordinates": [145.280056508321, -37.796249176941], "type": "Point"}}, {"id": "142", "properties": {"name": "Cyril St/Maroondah Hwy (Lilydale)", "stop_I": "152"}, "type": "Feature", "geometry": {"coordinates": [145.364409411698, -37.7538942184138], "type": "Point"}}, {"id": "143", "properties": {"name": "Lilydale Railway Station/Maroondah Hwy (Lilydale)", "stop_I": "153"}, "type": "Feature", "geometry": {"coordinates": [145.347007532338, -37.7564902592935], "type": "Point"}}, {"id": "144", "properties": {"name": "Lilydale Railway Station/Maroondah Hwy (Lilydale)", "stop_I": "154"}, "type": "Feature", "geometry": {"coordinates": [145.346951395424, -37.7564624347461], "type": "Point"}}, {"id": "145", "properties": {"name": "Lilydale Railway Station/Maroondah Hwy (Lilydale)", "stop_I": "155"}, "type": "Feature", "geometry": {"coordinates": [145.346917151824, -37.7564709666414], "type": "Point"}}, {"id": "146", "properties": {"name": "Faraday St/Lygon St (Carlton)", "stop_I": "156"}, "type": "Feature", "geometry": {"coordinates": [144.967367626195, -37.7990449288762], "type": "Point"}}, {"id": "147", "properties": {"name": "Broadmeadows Railway Station/Pascoe Vale Rd (Broadmeadows)", "stop_I": "158"}, "type": "Feature", "geometry": {"coordinates": [144.919159363235, -37.6830592775611], "type": "Point"}}, {"id": "148", "properties": {"name": "Broadmeadows Railway Station/Pascoe Vale Rd (Broadmeadows)", "stop_I": "159"}, "type": "Feature", "geometry": {"coordinates": [144.9189850775, -37.6832094027923], "type": "Point"}}, {"id": "149", "properties": {"name": "Hampton Heath Ret Village/Hallam Rd (Hampton Park)", "stop_I": "160"}, "type": "Feature", "geometry": {"coordinates": [145.267335687107, -38.0362598373174], "type": "Point"}}, {"id": "150", "properties": {"name": "Wyndham Village Shopping Centre/Morris Rd (Tarneit)", "stop_I": "161"}, "type": "Feature", "geometry": {"coordinates": [144.706698890844, -37.8491092491404], "type": "Point"}}, {"id": "151", "properties": {"name": "Wyndham Village Shopping Centre/Morris Rd (Tarneit)", "stop_I": "162"}, "type": "Feature", "geometry": {"coordinates": [144.706427341379, -37.8494373770589], "type": "Point"}}, {"id": "152", "properties": {"name": "Coolavin Rd/Halton Rd (Noble Park North)", "stop_I": "164"}, "type": "Feature", "geometry": {"coordinates": [145.197694273939, -37.9553228028382], "type": "Point"}}, {"id": "153", "properties": {"name": "Santa Cruz Bvd/Bridgewater Rd (Roxburgh Park)", "stop_I": "165"}, "type": "Feature", "geometry": {"coordinates": [144.927427358869, -37.6185894255516], "type": "Point"}}, {"id": "154", "properties": {"name": "James Mirams Dr/Bridgewater Rd (Roxburgh Park)", "stop_I": "166"}, "type": "Feature", "geometry": {"coordinates": [144.927267321887, -37.618640685206], "type": "Point"}}, {"id": "155", "properties": {"name": "Taggerty Cres/Pascoe Vale Rd (Coolaroo)", "stop_I": "167"}, "type": "Feature", "geometry": {"coordinates": [144.927211519451, -37.6573459970964], "type": "Point"}}, {"id": "156", "properties": {"name": "Windrock Ave/Grand Bvd (Craigieburn)", "stop_I": "168"}, "type": "Feature", "geometry": {"coordinates": [144.931227548473, -37.5775253640469], "type": "Point"}}, {"id": "157", "properties": {"name": "Altona Railway Station/Blyth St (Altona)", "stop_I": "169"}, "type": "Feature", "geometry": {"coordinates": [144.830709266347, -37.8684468555288], "type": "Point"}}, {"id": "158", "properties": {"name": "Altona Railway Station/Blyth St (Altona)", "stop_I": "170"}, "type": "Feature", "geometry": {"coordinates": [144.830055325186, -37.868263581197], "type": "Point"}}, {"id": "159", "properties": {"name": "Caulfield Railway Station/Sir John Monash Dr (Caulfield East)", "stop_I": "171"}, "type": "Feature", "geometry": {"coordinates": [145.043128282152, -37.8774244390629], "type": "Point"}}, {"id": "160", "properties": {"name": "Herbert Rd/Melba Hwy (Yarra Glen)", "stop_I": "172"}, "type": "Feature", "geometry": {"coordinates": [145.374428376467, -37.6574917270298], "type": "Point"}}, {"id": "161", "properties": {"name": "Herbert Rd/Melba Hwy (Yarra Glen)", "stop_I": "173"}, "type": "Feature", "geometry": {"coordinates": [145.374696372038, -37.6581983955521], "type": "Point"}}, {"id": "162", "properties": {"name": "Thompsons Rd/South Gippsland Hwy (Cranbourne)", "stop_I": "174"}, "type": "Feature", "geometry": {"coordinates": [145.277086626344, -38.0830213285024], "type": "Point"}}, {"id": "163", "properties": {"name": "Derrimut Rd/Heaths Rd (Hoppers Crossing)", "stop_I": "175"}, "type": "Feature", "geometry": {"coordinates": [144.68098854882, -37.877522660625], "type": "Point"}}, {"id": "164", "properties": {"name": "Derrimut Rd/Heaths Rd (Hoppers Crossing)", "stop_I": "176"}, "type": "Feature", "geometry": {"coordinates": [144.681017769415, -37.8773159776388], "type": "Point"}}, {"id": "165", "properties": {"name": "Nelson Rd/Maroondah Hwy (Lilydale)", "stop_I": "177"}, "type": "Feature", "geometry": {"coordinates": [145.365941805661, -37.7528610345294], "type": "Point"}}, {"id": "166", "properties": {"name": "Gaffney St/Derby St (Pascoe Vale)", "stop_I": "178"}, "type": "Feature", "geometry": {"coordinates": [144.945818060226, -37.7319476433199], "type": "Point"}}, {"id": "167", "properties": {"name": "Bell St/Turner St (Pascoe Vale South)", "stop_I": "179"}, "type": "Feature", "geometry": {"coordinates": [144.945164291449, -37.7387672179], "type": "Point"}}, {"id": "168", "properties": {"name": "Central Square Shopping Centre/Central Ave (Altona Meadows)", "stop_I": "180"}, "type": "Feature", "geometry": {"coordinates": [144.77571147968, -37.8715294247223], "type": "Point"}}, {"id": "169", "properties": {"name": "Ascot St/Central Ave (Altona Meadows)", "stop_I": "181"}, "type": "Feature", "geometry": {"coordinates": [144.76413734863, -37.8704540063997], "type": "Point"}}, {"id": "170", "properties": {"name": "Taylors Rd/Caroline Springs Bvd (Caroline Springs)", "stop_I": "182"}, "type": "Feature", "geometry": {"coordinates": [144.7382976545, -37.7234250518072], "type": "Point"}}, {"id": "171", "properties": {"name": "Taylors Rd/Caroline Springs Bvd (Caroline Springs)", "stop_I": "183"}, "type": "Feature", "geometry": {"coordinates": [144.737984115575, -37.7236623448607], "type": "Point"}}, {"id": "172", "properties": {"name": "Caroline Springs Library/Caroline Springs Bvd (Caroline Springs)", "stop_I": "184"}, "type": "Feature", "geometry": {"coordinates": [144.741007321498, -37.7331914730951], "type": "Point"}}, {"id": "173", "properties": {"name": "Caroline Springs Library/Caroline Springs Bvd (Caroline Springs)", "stop_I": "185"}, "type": "Feature", "geometry": {"coordinates": [144.741273460205, -37.7333948292757], "type": "Point"}}, {"id": "174", "properties": {"name": "St Mary MacKillop Primary School/Sunshine Ave (Keilor Downs)", "stop_I": "186"}, "type": "Feature", "geometry": {"coordinates": [144.803541499243, -37.714674386478], "type": "Point"}}, {"id": "175", "properties": {"name": "Evans Rd/South Gippsland Hwy (Hampton Park)", "stop_I": "187"}, "type": "Feature", "geometry": {"coordinates": [145.26291735576, -38.0583276556291], "type": "Point"}}, {"id": "176", "properties": {"name": "Woollahra Pde/Gourlay Rd (Caroline Springs)", "stop_I": "188"}, "type": "Feature", "geometry": {"coordinates": [144.740087449912, -37.7126905857484], "type": "Point"}}, {"id": "177", "properties": {"name": "Woollahra Pde/Gourlay Rd (Taylors Hill)", "stop_I": "189"}, "type": "Feature", "geometry": {"coordinates": [144.740301209142, -37.7127487542579], "type": "Point"}}, {"id": "178", "properties": {"name": "Tintern Lp/Gourlay Rd (Hillside (3037))", "stop_I": "190"}, "type": "Feature", "geometry": {"coordinates": [144.743906018433, -37.6933798474602], "type": "Point"}}, {"id": "179", "properties": {"name": "Tintern Lp/Gourlay Rd (Hillside (3037))", "stop_I": "191"}, "type": "Feature", "geometry": {"coordinates": [144.744116864453, -37.6939065555134], "type": "Point"}}, {"id": "180", "properties": {"name": "Princes Hwy/Hallam South Rd (Hallam)", "stop_I": "192"}, "type": "Feature", "geometry": {"coordinates": [145.273107381975, -38.0078492502669], "type": "Point"}}, {"id": "181", "properties": {"name": "Argyle Square/Lygon St (Carlton)", "stop_I": "194"}, "type": "Feature", "geometry": {"coordinates": [144.96672517012, -37.8025934917886], "type": "Point"}}, {"id": "182", "properties": {"name": "Gaffney St/Derby St (Pascoe Vale)", "stop_I": "195"}, "type": "Feature", "geometry": {"coordinates": [144.945971223305, -37.7317430408906], "type": "Point"}}, {"id": "183", "properties": {"name": "Bell St/Turner St (Pascoe Vale South)", "stop_I": "196"}, "type": "Feature", "geometry": {"coordinates": [144.94530750865, -37.7389229166399], "type": "Point"}}, {"id": "184", "properties": {"name": "Whitehall St/Hopkins St (Footscray)", "stop_I": "197"}, "type": "Feature", "geometry": {"coordinates": [144.905672542188, -37.8003700106379], "type": "Point"}}, {"id": "185", "properties": {"name": "215 Jacksons Rd (Noble Park North)", "stop_I": "198"}, "type": "Feature", "geometry": {"coordinates": [145.192481900841, -37.9385888627991], "type": "Point"}}, {"id": "186", "properties": {"name": "Mill Park Stables SC/Childs Rd (Mill Park)", "stop_I": "199"}, "type": "Feature", "geometry": {"coordinates": [145.060055186888, -37.66726669566], "type": "Point"}}, {"id": "187", "properties": {"name": "Bundoora RMIT/Plenty Rd (Bundoora)", "stop_I": "200"}, "type": "Feature", "geometry": {"coordinates": [145.069216222848, -37.6829899624036], "type": "Point"}}, {"id": "188", "properties": {"name": "Carrum Railway Station/Station St (Carrum)", "stop_I": "201"}, "type": "Feature", "geometry": {"coordinates": [145.122765873652, -38.0755653322898], "type": "Point"}}, {"id": "189", "properties": {"name": "Waverley Park/Wellington Rd (Wheelers Hill)", "stop_I": "202"}, "type": "Feature", "geometry": {"coordinates": [145.18933152873, -37.9222919617301], "type": "Point"}}, {"id": "190", "properties": {"name": "Dandenong Hospital/Cleeland St (Dandenong)", "stop_I": "203"}, "type": "Feature", "geometry": {"coordinates": [145.215994542055, -37.9774826535785], "type": "Point"}}, {"id": "191", "properties": {"name": "Douglas St/Heatherton Rd (Noble Park)", "stop_I": "204"}, "type": "Feature", "geometry": {"coordinates": [145.172200128496, -37.9649415161661], "type": "Point"}}, {"id": "192", "properties": {"name": "Kirkham Rd/Hammond Rd (Dandenong South)", "stop_I": "205"}, "type": "Feature", "geometry": {"coordinates": [145.2088081938, -37.998181749712], "type": "Point"}}, {"id": "193", "properties": {"name": "Crissane Rd/Waterdale Rd (Heidelberg West)", "stop_I": "206"}, "type": "Feature", "geometry": {"coordinates": [145.050097852139, -37.7284293456922], "type": "Point"}}, {"id": "194", "properties": {"name": "Linden Place SC/Power Rd (Doveton)", "stop_I": "207"}, "type": "Feature", "geometry": {"coordinates": [145.239907451659, -37.9854039806406], "type": "Point"}}, {"id": "195", "properties": {"name": "Forrest Ct/James Cook Dr (Endeavour Hills)", "stop_I": "208"}, "type": "Feature", "geometry": {"coordinates": [145.274923413363, -37.9862473371947], "type": "Point"}}, {"id": "196", "properties": {"name": "Green St/Oriel Rd (Ivanhoe)", "stop_I": "209"}, "type": "Feature", "geometry": {"coordinates": [145.035185986588, -37.7658606144458], "type": "Point"}}, {"id": "197", "properties": {"name": "Macedon Rd/Manningham Rd (Templestowe Lower)", "stop_I": "210"}, "type": "Feature", "geometry": {"coordinates": [145.112909413895, -37.7736650238346], "type": "Point"}}, {"id": "198", "properties": {"name": "Kingsclere Ave/Corrigan Rd (Keysborough)", "stop_I": "211"}, "type": "Feature", "geometry": {"coordinates": [145.165443464495, -37.9807511634908], "type": "Point"}}, {"id": "199", "properties": {"name": "Berwick Shopping Centre/High St (Berwick)", "stop_I": "212"}, "type": "Feature", "geometry": {"coordinates": [145.345930998298, -38.0313001112555], "type": "Point"}}, {"id": "200", "properties": {"name": "Magnolia Gr/Box St (Doveton)", "stop_I": "213"}, "type": "Feature", "geometry": {"coordinates": [145.2373333118, -37.9949540525226], "type": "Point"}}, {"id": "201", "properties": {"name": "George Ave/Frawley Rd (Hallam)", "stop_I": "214"}, "type": "Feature", "geometry": {"coordinates": [145.257693165238, -37.9993489166346], "type": "Point"}}, {"id": "202", "properties": {"name": "Belgrave-Hallam Rd/Princes Hwy (Hallam)", "stop_I": "215"}, "type": "Feature", "geometry": {"coordinates": [145.27410856135, -38.0064400735372], "type": "Point"}}, {"id": "203", "properties": {"name": "Berwick Shopping Centre/High St (Berwick)", "stop_I": "216"}, "type": "Feature", "geometry": {"coordinates": [145.344949196803, -38.0308807540171], "type": "Point"}}, {"id": "204", "properties": {"name": "Station St/Darebin Rd (Thornbury)", "stop_I": "217"}, "type": "Feature", "geometry": {"coordinates": [145.01980580662, -37.765359762889], "type": "Point"}}, {"id": "205", "properties": {"name": "Evans St/Ballarat Rd (Braybrook)", "stop_I": "218"}, "type": "Feature", "geometry": {"coordinates": [144.862262892344, -37.7807556343608], "type": "Point"}}, {"id": "206", "properties": {"name": "Short St/Ballarat Rd (Maidstone)", "stop_I": "219"}, "type": "Feature", "geometry": {"coordinates": [144.875941985763, -37.7856080891427], "type": "Point"}}, {"id": "207", "properties": {"name": "Park St/Ballarat Rd (Footscray)", "stop_I": "220"}, "type": "Feature", "geometry": {"coordinates": [144.887986236772, -37.7905107692158], "type": "Point"}}, {"id": "208", "properties": {"name": "Tarneit Rd/Heaths Rd (Hoppers Crossing)", "stop_I": "221"}, "type": "Feature", "geometry": {"coordinates": [144.665599089204, -37.8756053450772], "type": "Point"}}, {"id": "209", "properties": {"name": "Alford St/Ballarat Rd (Sunshine North)", "stop_I": "224"}, "type": "Feature", "geometry": {"coordinates": [144.844383356033, -37.7786905067464], "type": "Point"}}, {"id": "210", "properties": {"name": "The Mall/Oriel Rd (Heidelberg West)", "stop_I": "225"}, "type": "Feature", "geometry": {"coordinates": [145.041529751928, -37.7482938303404], "type": "Point"}}, {"id": "211", "properties": {"name": "Balaclava Rd/Orrong Rd (Caulfield North)", "stop_I": "226"}, "type": "Feature", "geometry": {"coordinates": [145.008748650624, -37.8702061017988], "type": "Point"}}, {"id": "212", "properties": {"name": "Southern Rd/Oriel Rd (Heidelberg West)", "stop_I": "232"}, "type": "Feature", "geometry": {"coordinates": [145.042640996548, -37.7423013189029], "type": "Point"}}, {"id": "213", "properties": {"name": "Western Ave/Mickleham Rd (Westmeadows)", "stop_I": "234"}, "type": "Feature", "geometry": {"coordinates": [144.8830089151, -37.6838845417113], "type": "Point"}}, {"id": "214", "properties": {"name": "Greythorn SC/Doncaster Rd (Balwyn North)", "stop_I": "258"}, "type": "Feature", "geometry": {"coordinates": [145.096172034997, -37.7910141295593], "type": "Point"}}, {"id": "215", "properties": {"name": "Bayswater Railway Station/Station St (Bayswater)", "stop_I": "260"}, "type": "Feature", "geometry": {"coordinates": [145.268295836692, -37.8422010164484], "type": "Point"}}, {"id": "216", "properties": {"name": "Craigieburn Golf Course/Craigieburn Rd (Craigieburn)", "stop_I": "261"}, "type": "Feature", "geometry": {"coordinates": [144.921177116176, -37.5968957580019], "type": "Point"}}, {"id": "217", "properties": {"name": "Watergardens Railway Station/Watergardens Circuit Rd (Sydenham)", "stop_I": "264"}, "type": "Feature", "geometry": {"coordinates": [144.77426626833, -37.7009140599877], "type": "Point"}}, {"id": "218", "properties": {"name": "Sunshine Railway Station/Dickson St (Sunshine)", "stop_I": "265"}, "type": "Feature", "geometry": {"coordinates": [144.832572733828, -37.7873321669997], "type": "Point"}}, {"id": "219", "properties": {"name": "Waterfront City/Footscray Rd (West Melbourne)", "stop_I": "268"}, "type": "Feature", "geometry": {"coordinates": [144.941095439228, -37.8118357893744], "type": "Point"}}, {"id": "220", "properties": {"name": "Clyde Rd/Greaves Rd (Berwick)", "stop_I": "271"}, "type": "Feature", "geometry": {"coordinates": [145.337507273476, -38.0596859389367], "type": "Point"}}, {"id": "221", "properties": {"name": "Ascot St/Central Ave (Altona Meadows)", "stop_I": "275"}, "type": "Feature", "geometry": {"coordinates": [144.764879639005, -37.870341947763], "type": "Point"}}, {"id": "222", "properties": {"name": "Blyth St/Maidstone St (Altona)", "stop_I": "276"}, "type": "Feature", "geometry": {"coordinates": [144.811602301054, -37.8706884065701], "type": "Point"}}, {"id": "223", "properties": {"name": "Springvale Rd/Ferntree Gully Rd (Glen Waverley)", "stop_I": "277"}, "type": "Feature", "geometry": {"coordinates": [145.160499875486, -37.9032621794435], "type": "Point"}}, {"id": "224", "properties": {"name": "Dromana Ave/Matthews Ave (Airport West)", "stop_I": "278"}, "type": "Feature", "geometry": {"coordinates": [144.890800108372, -37.7142588193765], "type": "Point"}}, {"id": "225", "properties": {"name": "Princes Hwy/Belgrave-Hallam Rd (Hallam)", "stop_I": "279"}, "type": "Feature", "geometry": {"coordinates": [145.27356489518, -38.0043683676162], "type": "Point"}}, {"id": "226", "properties": {"name": "Marshall Pl/Frawley Rd (Hallam)", "stop_I": "280"}, "type": "Feature", "geometry": {"coordinates": [145.25808544097, -37.9996160737728], "type": "Point"}}, {"id": "227", "properties": {"name": "Power Rd/Paperbark St (Doveton)", "stop_I": "281"}, "type": "Feature", "geometry": {"coordinates": [145.238863430559, -37.995256349712], "type": "Point"}}, {"id": "228", "properties": {"name": "Parkmore SC/Cheltenham Rd (Keysborough)", "stop_I": "282"}, "type": "Feature", "geometry": {"coordinates": [145.173794015085, -37.9934075514704], "type": "Point"}}, {"id": "229", "properties": {"name": "Bracken Way/The Lakes Bvd (South Morang)", "stop_I": "283"}, "type": "Feature", "geometry": {"coordinates": [145.087310430899, -37.6314560951704], "type": "Point"}}, {"id": "230", "properties": {"name": "Taronga Way/The Lakes Bvd (South Morang)", "stop_I": "284"}, "type": "Feature", "geometry": {"coordinates": [145.088499788999, -37.6319169731669], "type": "Point"}}, {"id": "231", "properties": {"name": "Diggins Ct/Heatherton Rd (Noble Park)", "stop_I": "285"}, "type": "Feature", "geometry": {"coordinates": [145.166222422523, -37.9640914647469], "type": "Point"}}, {"id": "232", "properties": {"name": "Blackburn Rd/Doncaster Rd (Doncaster East)", "stop_I": "288"}, "type": "Feature", "geometry": {"coordinates": [145.160824544906, -37.7891125341315], "type": "Point"}}, {"id": "233", "properties": {"name": "Wetherby Rd/Doncaster Rd (Doncaster East)", "stop_I": "289"}, "type": "Feature", "geometry": {"coordinates": [145.144848827276, -37.7872127879618], "type": "Point"}}, {"id": "234", "properties": {"name": "Greythorn SC/Doncaster Rd (Balwyn North)", "stop_I": "290"}, "type": "Feature", "geometry": {"coordinates": [145.093627247105, -37.7919372472231], "type": "Point"}}, {"id": "235", "properties": {"name": "Elizabeth St/Lonsdale St (Melbourne City)", "stop_I": "291"}, "type": "Feature", "geometry": {"coordinates": [144.961773860471, -37.8124839214442], "type": "Point"}}, {"id": "236", "properties": {"name": "Mickleham Rd/Broadmeadows Rd (Gladstone Park)", "stop_I": "292"}, "type": "Feature", "geometry": {"coordinates": [144.883786491061, -37.6820600923906], "type": "Point"}}, {"id": "237", "properties": {"name": "Dunnings Rd (Point Cook)", "stop_I": "293"}, "type": "Feature", "geometry": {"coordinates": [144.733920910863, -37.884582527537], "type": "Point"}}, {"id": "238", "properties": {"name": "Palmers Rd/Sayers Rd (Williams Landing)", "stop_I": "294"}, "type": "Feature", "geometry": {"coordinates": [144.744293712007, -37.8539089066408], "type": "Point"}}, {"id": "239", "properties": {"name": "Palmers Rd/Sayers Rd (Williams Landing)", "stop_I": "295"}, "type": "Feature", "geometry": {"coordinates": [144.743924098182, -37.8537306058901], "type": "Point"}}, {"id": "240", "properties": {"name": "Forsyth Rd/Sayers Rd (Truganina)", "stop_I": "296"}, "type": "Feature", "geometry": {"coordinates": [144.730136572865, -37.8526725083257], "type": "Point"}}, {"id": "241", "properties": {"name": "Tom Roberts Pde/Boardwalk Bvd (Point Cook)", "stop_I": "297"}, "type": "Feature", "geometry": {"coordinates": [144.728653508546, -37.8939338331904], "type": "Point"}}, {"id": "242", "properties": {"name": "James St/Heatherton Rd (Dandenong North)", "stop_I": "298"}, "type": "Feature", "geometry": {"coordinates": [145.209270724414, -37.9693238488728], "type": "Point"}}, {"id": "243", "properties": {"name": "Red Hill Rd/Heatherton Rd (Springvale)", "stop_I": "299"}, "type": "Feature", "geometry": {"coordinates": [145.14844067236, -37.9618933369632], "type": "Point"}}, {"id": "244", "properties": {"name": "Spring Rd/Heatherton Rd (Springvale South)", "stop_I": "300"}, "type": "Feature", "geometry": {"coordinates": [145.148086822248, -37.9619328244574], "type": "Point"}}, {"id": "245", "properties": {"name": "Meadow Heights Medical Centre/Hudson Cct (Meadow Heights)", "stop_I": "301"}, "type": "Feature", "geometry": {"coordinates": [144.921036923273, -37.6515417625801], "type": "Point"}}, {"id": "246", "properties": {"name": "Margaret Ave/Scoresby Rd (Bayswater)", "stop_I": "302"}, "type": "Feature", "geometry": {"coordinates": [145.267168511779, -37.8592893977614], "type": "Point"}}, {"id": "247", "properties": {"name": "Central Square Shopping Centre/Central Ave (Altona Meadows)", "stop_I": "303"}, "type": "Feature", "geometry": {"coordinates": [144.775572449996, -37.8712384316992], "type": "Point"}}, {"id": "248", "properties": {"name": "Bridge Inn Rd/Plenty Rd (Mernda)", "stop_I": "304"}, "type": "Feature", "geometry": {"coordinates": [145.096227018991, -37.5999765127472], "type": "Point"}}, {"id": "249", "properties": {"name": "South Morang Station/Civic Dr (South Morang)", "stop_I": "305"}, "type": "Feature", "geometry": {"coordinates": [145.067244650436, -37.6492794325563], "type": "Point"}}, {"id": "250", "properties": {"name": "Woodhouse Gr/Station St (Box Hill North)", "stop_I": "306"}, "type": "Feature", "geometry": {"coordinates": [145.126808174273, -37.8023648232591], "type": "Point"}}, {"id": "251", "properties": {"name": "Dudley St/Footscray Rd (West Melbourne)", "stop_I": "307"}, "type": "Feature", "geometry": {"coordinates": [144.942662581523, -37.8122596974273], "type": "Point"}}, {"id": "252", "properties": {"name": "Ballarat Rd/Station Rd (Deer Park)", "stop_I": "308"}, "type": "Feature", "geometry": {"coordinates": [144.774747746139, -37.7693300970154], "type": "Point"}}, {"id": "253", "properties": {"name": "Roxburgh Park Dr/Somerton Rd (Roxburgh Park)", "stop_I": "309"}, "type": "Feature", "geometry": {"coordinates": [144.924504096215, -37.6401847276737], "type": "Point"}}, {"id": "254", "properties": {"name": "Roxburgh Park Dr/Somerton Rd (Roxburgh Park)", "stop_I": "310"}, "type": "Feature", "geometry": {"coordinates": [144.924347520344, -37.6401098764329], "type": "Point"}}, {"id": "255", "properties": {"name": "Brimbank Shopping Centre/Station Rd (Deer Park)", "stop_I": "311"}, "type": "Feature", "geometry": {"coordinates": [144.777963396479, -37.7506467640747], "type": "Point"}}, {"id": "256", "properties": {"name": "Opp Brimbank Shopping Centre/252 Station Rd (Cairnlea)", "stop_I": "312"}, "type": "Feature", "geometry": {"coordinates": [144.778404369497, -37.7499431667552], "type": "Point"}}, {"id": "257", "properties": {"name": "Sunshine Secondary College/Glengala Rd (Sunshine West)", "stop_I": "313"}, "type": "Feature", "geometry": {"coordinates": [144.794085730114, -37.786725697576], "type": "Point"}}, {"id": "258", "properties": {"name": "Smith St/Victoria Pde (Collingwood)", "stop_I": "314"}, "type": "Feature", "geometry": {"coordinates": [144.983989919463, -37.8088200862605], "type": "Point"}}, {"id": "259", "properties": {"name": "Clarendon St/Victoria Pde (East Melbourne)", "stop_I": "315"}, "type": "Feature", "geometry": {"coordinates": [144.982888963774, -37.8092067629329], "type": "Point"}}, {"id": "260", "properties": {"name": "Sunset Views Bvd/Leakes Rd (Truganina)", "stop_I": "318"}, "type": "Feature", "geometry": {"coordinates": [144.695196907907, -37.8349170247557], "type": "Point"}}, {"id": "261", "properties": {"name": "Sunset Views Bvd/Leakes Rd (Truganina)", "stop_I": "319"}, "type": "Feature", "geometry": {"coordinates": [144.694910223676, -37.8350015244572], "type": "Point"}}, {"id": "262", "properties": {"name": "Sandstone Ave/Point Cook Rd (Seabrook)", "stop_I": "330"}, "type": "Feature", "geometry": {"coordinates": [144.756065224414, -37.8858449768336], "type": "Point"}}, {"id": "263", "properties": {"name": "St Philips Pl/Station St (Box Hill North)", "stop_I": "333"}, "type": "Feature", "geometry": {"coordinates": [145.126871137269, -37.8012213013112], "type": "Point"}}, {"id": "264", "properties": {"name": "Homestead Run/Point Cook Rd (Point Cook)", "stop_I": "335"}, "type": "Feature", "geometry": {"coordinates": [144.756352046446, -37.8857603328085], "type": "Point"}}, {"id": "265", "properties": {"name": "Carisbrook Cct/Morris Rd (Truganina)", "stop_I": "336"}, "type": "Feature", "geometry": {"coordinates": [144.708477635107, -37.8379067504336], "type": "Point"}}, {"id": "266", "properties": {"name": "Carisbrook Cct/Morris Rd (Truganina)", "stop_I": "337"}, "type": "Feature", "geometry": {"coordinates": [144.708653195635, -37.8381084177152], "type": "Point"}}, {"id": "267", "properties": {"name": "Rippleside Tce/Derrimut Rd (Tarneit)", "stop_I": "338"}, "type": "Feature", "geometry": {"coordinates": [144.688306251619, -37.8470913583502], "type": "Point"}}, {"id": "268", "properties": {"name": "Manor Lakes Central SC/Manor Lakes Bvd (Wyndham Vale)", "stop_I": "339"}, "type": "Feature", "geometry": {"coordinates": [144.615005249931, -37.8771679304827], "type": "Point"}}, {"id": "269", "properties": {"name": "Manor Lakes Central SC/Manor Lakes Bvd (Wyndham Vale)", "stop_I": "340"}, "type": "Feature", "geometry": {"coordinates": [144.615157591726, -37.877026839876], "type": "Point"}}, {"id": "270", "properties": {"name": "Werribee Village Shopping Centre/Tarneit Rd (Hoppers Crossing)", "stop_I": "341"}, "type": "Feature", "geometry": {"coordinates": [144.66209158143, -37.8887371440386], "type": "Point"}}, {"id": "271", "properties": {"name": "Tamarind Cres/Tarneit Rd (Hoppers Crossing)", "stop_I": "342"}, "type": "Feature", "geometry": {"coordinates": [144.662306375166, -37.888417008383], "type": "Point"}}, {"id": "272", "properties": {"name": "Hogans Rd/Derrimut Rd (Hoppers Crossing)", "stop_I": "343"}, "type": "Feature", "geometry": {"coordinates": [144.685804311456, -37.8616855418712], "type": "Point"}}, {"id": "273", "properties": {"name": "Hogans Rd/Derrimut Rd (Hoppers Crossing)", "stop_I": "344"}, "type": "Feature", "geometry": {"coordinates": [144.685521263405, -37.862013392984], "type": "Point"}}, {"id": "274", "properties": {"name": "Rippleside Tce/Derrimut Rd (Tarneit)", "stop_I": "345"}, "type": "Feature", "geometry": {"coordinates": [144.688583776588, -37.846574153031], "type": "Point"}}, {"id": "275", "properties": {"name": "Forsyth Rd/Sayers Rd (Williams Landing)", "stop_I": "346"}, "type": "Feature", "geometry": {"coordinates": [144.732455032744, -37.852672142059], "type": "Point"}}, {"id": "276", "properties": {"name": "Wyndham Vale Station (Wyndham Vale)", "stop_I": "347"}, "type": "Feature", "geometry": {"coordinates": [144.60860782655, -37.8735597831697], "type": "Point"}}, {"id": "277", "properties": {"name": "Ashcroft Ave/King St (Templestowe)", "stop_I": "348"}, "type": "Feature", "geometry": {"coordinates": [145.147166219391, -37.7730823206688], "type": "Point"}}, {"id": "278", "properties": {"name": "Reynolds Rd/Andersons Creek Rd (Doncaster East)", "stop_I": "349"}, "type": "Feature", "geometry": {"coordinates": [145.172311897581, -37.7653372205613], "type": "Point"}}, {"id": "279", "properties": {"name": "Hansen St/Mason St (Altona North)", "stop_I": "350"}, "type": "Feature", "geometry": {"coordinates": [144.865034660066, -37.8406430830687], "type": "Point"}}, {"id": "280", "properties": {"name": "Beverly Hills Dr/Blackburn Rd (Templestowe)", "stop_I": "351"}, "type": "Feature", "geometry": {"coordinates": [145.167522908693, -37.7579089509268], "type": "Point"}}, {"id": "281", "properties": {"name": "Templestowe Village SC/James St (Templestowe)", "stop_I": "352"}, "type": "Feature", "geometry": {"coordinates": [145.129433074347, -37.7568237022799], "type": "Point"}}, {"id": "282", "properties": {"name": "Greaves St/Heaths Rd (Werribee)", "stop_I": "353"}, "type": "Feature", "geometry": {"coordinates": [144.639000787619, -37.8872397569213], "type": "Point"}}, {"id": "283", "properties": {"name": "Ashley St/Ballarat Rd (Maidstone)", "stop_I": "354"}, "type": "Feature", "geometry": {"coordinates": [144.865846500224, -37.7816947557422], "type": "Point"}}, {"id": "284", "properties": {"name": "Thomson St/Ballarat Rd (Maidstone)", "stop_I": "355"}, "type": "Feature", "geometry": {"coordinates": [144.875702881696, -37.7856308116385], "type": "Point"}}, {"id": "285", "properties": {"name": "Eleanor St/Ballarat Rd (Footscray)", "stop_I": "356"}, "type": "Feature", "geometry": {"coordinates": [144.885444016933, -37.7896631112423], "type": "Point"}}, {"id": "286", "properties": {"name": "Sturt St/Ballarat Rd (Sunshine)", "stop_I": "357"}, "type": "Feature", "geometry": {"coordinates": [144.844173600602, -37.7788759118734], "type": "Point"}}, {"id": "287", "properties": {"name": "Inkerman St/Orrong Rd (St Kilda East)", "stop_I": "358"}, "type": "Feature", "geometry": {"coordinates": [145.009075710012, -37.8677694512127], "type": "Point"}}, {"id": "288", "properties": {"name": "Greaves St/Heaths Rd (Werribee)", "stop_I": "359"}, "type": "Feature", "geometry": {"coordinates": [144.639107510901, -37.8874581667155], "type": "Point"}}, {"id": "289", "properties": {"name": "Tarneit Rd/Heaths Rd (Werribee)", "stop_I": "360"}, "type": "Feature", "geometry": {"coordinates": [144.665650492805, -37.8757775782756], "type": "Point"}}, {"id": "290", "properties": {"name": "Somerville Rd/Williamstown Rd (Yarraville)", "stop_I": "361"}, "type": "Feature", "geometry": {"coordinates": [144.883357072226, -37.8130469298586], "type": "Point"}}, {"id": "291", "properties": {"name": "Francis St/Williamstown Rd (Yarraville)", "stop_I": "362"}, "type": "Feature", "geometry": {"coordinates": [144.881874924143, -37.8207883093001], "type": "Point"}}, {"id": "292", "properties": {"name": "Donald W Mclean Reserve/Melbourne Rd (Spotswood)", "stop_I": "363"}, "type": "Feature", "geometry": {"coordinates": [144.881061861963, -37.8277667024149], "type": "Point"}}, {"id": "293", "properties": {"name": "Hawthorn Rd/North Rd (Caulfield South)", "stop_I": "364"}, "type": "Feature", "geometry": {"coordinates": [145.019817256796, -37.9013391666472], "type": "Point"}}, {"id": "294", "properties": {"name": "Ormond Railway Station/North Rd (Ormond)", "stop_I": "365"}, "type": "Feature", "geometry": {"coordinates": [145.040117717103, -37.9039229875479], "type": "Point"}}, {"id": "295", "properties": {"name": "Tara Gr/North Rd (Carnegie)", "stop_I": "366"}, "type": "Feature", "geometry": {"coordinates": [145.055071423964, -37.9057391717844], "type": "Point"}}, {"id": "296", "properties": {"name": "Poath Rd/North Rd (Hughesdale)", "stop_I": "367"}, "type": "Feature", "geometry": {"coordinates": [145.07360873062, -37.907990684537], "type": "Point"}}, {"id": "297", "properties": {"name": "Warrigal Rd/North Rd (Hughesdale)", "stop_I": "368"}, "type": "Feature", "geometry": {"coordinates": [145.084435314709, -37.909366018785], "type": "Point"}}, {"id": "298", "properties": {"name": "Alma St/Waverley St (Essendon)", "stop_I": "369"}, "type": "Feature", "geometry": {"coordinates": [144.906806074633, -37.7581882576265], "type": "Point"}}, {"id": "299", "properties": {"name": "Maribyrnong Park/Maribyrnong Rd (Ascot Vale)", "stop_I": "370"}, "type": "Feature", "geometry": {"coordinates": [144.902404813088, -37.7701406424963], "type": "Point"}}, {"id": "300", "properties": {"name": "Alma St/Waverley St (Essendon)", "stop_I": "371"}, "type": "Feature", "geometry": {"coordinates": [144.90684434572, -37.7584412667166], "type": "Point"}}, {"id": "301", "properties": {"name": "Hurtle St/Maribyrnong Rd (Ascot Vale)", "stop_I": "372"}, "type": "Feature", "geometry": {"coordinates": [144.90286621828, -37.7702840341686], "type": "Point"}}, {"id": "302", "properties": {"name": "Mason St/Melbourne Rd (Newport)", "stop_I": "373"}, "type": "Feature", "geometry": {"coordinates": [144.883016232815, -37.8420672505206], "type": "Point"}}, {"id": "303", "properties": {"name": "Yarraville Oval/Williamstown Rd (Yarraville)", "stop_I": "374"}, "type": "Feature", "geometry": {"coordinates": [144.88293387383, -37.8159320590342], "type": "Point"}}, {"id": "304", "properties": {"name": "Francis St/Williamstown Rd (Yarraville)", "stop_I": "375"}, "type": "Feature", "geometry": {"coordinates": [144.882374698597, -37.8195987518697], "type": "Point"}}, {"id": "305", "properties": {"name": "Donald W Mclean Reserve/Melbourne Rd (Spotswood)", "stop_I": "376"}, "type": "Feature", "geometry": {"coordinates": [144.881159405571, -37.8275341557869], "type": "Point"}}, {"id": "306", "properties": {"name": "Mason St/Melbourne Rd (Newport)", "stop_I": "377"}, "type": "Feature", "geometry": {"coordinates": [144.883094681679, -37.8417081970213], "type": "Point"}}, {"id": "307", "properties": {"name": "Huntingdale Railway Station/North Rd (Oakleigh South)", "stop_I": "378"}, "type": "Feature", "geometry": {"coordinates": [145.104227168355, -37.9115610451804], "type": "Point"}}, {"id": "308", "properties": {"name": "Leakes Rd/Western Hwy (Rockbank)", "stop_I": "380"}, "type": "Feature", "geometry": {"coordinates": [144.653320329757, -37.7217182420932], "type": "Point"}}, {"id": "309", "properties": {"name": "Craigieburn Police Station/Craigieburn Rd (Craigieburn)", "stop_I": "381"}, "type": "Feature", "geometry": {"coordinates": [144.933138594507, -37.5980882304726], "type": "Point"}}, {"id": "310", "properties": {"name": "Dromana Ave/Matthews Ave (Airport West)", "stop_I": "382"}, "type": "Feature", "geometry": {"coordinates": [144.889606407993, -37.7127505042413], "type": "Point"}}, {"id": "311", "properties": {"name": "Sunshine Secondary College/266 Glengala Rd (Sunshine West)", "stop_I": "383"}, "type": "Feature", "geometry": {"coordinates": [144.794722323993, -37.7867015737217], "type": "Point"}}, {"id": "312", "properties": {"name": "Carter St/Glengala Rd (Sunshine West)", "stop_I": "384"}, "type": "Feature", "geometry": {"coordinates": [144.815049861111, -37.7897118446288], "type": "Point"}}, {"id": "313", "properties": {"name": "Livingstone St/Oriel Rd (Ivanhoe)", "stop_I": "385"}, "type": "Feature", "geometry": {"coordinates": [145.035321914268, -37.7658718934251], "type": "Point"}}, {"id": "314", "properties": {"name": "Day St/Glengala Rd (Sunshine West)", "stop_I": "386"}, "type": "Feature", "geometry": {"coordinates": [144.813574529411, -37.7892969653828], "type": "Point"}}, {"id": "315", "properties": {"name": "Huntingdale Railway Station/Haughton Rd (Oakleigh South)", "stop_I": "387"}, "type": "Feature", "geometry": {"coordinates": [145.102958159652, -37.9118109450905], "type": "Point"}}, {"id": "316", "properties": {"name": "Warrigal Rd/North Rd (Bentleigh East)", "stop_I": "388"}, "type": "Feature", "geometry": {"coordinates": [145.086097763006, -37.9097355218018], "type": "Point"}}, {"id": "317", "properties": {"name": "Poet Rd/North Rd (Bentleigh East)", "stop_I": "389"}, "type": "Feature", "geometry": {"coordinates": [145.073605206439, -37.9081258035503], "type": "Point"}}, {"id": "318", "properties": {"name": "Tucker Rd/North Rd (Ormond)", "stop_I": "390"}, "type": "Feature", "geometry": {"coordinates": [145.054238183245, -37.9058515596656], "type": "Point"}}, {"id": "319", "properties": {"name": "Ormond Railway Station/North Rd (Ormond)", "stop_I": "391"}, "type": "Feature", "geometry": {"coordinates": [145.039854810419, -37.9039726783874], "type": "Point"}}, {"id": "320", "properties": {"name": "Hawthorn Rd/North Rd (Brighton East)", "stop_I": "392"}, "type": "Feature", "geometry": {"coordinates": [145.018565587506, -37.9013631534675], "type": "Point"}}, {"id": "321", "properties": {"name": "Hansen St/Mason St (Altona North)", "stop_I": "393"}, "type": "Feature", "geometry": {"coordinates": [144.864881630829, -37.8404330411297], "type": "Point"}}, {"id": "322", "properties": {"name": "The Mall/Oriel Rd (Heidelberg West)", "stop_I": "394"}, "type": "Feature", "geometry": {"coordinates": [145.041516397354, -37.749230851629], "type": "Point"}}, {"id": "323", "properties": {"name": "Opposite Highpoint Shopping Centre/Rosamond Rd (Maribyrnong)", "stop_I": "395"}, "type": "Feature", "geometry": {"coordinates": [144.885968058863, -37.7724691989141], "type": "Point"}}, {"id": "324", "properties": {"name": "Healesville - Koo Wee Rup Rd/Warburton Hwy (Woori Yallock)", "stop_I": "396"}, "type": "Feature", "geometry": {"coordinates": [145.529643478555, -37.7798018882095], "type": "Point"}}, {"id": "325", "properties": {"name": "Seville War Memorial Park/Warburton Hwy (Seville)", "stop_I": "397"}, "type": "Feature", "geometry": {"coordinates": [145.460082638281, -37.7776153693137], "type": "Point"}}, {"id": "326", "properties": {"name": "George St/Warburton Hwy (Wandin North)", "stop_I": "398"}, "type": "Feature", "geometry": {"coordinates": [145.427454971353, -37.7795005410112], "type": "Point"}}, {"id": "327", "properties": {"name": "Healesville - Koo Wee Rup Rd/Warburton Hwy (Woori Yallock)", "stop_I": "399"}, "type": "Feature", "geometry": {"coordinates": [145.529693171756, -37.7795862086384], "type": "Point"}}, {"id": "328", "properties": {"name": "Link Rd/Warburton Hwy (Seville)", "stop_I": "400"}, "type": "Feature", "geometry": {"coordinates": [145.458667187787, -37.7779753804108], "type": "Point"}}, {"id": "329", "properties": {"name": "Union Rd/Warburton Hwy (Wandin North)", "stop_I": "401"}, "type": "Feature", "geometry": {"coordinates": [145.428411943581, -37.7804235623326], "type": "Point"}}, {"id": "330", "properties": {"name": "Malahang Reserve/Oriel Rd (Heidelberg West)", "stop_I": "402"}, "type": "Feature", "geometry": {"coordinates": [145.042801231001, -37.7422499088431], "type": "Point"}}, {"id": "331", "properties": {"name": "Bulleen Rd/Thompsons Rd (Bulleen)", "stop_I": "403"}, "type": "Feature", "geometry": {"coordinates": [145.081824367322, -37.7793451560502], "type": "Point"}}, {"id": "332", "properties": {"name": "Crissane Rd/Waterdale Rd (Heidelberg West)", "stop_I": "404"}, "type": "Feature", "geometry": {"coordinates": [145.050314286799, -37.7283968788115], "type": "Point"}}, {"id": "333", "properties": {"name": "Waterview Dr/Plenty Rd (Mernda)", "stop_I": "405"}, "type": "Feature", "geometry": {"coordinates": [145.092580856918, -37.6136792753111], "type": "Point"}}, {"id": "334", "properties": {"name": "Plenty Rd/Bridge Inn Rd (Mernda)", "stop_I": "406"}, "type": "Feature", "geometry": {"coordinates": [145.096674246453, -37.6006506335777], "type": "Point"}}, {"id": "335", "properties": {"name": "Tangelo Gr/Plenty Rd (Mernda)", "stop_I": "407"}, "type": "Feature", "geometry": {"coordinates": [145.094577510733, -37.6091333386777], "type": "Point"}}, {"id": "336", "properties": {"name": "North Gtwy/Maroondah Hwy (Coldstream)", "stop_I": "408"}, "type": "Feature", "geometry": {"coordinates": [145.377685834049, -37.7286087684056], "type": "Point"}}, {"id": "337", "properties": {"name": "Gee St/McIntyre Rd (Sunshine North)", "stop_I": "409"}, "type": "Feature", "geometry": {"coordinates": [144.83080348859, -37.7655095031526], "type": "Point"}}, {"id": "338", "properties": {"name": "Springvale Rd/Burwood Hwy (Vermont South)", "stop_I": "410"}, "type": "Feature", "geometry": {"coordinates": [145.170978578938, -37.8548511465345], "type": "Point"}}, {"id": "339", "properties": {"name": "Joffre Rd/Boundary Rd (Pascoe Vale)", "stop_I": "411"}, "type": "Feature", "geometry": {"coordinates": [144.939692005279, -37.7167548594744], "type": "Point"}}, {"id": "340", "properties": {"name": "Eileen St/West St (Hadfield)", "stop_I": "412"}, "type": "Feature", "geometry": {"coordinates": [144.938185016524, -37.7080951427147], "type": "Point"}}, {"id": "341", "properties": {"name": "Sandra St/Thompsons Rd (Bulleen)", "stop_I": "413"}, "type": "Feature", "geometry": {"coordinates": [145.082462326832, -37.7788238371844], "type": "Point"}}, {"id": "342", "properties": {"name": "Kathleen Gr/Thompsons Rd (Bulleen)", "stop_I": "414"}, "type": "Feature", "geometry": {"coordinates": [145.0969176912, -37.772128049951], "type": "Point"}}, {"id": "343", "properties": {"name": "Victoria Park Railway Station/270 Johnston St (Abbotsford)", "stop_I": "415"}, "type": "Feature", "geometry": {"coordinates": [144.993977363265, -37.7998887195622], "type": "Point"}}, {"id": "344", "properties": {"name": "Smith St/Johnston St (Collingwood)", "stop_I": "416"}, "type": "Feature", "geometry": {"coordinates": [144.983262833281, -37.7988045376146], "type": "Point"}}, {"id": "345", "properties": {"name": "North Gtwy/Maroondah Hwy (Coldstream)", "stop_I": "417"}, "type": "Feature", "geometry": {"coordinates": [145.377877102913, -37.7286835003188], "type": "Point"}}, {"id": "346", "properties": {"name": "Maroondah Hwy/Green St (Healesville)", "stop_I": "418"}, "type": "Feature", "geometry": {"coordinates": [145.516898951833, -37.6542592945918], "type": "Point"}}, {"id": "347", "properties": {"name": "Fortescue Gr/Burwood Hwy (Vermont South)", "stop_I": "419"}, "type": "Feature", "geometry": {"coordinates": [145.17507241319, -37.8556897144114], "type": "Point"}}, {"id": "348", "properties": {"name": "Vermont South Tram Terminus/Burwood Hwy (Vermont South)", "stop_I": "420"}, "type": "Feature", "geometry": {"coordinates": [145.182746266169, -37.8565474149138], "type": "Point"}}, {"id": "349", "properties": {"name": "Mt. Dandenong Rd/Maroondah Hwy (Ringwood)", "stop_I": "421"}, "type": "Feature", "geometry": {"coordinates": [145.238780888988, -37.8102658910407], "type": "Point"}}, {"id": "350", "properties": {"name": "Oban Rd/Maroondah Hwy (Ringwood East)", "stop_I": "422"}, "type": "Feature", "geometry": {"coordinates": [145.253347358243, -37.7985327276156], "type": "Point"}}, {"id": "351", "properties": {"name": "High St/Clarendon St (Thornbury)", "stop_I": "423"}, "type": "Feature", "geometry": {"coordinates": [145.00077508167, -37.7596311984331], "type": "Point"}}, {"id": "352", "properties": {"name": "St Georges Rd/Normanby Ave (Thornbury)", "stop_I": "424"}, "type": "Feature", "geometry": {"coordinates": [144.992999163175, -37.7588050670746], "type": "Point"}}, {"id": "353", "properties": {"name": "Holmes St/Moreland Rd (Brunswick)", "stop_I": "425"}, "type": "Feature", "geometry": {"coordinates": [144.975177061073, -37.7567608080519], "type": "Point"}}, {"id": "354", "properties": {"name": "Hobbs St/Millers Rd (Altona North)", "stop_I": "426"}, "type": "Feature", "geometry": {"coordinates": [144.846388058125, -37.841402828167], "type": "Point"}}, {"id": "355", "properties": {"name": "Elsternwick Railway Station/Horne St (Elsternwick)", "stop_I": "427"}, "type": "Feature", "geometry": {"coordinates": [145.000246160793, -37.8848862264052], "type": "Point"}}, {"id": "356", "properties": {"name": "Mt Alexander Rd/Keilor Rd (Essendon)", "stop_I": "428"}, "type": "Feature", "geometry": {"coordinates": [144.908704374757, -37.7439833835798], "type": "Point"}}, {"id": "357", "properties": {"name": "Ogilvie St/Keilor Rd (Essendon)", "stop_I": "429"}, "type": "Feature", "geometry": {"coordinates": [144.894604633493, -37.7381449772053], "type": "Point"}}, {"id": "358", "properties": {"name": "Homemaker City/Rosamond Rd (Maribyrnong)", "stop_I": "430"}, "type": "Feature", "geometry": {"coordinates": [144.886430604503, -37.7717745867324], "type": "Point"}}, {"id": "359", "properties": {"name": "Union St/Punt Rd (Windsor)", "stop_I": "431"}, "type": "Feature", "geometry": {"coordinates": [144.983407541036, -37.8531660165654], "type": "Point"}}, {"id": "360", "properties": {"name": "Alfred Hospital/Punt Rd (South Yarra)", "stop_I": "432"}, "type": "Feature", "geometry": {"coordinates": [144.984858354258, -37.8462157756855], "type": "Point"}}, {"id": "361", "properties": {"name": "Toorak Rd/Punt Rd (South Yarra)", "stop_I": "433"}, "type": "Feature", "geometry": {"coordinates": [144.986348240678, -37.8386533754648], "type": "Point"}}, {"id": "362", "properties": {"name": "Gee St/McIntyre Rd (Sunshine North)", "stop_I": "434"}, "type": "Feature", "geometry": {"coordinates": [144.830906417915, -37.7658718638405], "type": "Point"}}, {"id": "363", "properties": {"name": "Calder Park Dr/Melton Hwy (Sydenham)", "stop_I": "435"}, "type": "Feature", "geometry": {"coordinates": [144.757670454253, -37.6934803076102], "type": "Point"}}, {"id": "364", "properties": {"name": "Richmond Railway Station/Punt Rd (Melbourne City)", "stop_I": "436"}, "type": "Feature", "geometry": {"coordinates": [144.988792378564, -37.8248080186466], "type": "Point"}}, {"id": "365", "properties": {"name": "Johnston St/Hoddle St (Collingwood)", "stop_I": "437"}, "type": "Feature", "geometry": {"coordinates": [144.992887427269, -37.7994556046252], "type": "Point"}}, {"id": "366", "properties": {"name": "Faraday St/Lygon St (Carlton)", "stop_I": "438"}, "type": "Feature", "geometry": {"coordinates": [144.967142566329, -37.7989689498003], "type": "Point"}}, {"id": "367", "properties": {"name": "Clarinda Shopping Centre/Opp 120 Bourke Rd (Clarinda)", "stop_I": "439"}, "type": "Feature", "geometry": {"coordinates": [145.103441455818, -37.9412602691173], "type": "Point"}}, {"id": "368", "properties": {"name": "Osborne Ave/Westall Rd (Clayton South)", "stop_I": "440"}, "type": "Feature", "geometry": {"coordinates": [145.139390233786, -37.9466106716128], "type": "Point"}}, {"id": "369", "properties": {"name": "Sycamore Ave/Melrose Dr (Tullamarine)", "stop_I": "441"}, "type": "Feature", "geometry": {"coordinates": [144.88180233909, -37.7015800716941], "type": "Point"}}, {"id": "370", "properties": {"name": "Argyle Square/Lygon St (Carlton)", "stop_I": "442"}, "type": "Feature", "geometry": {"coordinates": [144.966509970286, -37.8025717523431], "type": "Point"}}, {"id": "371", "properties": {"name": "High St/Clarendon St (Thornbury)", "stop_I": "443"}, "type": "Feature", "geometry": {"coordinates": [145.000924277026, -37.7595706470509], "type": "Point"}}, {"id": "372", "properties": {"name": "St Georges Rd/Normanby Ave (Thornbury)", "stop_I": "444"}, "type": "Feature", "geometry": {"coordinates": [144.993511428249, -37.7587507099447], "type": "Point"}}, {"id": "373", "properties": {"name": "Nicholson St/Moreland Rd (Coburg)", "stop_I": "445"}, "type": "Feature", "geometry": {"coordinates": [144.975202453424, -37.7566621141024], "type": "Point"}}, {"id": "374", "properties": {"name": "Hendren Ave/Millers Rd (Altona North)", "stop_I": "446"}, "type": "Feature", "geometry": {"coordinates": [144.846826525597, -37.8403925434613], "type": "Point"}}, {"id": "375", "properties": {"name": "Montrose Rd/Mt. Dandenong Rd (Montrose)", "stop_I": "447"}, "type": "Feature", "geometry": {"coordinates": [145.341356345098, -37.8102592279134], "type": "Point"}}, {"id": "376", "properties": {"name": "Glen Dhu Rd/Mt. Dandenong Rd (Kilsyth)", "stop_I": "448"}, "type": "Feature", "geometry": {"coordinates": [145.308969902335, -37.8018228373433], "type": "Point"}}, {"id": "377", "properties": {"name": "Mountain Hwy/Albert Ave (Boronia)", "stop_I": "449"}, "type": "Feature", "geometry": {"coordinates": [145.300026428813, -37.844610081455], "type": "Point"}}, {"id": "378", "properties": {"name": "Trade Way/Colchester Rd (Kilsyth)", "stop_I": "450"}, "type": "Feature", "geometry": {"coordinates": [145.304089553797, -37.8230124400701], "type": "Point"}}, {"id": "379", "properties": {"name": "Macedon Square Shopping Centre/Manningham Rd (Templestowe Lower)", "stop_I": "451"}, "type": "Feature", "geometry": {"coordinates": [145.113458510988, -37.7735025906744], "type": "Point"}}, {"id": "380", "properties": {"name": "Calder Park Dr/Melton Hwy (Sydenham)", "stop_I": "452"}, "type": "Feature", "geometry": {"coordinates": [144.7559128538, -37.6934738914691], "type": "Point"}}, {"id": "381", "properties": {"name": "Monash St/Gordon St (Maribyrnong)", "stop_I": "453"}, "type": "Feature", "geometry": {"coordinates": [144.890899310744, -37.7843088614499], "type": "Point"}}, {"id": "382", "properties": {"name": "Victoria University/Ballarat Rd (Footscray)", "stop_I": "454"}, "type": "Feature", "geometry": {"coordinates": [144.898397397575, -37.7937880294347], "type": "Point"}}, {"id": "383", "properties": {"name": "Taylors Lakes Shopping Centre/Melton Hwy (Taylors Lakes)", "stop_I": "455"}, "type": "Feature", "geometry": {"coordinates": [144.800753896117, -37.7015284531049], "type": "Point"}}, {"id": "384", "properties": {"name": "Mary MacKillop Primary School/Sunshine Ave (Keilor Downs)", "stop_I": "456"}, "type": "Feature", "geometry": {"coordinates": [144.803836644413, -37.7142833743144], "type": "Point"}}, {"id": "385", "properties": {"name": "Power St/Sunshine Ave (St Albans)", "stop_I": "457"}, "type": "Feature", "geometry": {"coordinates": [144.816544168728, -37.731200100551], "type": "Point"}}, {"id": "386", "properties": {"name": "Malcolm Ct/Sunshine Ave (St Albans)", "stop_I": "458"}, "type": "Feature", "geometry": {"coordinates": [144.824764447831, -37.740706247305], "type": "Point"}}, {"id": "387", "properties": {"name": "Taylors Lane/Eildon Pde (Rowville)", "stop_I": "459"}, "type": "Feature", "geometry": {"coordinates": [145.246280207427, -37.9180718962383], "type": "Point"}}, {"id": "388", "properties": {"name": "Metcalf Cres/Eildon Pde (Rowville)", "stop_I": "460"}, "type": "Feature", "geometry": {"coordinates": [145.252549114858, -37.919480922503], "type": "Point"}}, {"id": "389", "properties": {"name": "Wentworth Ave/Dandelion (south) Dr (Rowville)", "stop_I": "461"}, "type": "Feature", "geometry": {"coordinates": [145.268025764058, -37.9231433467167], "type": "Point"}}, {"id": "390", "properties": {"name": "Erie Ave/Bridgewater (north) Way (Rowville)", "stop_I": "462"}, "type": "Feature", "geometry": {"coordinates": [145.244702385305, -37.9150563886521], "type": "Point"}}, {"id": "391", "properties": {"name": "Ormonde Rd/Blackwood Park Rd (Ferntree Gully)", "stop_I": "463"}, "type": "Feature", "geometry": {"coordinates": [145.283594251326, -37.8960019471124], "type": "Point"}}, {"id": "392", "properties": {"name": "Goulburn Dr/Kellets Rd (Rowville)", "stop_I": "464"}, "type": "Feature", "geometry": {"coordinates": [145.252086575087, -37.9125888894316], "type": "Point"}}, {"id": "393", "properties": {"name": "Karoo Rd/Kelletts Rd (Rowville)", "stop_I": "465"}, "type": "Feature", "geometry": {"coordinates": [145.252871392329, -37.9125915338134], "type": "Point"}}, {"id": "394", "properties": {"name": "St Lawrance Way/Kelletts Rd (Rowville)", "stop_I": "466"}, "type": "Feature", "geometry": {"coordinates": [145.258646324623, -37.9132268763479], "type": "Point"}}, {"id": "395", "properties": {"name": "Valleyview Dr/Karoo Rd (Rowville)", "stop_I": "467"}, "type": "Feature", "geometry": {"coordinates": [145.253101041979, -37.9091343353377], "type": "Point"}}, {"id": "396", "properties": {"name": "Wyandra Way/Murrindal Dr (Rowville)", "stop_I": "468"}, "type": "Feature", "geometry": {"coordinates": [145.264332797027, -37.9098863335938], "type": "Point"}}, {"id": "397", "properties": {"name": "Stephanie Cl/Allora Ave (Ferntree Gully)", "stop_I": "469"}, "type": "Feature", "geometry": {"coordinates": [145.284997670925, -37.898744049756], "type": "Point"}}, {"id": "398", "properties": {"name": "Coowarra Ct/Ormonde Rd (Ferntree Gully)", "stop_I": "470"}, "type": "Feature", "geometry": {"coordinates": [145.283830274311, -37.8961225461683], "type": "Point"}}, {"id": "399", "properties": {"name": "Mayfair Dr/Blackwood Park Rd (Ferntree Gully)", "stop_I": "471"}, "type": "Feature", "geometry": {"coordinates": [145.284070192222, -37.894116355591], "type": "Point"}}, {"id": "400", "properties": {"name": "Mayfair Dr/Blackwood Park Rd (Ferntree Gully)", "stop_I": "472"}, "type": "Feature", "geometry": {"coordinates": [145.284339195217, -37.8937958435058], "type": "Point"}}, {"id": "401", "properties": {"name": "Bales St/Roberts St (Ferntree Gully)", "stop_I": "473"}, "type": "Feature", "geometry": {"coordinates": [145.28861005365, -37.8954892146697], "type": "Point"}}, {"id": "402", "properties": {"name": "Nathan St/Norman St (Ferntree Gully)", "stop_I": "474"}, "type": "Feature", "geometry": {"coordinates": [145.292386535455, -37.895453954417], "type": "Point"}}, {"id": "403", "properties": {"name": "Nathan St/Norman St (Ferntree Gully)", "stop_I": "475"}, "type": "Feature", "geometry": {"coordinates": [145.292453082165, -37.8955270165918], "type": "Point"}}, {"id": "404", "properties": {"name": "Napoleon Rd/Lakesfield (south) Dr (Lysterfield)", "stop_I": "476"}, "type": "Feature", "geometry": {"coordinates": [145.275933474687, -37.9157975451594], "type": "Point"}}, {"id": "405", "properties": {"name": "Napoleon Rd/Lakesfield (north) Dr (Lysterfield)", "stop_I": "477"}, "type": "Feature", "geometry": {"coordinates": [145.276065773149, -37.9106175695431], "type": "Point"}}, {"id": "406", "properties": {"name": "Blucher St/Allora Ave (Ferntree Gully)", "stop_I": "478"}, "type": "Feature", "geometry": {"coordinates": [145.288331327121, -37.8996667570377], "type": "Point"}}, {"id": "407", "properties": {"name": "Blucher St/Allora Ave (Ferntree Gully)", "stop_I": "479"}, "type": "Feature", "geometry": {"coordinates": [145.288434694276, -37.8996232002618], "type": "Point"}}, {"id": "408", "properties": {"name": "Buckingham Dr/Bergins Rd (Rowville)", "stop_I": "480"}, "type": "Feature", "geometry": {"coordinates": [145.234502001665, -37.9310892521895], "type": "Point"}}, {"id": "409", "properties": {"name": "Heany Park Primary School/Buckingham Dr (Rowville)", "stop_I": "481"}, "type": "Feature", "geometry": {"coordinates": [145.244145398132, -37.9341714803601], "type": "Point"}}, {"id": "410", "properties": {"name": "Magdalena Pl/Clauscen Dr (Rowville)", "stop_I": "482"}, "type": "Feature", "geometry": {"coordinates": [145.246125605439, -37.9303258763096], "type": "Point"}}, {"id": "411", "properties": {"name": "Erie Ave/Bridgewater (south) Way (Rowville)", "stop_I": "483"}, "type": "Feature", "geometry": {"coordinates": [145.244710972913, -37.915173672573], "type": "Point"}}, {"id": "412", "properties": {"name": "Kelletts Rd/Taylors Lane (Rowville)", "stop_I": "484"}, "type": "Feature", "geometry": {"coordinates": [145.247241534437, -37.9111199543876], "type": "Point"}}, {"id": "413", "properties": {"name": "Kellbourne Dr/Landsborough Ave (Rowville)", "stop_I": "485"}, "type": "Feature", "geometry": {"coordinates": [145.2605990924, -37.9056586352264], "type": "Point"}}, {"id": "414", "properties": {"name": "Lakesfield Dr/Napoleon Rd (Lysterfield)", "stop_I": "486"}, "type": "Feature", "geometry": {"coordinates": [145.275148516631, -37.9104419102839], "type": "Point"}}, {"id": "415", "properties": {"name": "Peregrine Reserve/Dandelion Dr (Rowville)", "stop_I": "487"}, "type": "Feature", "geometry": {"coordinates": [145.259273051686, -37.9266910594471], "type": "Point"}}, {"id": "416", "properties": {"name": "Armstrong Dr/Dandelion Dr (Rowville)", "stop_I": "488"}, "type": "Feature", "geometry": {"coordinates": [145.254247611055, -37.9255892278923], "type": "Point"}}, {"id": "417", "properties": {"name": "Kelletts Rd/Taylors Lane (Rowville)", "stop_I": "489"}, "type": "Feature", "geometry": {"coordinates": [145.247126757222, -37.9111633044966], "type": "Point"}}, {"id": "418", "properties": {"name": "Valleyview Dr/Karoo Rd (Rowville)", "stop_I": "490"}, "type": "Feature", "geometry": {"coordinates": [145.253094785105, -37.9089179543628], "type": "Point"}}, {"id": "419", "properties": {"name": "Kellbourne Dr/Landsborough Ave (Rowville)", "stop_I": "491"}, "type": "Feature", "geometry": {"coordinates": [145.260488361832, -37.9055308300737], "type": "Point"}}, {"id": "420", "properties": {"name": "Lakesfield Dr/Napoleon Rd (Lysterfield)", "stop_I": "492"}, "type": "Feature", "geometry": {"coordinates": [145.275792436634, -37.9101449389648], "type": "Point"}}, {"id": "421", "properties": {"name": "Major Cres/Sullivan (south) Ave (Lysterfield)", "stop_I": "493"}, "type": "Feature", "geometry": {"coordinates": [145.276767506336, -37.9185674415933], "type": "Point"}}, {"id": "422", "properties": {"name": "Wetherby Ct/Dandelion Dr (Rowville)", "stop_I": "494"}, "type": "Feature", "geometry": {"coordinates": [145.2644656344, -37.926497416484], "type": "Point"}}, {"id": "423", "properties": {"name": "Peregrine Reserve/Dandelion Dr (Rowville)", "stop_I": "495"}, "type": "Feature", "geometry": {"coordinates": [145.258418780181, -37.9267324881259], "type": "Point"}}, {"id": "424", "properties": {"name": "Armstrong Dr/Dandelion Dr (Rowville)", "stop_I": "496"}, "type": "Feature", "geometry": {"coordinates": [145.254131749503, -37.9256776283823], "type": "Point"}}, {"id": "425", "properties": {"name": "Taylors Lane/Bernard Hamilton Way (Rowville)", "stop_I": "497"}, "type": "Feature", "geometry": {"coordinates": [145.244293326854, -37.923170078265], "type": "Point"}}, {"id": "426", "properties": {"name": "Hull Rd/Allendale Rd (Croydon)", "stop_I": "498"}, "type": "Feature", "geometry": {"coordinates": [145.295827197375, -37.794468695169], "type": "Point"}}, {"id": "427", "properties": {"name": "Yallambee Way/Allendale Rd (Croydon)", "stop_I": "499"}, "type": "Feature", "geometry": {"coordinates": [145.296770592009, -37.789489572149], "type": "Point"}}, {"id": "428", "properties": {"name": "Lincoln Rd/Lionel Cres (Croydon)", "stop_I": "500"}, "type": "Feature", "geometry": {"coordinates": [145.302819588875, -37.7891623229816], "type": "Point"}}, {"id": "429", "properties": {"name": "Hull Rd/Sabato St (Croydon)", "stop_I": "501"}, "type": "Feature", "geometry": {"coordinates": [145.302757352638, -37.7923787912681], "type": "Point"}}, {"id": "430", "properties": {"name": "Ervin Rd/Kiloran Ave (Kilsyth)", "stop_I": "502"}, "type": "Feature", "geometry": {"coordinates": [145.306952764951, -37.7946561786383], "type": "Point"}}, {"id": "431", "properties": {"name": "Greenbank Dr/Partridge Way (Mooroolbark)", "stop_I": "503"}, "type": "Feature", "geometry": {"coordinates": [145.319413650602, -37.7619669086674], "type": "Point"}}, {"id": "432", "properties": {"name": "Bimbadeen Dr/Hayrick Lane (Mooroolbark)", "stop_I": "504"}, "type": "Feature", "geometry": {"coordinates": [145.321106763712, -37.7724362815598], "type": "Point"}}, {"id": "433", "properties": {"name": "Rolling Hills Primary School/Landscape Dr (Mooroolbark)", "stop_I": "505"}, "type": "Feature", "geometry": {"coordinates": [145.326484492977, -37.7670693780832], "type": "Point"}}, {"id": "434", "properties": {"name": "Mooroolbark Rd/Hull Rd (Mooroolbark)", "stop_I": "506"}, "type": "Feature", "geometry": {"coordinates": [145.330720250458, -37.7750963317837], "type": "Point"}}, {"id": "435", "properties": {"name": "Grace Ave/Carronvale Rd (Mooroolbark)", "stop_I": "507"}, "type": "Feature", "geometry": {"coordinates": [145.331903811765, -37.7785107264352], "type": "Point"}}, {"id": "436", "properties": {"name": "May Rd/Blackburn Rd (Mooroolbark)", "stop_I": "508"}, "type": "Feature", "geometry": {"coordinates": [145.332859215748, -37.7814712658874], "type": "Point"}}, {"id": "437", "properties": {"name": "Cardigan Rd/Pembroke Rd (Mooroolbark)", "stop_I": "509"}, "type": "Feature", "geometry": {"coordinates": [145.329059986194, -37.7888255183316], "type": "Point"}}, {"id": "438", "properties": {"name": "Longfellow Ave/Pembroke Rd (Mooroolbark)", "stop_I": "510"}, "type": "Feature", "geometry": {"coordinates": [145.328069082063, -37.7939935044545], "type": "Point"}}, {"id": "439", "properties": {"name": "Holmes Rd/Dryden Con (Mooroolbark)", "stop_I": "511"}, "type": "Feature", "geometry": {"coordinates": [145.320068703548, -37.7922124042392], "type": "Point"}}, {"id": "440", "properties": {"name": "Chirnside Dr/Country Club Dr (Chirnside Park)", "stop_I": "512"}, "type": "Feature", "geometry": {"coordinates": [145.325243425954, -37.7561558789003], "type": "Point"}}, {"id": "441", "properties": {"name": "The Wallaby Run/Chirnside Dr (Chirnside Park)", "stop_I": "513"}, "type": "Feature", "geometry": {"coordinates": [145.319635579171, -37.7526603748417], "type": "Point"}}, {"id": "442", "properties": {"name": "Gilda Ct/Trisha Dr (Rowville)", "stop_I": "514"}, "type": "Feature", "geometry": {"coordinates": [145.247973814405, -37.9339491902216], "type": "Point"}}, {"id": "443", "properties": {"name": "Taylors Lane/Bernard Hamilton Way (Rowville)", "stop_I": "515"}, "type": "Feature", "geometry": {"coordinates": [145.244226590756, -37.9231059985083], "type": "Point"}}, {"id": "444", "properties": {"name": "Taylors Lane/Eildon Pde (Rowville)", "stop_I": "516"}, "type": "Feature", "geometry": {"coordinates": [145.246334499265, -37.9181808492801], "type": "Point"}}, {"id": "445", "properties": {"name": "Hull Rd/Allendale Rd (Croydon)", "stop_I": "517"}, "type": "Feature", "geometry": {"coordinates": [145.296047047818, -37.7942916316309], "type": "Point"}}, {"id": "446", "properties": {"name": "Yallambee Way/Allendale Rd (Croydon)", "stop_I": "518"}, "type": "Feature", "geometry": {"coordinates": [145.296997020515, -37.7895198827631], "type": "Point"}}, {"id": "447", "properties": {"name": "Hull Rd/Sabato St (Croydon)", "stop_I": "519"}, "type": "Feature", "geometry": {"coordinates": [145.302837647668, -37.7923438993568], "type": "Point"}}, {"id": "448", "properties": {"name": "Greenbank Dr/Partridge Way (Mooroolbark)", "stop_I": "520"}, "type": "Feature", "geometry": {"coordinates": [145.319321028405, -37.7620466980283], "type": "Point"}}, {"id": "449", "properties": {"name": "Bimbadeen Dr/Hayrick Lane (Mooroolbark)", "stop_I": "521"}, "type": "Feature", "geometry": {"coordinates": [145.320948475335, -37.7724069888393], "type": "Point"}}, {"id": "450", "properties": {"name": "Bellara Dr/Wandana St (Mooroolbark)", "stop_I": "522"}, "type": "Feature", "geometry": {"coordinates": [145.306224633318, -37.7733227489102], "type": "Point"}}, {"id": "451", "properties": {"name": "Chevalier Cres/Landscape Dr (Mooroolbark)", "stop_I": "523"}, "type": "Feature", "geometry": {"coordinates": [145.326407055614, -37.7674828432984], "type": "Point"}}, {"id": "452", "properties": {"name": "Mooroolbark Rd/Hull Rd (Mooroolbark)", "stop_I": "524"}, "type": "Feature", "geometry": {"coordinates": [145.33197143216, -37.7749968945043], "type": "Point"}}, {"id": "453", "properties": {"name": "May Rd/Blackburn Rd (Mooroolbark)", "stop_I": "525"}, "type": "Feature", "geometry": {"coordinates": [145.332895294125, -37.7813816537293], "type": "Point"}}, {"id": "454", "properties": {"name": "Cardigan Rd/Pembroke Rd (Mooroolbark)", "stop_I": "526"}, "type": "Feature", "geometry": {"coordinates": [145.328946663785, -37.7888148984626], "type": "Point"}}, {"id": "455", "properties": {"name": "Longfellow Ave/Pembroke Rd (Mooroolbark)", "stop_I": "527"}, "type": "Feature", "geometry": {"coordinates": [145.327891470388, -37.7943154242223], "type": "Point"}}, {"id": "456", "properties": {"name": "Cambridge Rd/Lawson Rd (Mooroolbark)", "stop_I": "528"}, "type": "Feature", "geometry": {"coordinates": [145.324901751056, -37.795949221233], "type": "Point"}}, {"id": "457", "properties": {"name": "Holmes Rd/Dryden Con (Mooroolbark)", "stop_I": "529"}, "type": "Feature", "geometry": {"coordinates": [145.320245731297, -37.7919175248565], "type": "Point"}}, {"id": "458", "properties": {"name": "Chirnside Dr/Country Club Dr (Chirnside Park)", "stop_I": "530"}, "type": "Feature", "geometry": {"coordinates": [145.325403103764, -37.756122099239], "type": "Point"}}, {"id": "459", "properties": {"name": "The Wallaby Run/Chirnside Dr (Chirnside Park)", "stop_I": "531"}, "type": "Feature", "geometry": {"coordinates": [145.319485893889, -37.7522526865544], "type": "Point"}}, {"id": "460", "properties": {"name": "Switchback Rd/Polaris Way (Chirnside Park)", "stop_I": "532"}, "type": "Feature", "geometry": {"coordinates": [145.325829368156, -37.7447636333829], "type": "Point"}}, {"id": "461", "properties": {"name": "Peden St/Victoria Rd (Chirnside Park)", "stop_I": "533"}, "type": "Feature", "geometry": {"coordinates": [145.336173386212, -37.752156051659], "type": "Point"}}, {"id": "462", "properties": {"name": "Manchester Rd/Batterbee Dr (Mooroolbark)", "stop_I": "534"}, "type": "Feature", "geometry": {"coordinates": [145.315267748793, -37.7665760580892], "type": "Point"}}, {"id": "463", "properties": {"name": "Ferntree Gully Railway Station/Station St (Ferntree Gully)", "stop_I": "535"}, "type": "Feature", "geometry": {"coordinates": [145.294801934484, -37.8819528338227], "type": "Point"}}, {"id": "464", "properties": {"name": "Mooroolbark Railway Station/Brice Ave (Mooroolbark)", "stop_I": "536"}, "type": "Feature", "geometry": {"coordinates": [145.313227190265, -37.7849318713904], "type": "Point"}}, {"id": "465", "properties": {"name": "Chirnside Park Shopping Centre/Maroondah Hwy (Chirnside Park)", "stop_I": "537"}, "type": "Feature", "geometry": {"coordinates": [145.31236890587, -37.7577566098628], "type": "Point"}}, {"id": "466", "properties": {"name": "Stud Park Shopping Centre/Stud Rd (Rowville)", "stop_I": "538"}, "type": "Feature", "geometry": {"coordinates": [145.237476173783, -37.9194633588969], "type": "Point"}}, {"id": "467", "properties": {"name": "Wyandra Way/Murrindal Dr (Rowville)", "stop_I": "539"}, "type": "Feature", "geometry": {"coordinates": [145.264255742503, -37.9097770527369], "type": "Point"}}, {"id": "468", "properties": {"name": "Lincoln Rd/Lionel Cres (Croydon)", "stop_I": "540"}, "type": "Feature", "geometry": {"coordinates": [145.303037758201, -37.7890573195415], "type": "Point"}}, {"id": "469", "properties": {"name": "St Lawrence Way/Kellets Rd (Rowville)", "stop_I": "541"}, "type": "Feature", "geometry": {"coordinates": [145.258102631612, -37.9131287084093], "type": "Point"}}, {"id": "470", "properties": {"name": "Manchester Rd/Batterbee Dr (Mooroolbark)", "stop_I": "542"}, "type": "Feature", "geometry": {"coordinates": [145.315158142834, -37.7664032574381], "type": "Point"}}, {"id": "471", "properties": {"name": "Bellara Dr/Wandana St (Croydon)", "stop_I": "543"}, "type": "Feature", "geometry": {"coordinates": [145.306372389302, -37.7733158609485], "type": "Point"}}, {"id": "472", "properties": {"name": "Peden St/Victoria Rd (Chirnside Park)", "stop_I": "544"}, "type": "Feature", "geometry": {"coordinates": [145.33606964899, -37.7522266853354], "type": "Point"}}, {"id": "473", "properties": {"name": "Switchback Rd/Polaris Way (Chirnside Park)", "stop_I": "545"}, "type": "Feature", "geometry": {"coordinates": [145.32589987872, -37.7446564873216], "type": "Point"}}, {"id": "474", "properties": {"name": "Ervin Rd/Kiloran Ave (Kilsyth)", "stop_I": "546"}, "type": "Feature", "geometry": {"coordinates": [145.307099946568, -37.7946763186182], "type": "Point"}}, {"id": "475", "properties": {"name": "Cambridge Rd/Lawson Rd (Mooroolbark)", "stop_I": "547"}, "type": "Feature", "geometry": {"coordinates": [145.324789029039, -37.7959115690773], "type": "Point"}}, {"id": "476", "properties": {"name": "Grace Ave/Carronvale Rd (Mooroolbark)", "stop_I": "548"}, "type": "Feature", "geometry": {"coordinates": [145.331758679397, -37.7784005239043], "type": "Point"}}, {"id": "477", "properties": {"name": "Pitfield Cres/Dandelion Dr (Rowville)", "stop_I": "549"}, "type": "Feature", "geometry": {"coordinates": [145.253901255091, -37.9229165408019], "type": "Point"}}, {"id": "478", "properties": {"name": "Vista Cres/Dandelion Dr (Rowville)", "stop_I": "550"}, "type": "Feature", "geometry": {"coordinates": [145.253706313964, -37.9249052957328], "type": "Point"}}, {"id": "479", "properties": {"name": "Wentworth Ave/Dandelion (north) Dr (Rowville)", "stop_I": "551"}, "type": "Feature", "geometry": {"coordinates": [145.261369362603, -37.9154570631319], "type": "Point"}}, {"id": "480", "properties": {"name": "Bales St/Roberts St (Ferntree Gully)", "stop_I": "552"}, "type": "Feature", "geometry": {"coordinates": [145.288694326842, -37.8957788262621], "type": "Point"}}, {"id": "481", "properties": {"name": "Stephanie Cl/Allora Ave (Ferntree Gully)", "stop_I": "553"}, "type": "Feature", "geometry": {"coordinates": [145.285066931225, -37.8986999988614], "type": "Point"}}, {"id": "482", "properties": {"name": "Lilydale Railway Station/Maroondah Hwy (Lilydale)", "stop_I": "554"}, "type": "Feature", "geometry": {"coordinates": [145.347285290044, -37.7562508228563], "type": "Point"}}, {"id": "483", "properties": {"name": "Croydon Railway Station/Railway Gr (Croydon)", "stop_I": "555"}, "type": "Feature", "geometry": {"coordinates": [145.280328707781, -37.7957755052857], "type": "Point"}}, {"id": "484", "properties": {"name": "Billanook College (Mooroolbark)", "stop_I": "556"}, "type": "Feature", "geometry": {"coordinates": [145.339150841758, -37.7875172555907], "type": "Point"}}, {"id": "485", "properties": {"name": "Mooroolbark East PS (Mooroolbark)", "stop_I": "557"}, "type": "Feature", "geometry": {"coordinates": [145.335670847873, -37.7862244436277], "type": "Point"}}, {"id": "486", "properties": {"name": "Dole Ave/Cheddar Rd (Reservoir)", "stop_I": "558"}, "type": "Feature", "geometry": {"coordinates": [145.019198002778, -37.7004455128717], "type": "Point"}}, {"id": "487", "properties": {"name": "Rex St/Taylors Rd (Kings Park)", "stop_I": "559"}, "type": "Feature", "geometry": {"coordinates": [144.776152425766, -37.7269752097248], "type": "Point"}}, {"id": "488", "properties": {"name": "Gum Rd/Main Rd West (Albanvale)", "stop_I": "561"}, "type": "Feature", "geometry": {"coordinates": [144.775899388911, -37.7414971143014], "type": "Point"}}, {"id": "489", "properties": {"name": "Lloyd Ave/Cheddar Rd (Reservoir)", "stop_I": "562"}, "type": "Feature", "geometry": {"coordinates": [145.019685286526, -37.6991830099504], "type": "Point"}}, {"id": "490", "properties": {"name": "Moffat St/Main Rd West (St Albans)", "stop_I": "564"}, "type": "Feature", "geometry": {"coordinates": [144.783466504334, -37.7423246041254], "type": "Point"}}, {"id": "491", "properties": {"name": "Washington St/Main Rd West (St Albans)", "stop_I": "565"}, "type": "Feature", "geometry": {"coordinates": [144.787912291551, -37.7427956612577], "type": "Point"}},