{"features": [{"geometry": {"coordinates": [149.068329, -35.28751], "type": "Point"}, "properties": {"name": "Arboretum Car Park", "stop_I": "1"}, "id": "0", "type": "Feature"}, {"geometry": {"coordinates": [149.063995, -35.291889], "type": "Point"}, "properties": {"name": "Arboretum Stop 3", "stop_I": "2"}, "id": "1", "type": "Feature"}, {"geometry": {"coordinates": [149.047943, -35.347042], "type": "Point"}, "properties": {"name": "Fremantle Dr after McKail Cr", "stop_I": "4"}, "id": "2", "type": "Feature"}, {"geometry": {"coordinates": [149.140823, -35.273621], "type": "Point"}, "properties": {"name": "Donaldson St after Ainslie Primary School", "stop_I": "5"}, "id": "3", "type": "Feature"}, {"geometry": {"coordinates": [149.002975, -35.216084], "type": "Point"}, "properties": {"name": "MacFarlane Burnet Av after DeGruchy Pl", "stop_I": "6"}, "id": "4", "type": "Feature"}, {"geometry": {"coordinates": [149.004196, -35.212837], "type": "Point"}, "properties": {"name": "MacFarlane Burnet Av after Eccles Cct", "stop_I": "7"}, "id": "5", "type": "Feature"}, {"geometry": {"coordinates": [149.004013, -35.212666], "type": "Point"}, "properties": {"name": "MacFarlane Burnet Av before Eccles Cct", "stop_I": "8"}, "id": "6", "type": "Feature"}, {"geometry": {"coordinates": [149.003357, -35.216072], "type": "Point"}, "properties": {"name": "MacFarlane Burnet Av after Hallows Cct", "stop_I": "9"}, "id": "7", "type": "Feature"}, {"geometry": {"coordinates": [149.00322, -35.209343], "type": "Point"}, "properties": {"name": "MacFarlane Burnet Av after Constance Stone St", "stop_I": "10"}, "id": "8", "type": "Feature"}, {"geometry": {"coordinates": [149.002975, -35.209293], "type": "Point"}, "properties": {"name": "MacFarlane Burnet Av before Constance Stone St", "stop_I": "11"}, "id": "9", "type": "Feature"}, {"geometry": {"coordinates": [149.085968, -35.192123], "type": "Point"}, "properties": {"name": "O'Hanlon Pl after Gold Creek Rd", "stop_I": "12"}, "id": "10", "type": "Feature"}, {"geometry": {"coordinates": [149.086075, -35.192142], "type": "Point"}, "properties": {"name": "O'Hanlon Pl before Gold Creek Rd", "stop_I": "13"}, "id": "11", "type": "Feature"}, {"geometry": {"coordinates": [149.091614, -35.426113], "type": "Point"}, "properties": {"name": "Drumston St opp MacKillop College", "stop_I": "15"}, "id": "12", "type": "Feature"}, {"geometry": {"coordinates": [149.091705, -35.425972], "type": "Point"}, "properties": {"name": "Drumston St MacKillop after Isabella Dr", "stop_I": "16"}, "id": "13", "type": "Feature"}, {"geometry": {"coordinates": [149.120026, -35.418968], "type": "Point"}, "properties": {"name": "Hambidge Cr after Truganini Pl", "stop_I": "17"}, "id": "14", "type": "Feature"}, {"geometry": {"coordinates": [149.091034, -35.42786], "type": "Point"}, "properties": {"name": "Ellerston Av opp Isabella Plains Shops", "stop_I": "18"}, "id": "15", "type": "Feature"}, {"geometry": {"coordinates": [149.091415, -35.427479], "type": "Point"}, "properties": {"name": "Ellerston Av Isabella Plains Shops", "stop_I": "19"}, "id": "16", "type": "Feature"}, {"geometry": {"coordinates": [149.09549, -35.425655], "type": "Point"}, "properties": {"name": "Ellerston Av after Drumston St", "stop_I": "20"}, "id": "17", "type": "Feature"}, {"geometry": {"coordinates": [149.095459, -35.425766], "type": "Point"}, "properties": {"name": "Ellerston Av 2nd after Collyburl Cr", "stop_I": "21"}, "id": "18", "type": "Feature"}, {"geometry": {"coordinates": [149.098007, -35.426369], "type": "Point"}, "properties": {"name": "Ellerston Av 2nd after Drumston St", "stop_I": "22"}, "id": "19", "type": "Feature"}, {"geometry": {"coordinates": [149.098114, -35.426601], "type": "Point"}, "properties": {"name": "Ellerston Av after Collyburl Cr", "stop_I": "23"}, "id": "20", "type": "Feature"}, {"geometry": {"coordinates": [149.100616, -35.428486], "type": "Point"}, "properties": {"name": "Ellerston Av after Abercorn Cr", "stop_I": "24"}, "id": "21", "type": "Feature"}, {"geometry": {"coordinates": [149.100357, -35.428391], "type": "Point"}, "properties": {"name": "Ellerston Av after Groveland Cr", "stop_I": "25"}, "id": "22", "type": "Feature"}, {"geometry": {"coordinates": [149.10289, -35.428791], "type": "Point"}, "properties": {"name": "Ellerston Av after 2nd Abercorn Cr", "stop_I": "26"}, "id": "23", "type": "Feature"}, {"geometry": {"coordinates": [149.102844, -35.428921], "type": "Point"}, "properties": {"name": "Ellerston Av after Ashley Dr", "stop_I": "27"}, "id": "24", "type": "Feature"}, {"geometry": {"coordinates": [149.113739, -35.435093], "type": "Point"}, "properties": {"name": "Webber Cr Calwell Shops", "stop_I": "28"}, "id": "25", "type": "Feature"}, {"geometry": {"coordinates": [149.111282, -35.436661], "type": "Point"}, "properties": {"name": "Casey Cr after Roope Cl", "stop_I": "29"}, "id": "26", "type": "Feature"}, {"geometry": {"coordinates": [149.11084, -35.436859], "type": "Point"}, "properties": {"name": "Casey Cr after Downard St", "stop_I": "30"}, "id": "27", "type": "Feature"}, {"geometry": {"coordinates": [149.098618, -35.439865], "type": "Point"}, "properties": {"name": "Duggan St after Downard St", "stop_I": "31"}, "id": "28", "type": "Feature"}, {"geometry": {"coordinates": [149.09848, -35.439835], "type": "Point"}, "properties": {"name": "Duggan St after Beckett St", "stop_I": "32"}, "id": "29", "type": "Feature"}, {"geometry": {"coordinates": [149.100906, -35.441601], "type": "Point"}, "properties": {"name": "Duggan St after Tharwa Dr", "stop_I": "33"}, "id": "30", "type": "Feature"}, {"geometry": {"coordinates": [149.10112, -35.441601], "type": "Point"}, "properties": {"name": "Duggan St after Andrew Cr", "stop_I": "34"}, "id": "31", "type": "Feature"}, {"geometry": {"coordinates": [149.105713, -35.444824], "type": "Point"}, "properties": {"name": "Tharwa Dr after Fidge St overpass", "stop_I": "35"}, "id": "32", "type": "Feature"}, {"geometry": {"coordinates": [149.103989, -35.444454], "type": "Point"}, "properties": {"name": "Tharwa Dr after Fidge St overpass", "stop_I": "36"}, "id": "33", "type": "Feature"}, {"geometry": {"coordinates": [149.124619, -35.447277], "type": "Point"}, "properties": {"name": "Lawrence Wackett Cr opp Theodore Primary School", "stop_I": "37"}, "id": "34", "type": "Feature"}, {"geometry": {"coordinates": [149.124481, -35.447346], "type": "Point"}, "properties": {"name": "Lawrence Wackett Cr Theodore PS", "stop_I": "38"}, "id": "35", "type": "Feature"}, {"geometry": {"coordinates": [149.122559, -35.449867], "type": "Point"}, "properties": {"name": "Lawrence Wackett Cr after Burdett Cr", "stop_I": "39"}, "id": "36", "type": "Feature"}, {"geometry": {"coordinates": [149.122498, -35.450001], "type": "Point"}, "properties": {"name": "Lawrence Wackett Cr after Latchford St", "stop_I": "40"}, "id": "37", "type": "Feature"}, {"geometry": {"coordinates": [149.120102, -35.450821], "type": "Point"}, "properties": {"name": "Chippindall Cct after Louis Loder St", "stop_I": "41"}, "id": "38", "type": "Feature"}, {"geometry": {"coordinates": [149.1203, -35.450718], "type": "Point"}, "properties": {"name": "Chippindall Cct after Latchford St", "stop_I": "42"}, "id": "39", "type": "Feature"}, {"geometry": {"coordinates": [149.086151, -35.434803], "type": "Point"}, "properties": {"name": "Hurtle Av after Noarlunga Cr", "stop_I": "43"}, "id": "40", "type": "Feature"}, {"geometry": {"coordinates": [149.085968, -35.434727], "type": "Point"}, "properties": {"name": "Hurtle Av 2nd after Bardolph St", "stop_I": "44"}, "id": "41", "type": "Feature"}, {"geometry": {"coordinates": [149.074173, -35.426731], "type": "Point"}, "properties": {"name": "Barr Smith Av after Salas St", "stop_I": "45"}, "id": "42", "type": "Feature"}, {"geometry": {"coordinates": [149.074188, -35.426899], "type": "Point"}, "properties": {"name": "Barr Smith Av after Don Dunstan Dr", "stop_I": "46"}, "id": "43", "type": "Feature"}, {"geometry": {"coordinates": [149.075302, -35.428455], "type": "Point"}, "properties": {"name": "Coombe St after Barr Smith Av", "stop_I": "47"}, "id": "44", "type": "Feature"}, {"geometry": {"coordinates": [149.075333, -35.428543], "type": "Point"}, "properties": {"name": "Coombe St after Kneebone St", "stop_I": "48"}, "id": "45", "type": "Feature"}, {"geometry": {"coordinates": [149.077621, -35.430763], "type": "Point"}, "properties": {"name": "Kingscote Cr after Marquet Rt", "stop_I": "49"}, "id": "46", "type": "Feature"}, {"geometry": {"coordinates": [149.077652, -35.430836], "type": "Point"}, "properties": {"name": "Kingscote Cr after Kneebone St", "stop_I": "50"}, "id": "47", "type": "Feature"}, {"geometry": {"coordinates": [149.080002, -35.431099], "type": "Point"}, "properties": {"name": "Barr Smith Av after Kingscote Cr", "stop_I": "51"}, "id": "48", "type": "Feature"}, {"geometry": {"coordinates": [149.080063, -35.431263], "type": "Point"}, "properties": {"name": "Barr Smith Av after Hurtle St", "stop_I": "52"}, "id": "49", "type": "Feature"}, {"geometry": {"coordinates": [149.083588, -35.434406], "type": "Point"}, "properties": {"name": "Hurtle Av after Bardolph St", "stop_I": "53"}, "id": "50", "type": "Feature"}, {"geometry": {"coordinates": [149.082886, -35.433937], "type": "Point"}, "properties": {"name": "Hurtle Av after Ebenezer St", "stop_I": "54"}, "id": "51", "type": "Feature"}, {"geometry": {"coordinates": [149.082306, -35.432125], "type": "Point"}, "properties": {"name": "Hurtle Av opp Bonython Primary School", "stop_I": "55"}, "id": "52", "type": "Feature"}, {"geometry": {"coordinates": [149.082291, -35.431442], "type": "Point"}, "properties": {"name": "Hurtle Av Bonython Primary School", "stop_I": "56"}, "id": "53", "type": "Feature"}, {"geometry": {"coordinates": [149.067886, -35.418682], "type": "Point"}, "properties": {"name": "Soward Way Homeworld", "stop_I": "57"}, "id": "54", "type": "Feature"}, {"geometry": {"coordinates": [149.070694, -35.417271], "type": "Point"}, "properties": {"name": "Soward Way after Anketell St", "stop_I": "58"}, "id": "55", "type": "Feature"}, {"geometry": {"coordinates": [149.07074, -35.417377], "type": "Point"}, "properties": {"name": "Soward Way after Drakeford Dr", "stop_I": "59"}, "id": "56", "type": "Feature"}, {"geometry": {"coordinates": [149.069733, -35.422657], "type": "Point"}, "properties": {"name": "Scollay St Tuggeranong Bus Depot", "stop_I": "60"}, "id": "57", "type": "Feature"}, {"geometry": {"coordinates": [149.069229, -35.421806], "type": "Point"}, "properties": {"name": "Scollay St after Reed St", "stop_I": "61"}, "id": "58", "type": "Feature"}, {"geometry": {"coordinates": [149.072906, -35.422695], "type": "Point"}, "properties": {"name": "Anketell St Bunnings Tuggeranong", "stop_I": "62"}, "id": "59", "type": "Feature"}, {"geometry": {"coordinates": [149.072922, -35.422523], "type": "Point"}, "properties": {"name": "Anketell St opp Actew AGL", "stop_I": "63"}, "id": "60", "type": "Feature"}, {"geometry": {"coordinates": [149.070847, -35.419796], "type": "Point"}, "properties": {"name": "Anketell St opp Tuggeranong Square", "stop_I": "64"}, "id": "61", "type": "Feature"}, {"geometry": {"coordinates": [149.070831, -35.419975], "type": "Point"}, "properties": {"name": "Anketell St after Bunnings Warehouse", "stop_I": "65"}, "id": "62", "type": "Feature"}, {"geometry": {"coordinates": [149.088165, -35.430393], "type": "Point"}, "properties": {"name": "Ellerston Av before Noorooma Av", "stop_I": "66"}, "id": "63", "type": "Feature"}, {"geometry": {"coordinates": [149.088257, -35.430126], "type": "Point"}, "properties": {"name": "Ellerston Av after Noorooma Av", "stop_I": "67"}, "id": "64", "type": "Feature"}, {"geometry": {"coordinates": [149.088806, -35.431595], "type": "Point"}, "properties": {"name": "Ellerston Av after Keverstone Cct", "stop_I": "68"}, "id": "65", "type": "Feature"}, {"geometry": {"coordinates": [149.088898, -35.431553], "type": "Point"}, "properties": {"name": "Ellerston Av before Kadina St", "stop_I": "69"}, "id": "66", "type": "Feature"}, {"geometry": {"coordinates": [149.092377, -35.431904], "type": "Point"}, "properties": {"name": "Ellerston Av after Jasper Cl", "stop_I": "70"}, "id": "67", "type": "Feature"}, {"geometry": {"coordinates": [149.092056, -35.431675], "type": "Point"}, "properties": {"name": "Ellerston Av after Kadina St", "stop_I": "71"}, "id": "68", "type": "Feature"}, {"geometry": {"coordinates": [149.094666, -35.433964], "type": "Point"}, "properties": {"name": "Ellerston Av after Johnston Dr", "stop_I": "72"}, "id": "69", "type": "Feature"}, {"geometry": {"coordinates": [149.09465, -35.433781], "type": "Point"}, "properties": {"name": "Ellerston Av after 2nd Galloway St", "stop_I": "73"}, "id": "70", "type": "Feature"}, {"geometry": {"coordinates": [149.098663, -35.435753], "type": "Point"}, "properties": {"name": "Outtrim Av 2nd after Gurr St", "stop_I": "74"}, "id": "71", "type": "Feature"}, {"geometry": {"coordinates": [149.098404, -35.435688], "type": "Point"}, "properties": {"name": "Outtrim Av after Johnson Dr", "stop_I": "75"}, "id": "72", "type": "Feature"}, {"geometry": {"coordinates": [149.10202, -35.435898], "type": "Point"}, "properties": {"name": "Outtrim Av after Carter Cr", "stop_I": "76"}, "id": "73", "type": "Feature"}, {"geometry": {"coordinates": [149.101944, -35.435978], "type": "Point"}, "properties": {"name": "Outtrim Av after Gurr St", "stop_I": "77"}, "id": "74", "type": "Feature"}, {"geometry": {"coordinates": [149.104675, -35.436062], "type": "Point"}, "properties": {"name": "Outtrim Av after 2nd Carter Cr", "stop_I": "78"}, "id": "75", "type": "Feature"}, {"geometry": {"coordinates": [149.104828, -35.436089], "type": "Point"}, "properties": {"name": "Outtrim Av 2nd after Mountain Cct", "stop_I": "79"}, "id": "76", "type": "Feature"}, {"geometry": {"coordinates": [149.109482, -35.435623], "type": "Point"}, "properties": {"name": "Outtrim Av after Costello Cct", "stop_I": "80"}, "id": "77", "type": "Feature"}, {"geometry": {"coordinates": [149.109482, -35.435703], "type": "Point"}, "properties": {"name": "Outtrim Av after Mountain Cct", "stop_I": "81"}, "id": "78", "type": "Feature"}, {"geometry": {"coordinates": [149.110352, -35.438694], "type": "Point"}, "properties": {"name": "Casey Cr after Dougharty Pl", "stop_I": "82"}, "id": "79", "type": "Feature"}, {"geometry": {"coordinates": [149.110413, -35.43858], "type": "Point"}, "properties": {"name": "Casey Cr after Carpenter Cl", "stop_I": "83"}, "id": "80", "type": "Feature"}, {"geometry": {"coordinates": [149.113144, -35.440018], "type": "Point"}, "properties": {"name": "Casey Cr after O'Connor Cct", "stop_I": "86"}, "id": "81", "type": "Feature"}, {"geometry": {"coordinates": [149.113235, -35.439957], "type": "Point"}, "properties": {"name": "Casey Cr after Loader Cr", "stop_I": "87"}, "id": "82", "type": "Feature"}, {"geometry": {"coordinates": [149.111282, -35.433498], "type": "Point"}, "properties": {"name": "Johnson Dr Calwell Park and Ride", "stop_I": "88"}, "id": "83", "type": "Feature"}, {"geometry": {"coordinates": [149.115921, -35.44112], "type": "Point"}, "properties": {"name": "Casey Cr 3rd after Were St", "stop_I": "89"}, "id": "84", "type": "Feature"}, {"geometry": {"coordinates": [149.112595, -35.433212], "type": "Point"}, "properties": {"name": "Johnson Dr Opp Calwell Park and Ride", "stop_I": "90"}, "id": "85", "type": "Feature"}, {"geometry": {"coordinates": [149.118881, -35.441063], "type": "Point"}, "properties": {"name": "Casey Cr after Were St", "stop_I": "91"}, "id": "86", "type": "Feature"}, {"geometry": {"coordinates": [149.120712, -35.440384], "type": "Point"}, "properties": {"name": "Were St Netball Courts", "stop_I": "92"}, "id": "87", "type": "Feature"}, {"geometry": {"coordinates": [149.120682, -35.440536], "type": "Point"}, "properties": {"name": "Were St after Tharwa Dr", "stop_I": "93"}, "id": "88", "type": "Feature"}, {"geometry": {"coordinates": [149.116776, -35.445644], "type": "Point"}, "properties": {"name": "Louis Loder St after Lawrence Wackett Cr", "stop_I": "97"}, "id": "89", "type": "Feature"}, {"geometry": {"coordinates": [149.116669, -35.445576], "type": "Point"}, "properties": {"name": "Louis Loder St after Hartung Cr", "stop_I": "98"}, "id": "90", "type": "Feature"}, {"geometry": {"coordinates": [149.114517, -35.446537], "type": "Point"}, "properties": {"name": "Louis Loder St after 2nd Mehaffey Cr", "stop_I": "99"}, "id": "91", "type": "Feature"}, {"geometry": {"coordinates": [149.114883, -35.446522], "type": "Point"}, "properties": {"name": "Louis Loder St after Vonwiller Cr", "stop_I": "100"}, "id": "92", "type": "Feature"}, {"geometry": {"coordinates": [149.115219, -35.448009], "type": "Point"}, "properties": {"name": "Louis Loder St after Cochrane Cr", "stop_I": "101"}, "id": "93", "type": "Feature"}, {"geometry": {"coordinates": [149.115265, -35.448128], "type": "Point"}, "properties": {"name": "Louis Loder St after 2nd Conlon Cr", "stop_I": "102"}, "id": "94", "type": "Feature"}, {"geometry": {"coordinates": [149.117416, -35.450546], "type": "Point"}, "properties": {"name": "Louis Loder St after 2nd Cochrane Cr", "stop_I": "103"}, "id": "95", "type": "Feature"}, {"geometry": {"coordinates": [149.117264, -35.450596], "type": "Point"}, "properties": {"name": "Louis Loder St after Conlon Cr", "stop_I": "104"}, "id": "96", "type": "Feature"}, {"geometry": {"coordinates": [149.118423, -35.43325], "type": "Point"}, "properties": {"name": "Clift Cr before Johnson Dr", "stop_I": "105"}, "id": "97", "type": "Feature"}, {"geometry": {"coordinates": [149.118225, -35.433113], "type": "Point"}, "properties": {"name": "Clift Cr after Johnson Dr", "stop_I": "106"}, "id": "98", "type": "Feature"}, {"geometry": {"coordinates": [149.119171, -35.431156], "type": "Point"}, "properties": {"name": "Clift Cr after 2nd Chauncy Cr", "stop_I": "107"}, "id": "99", "type": "Feature"}, {"geometry": {"coordinates": [149.119354, -35.431118], "type": "Point"}, "properties": {"name": "Clift Cr after Fullerton Cr", "stop_I": "108"}, "id": "100", "type": "Feature"}, {"geometry": {"coordinates": [149.121445, -35.429241], "type": "Point"}, "properties": {"name": "Deamer Cr after Clift Cr", "stop_I": "109"}, "id": "101", "type": "Feature"}, {"geometry": {"coordinates": [149.120941, -35.429356], "type": "Point"}, "properties": {"name": "Deamer Cr after Meeson St", "stop_I": "110"}, "id": "102", "type": "Feature"}, {"geometry": {"coordinates": [149.123535, -35.430847], "type": "Point"}, "properties": {"name": "Deamer Cr after Twamley Cr", "stop_I": "111"}, "id": "103", "type": "Feature"}, {"geometry": {"coordinates": [149.123428, -35.430916], "type": "Point"}, "properties": {"name": "Deamer Cr after Mary MacKillop Pl", "stop_I": "112"}, "id": "104", "type": "Feature"}, {"geometry": {"coordinates": [149.12706, -35.431496], "type": "Point"}, "properties": {"name": "Deamer Cr after 2nd Twamley Cr", "stop_I": "113"}, "id": "105", "type": "Feature"}, {"geometry": {"coordinates": [149.126984, -35.431725], "type": "Point"}, "properties": {"name": "Deamer Cr before Mary MacKillop Pl", "stop_I": "114"}, "id": "106", "type": "Feature"}, {"geometry": {"coordinates": [149.128799, -35.429424], "type": "Point"}, "properties": {"name": "Deamer Cr before Nina Jones Cr", "stop_I": "115"}, "id": "107", "type": "Feature"}, {"geometry": {"coordinates": [149.128677, -35.429787], "type": "Point"}, "properties": {"name": "Deamer Cr after 2nd Nina Jones Cr", "stop_I": "116"}, "id": "108", "type": "Feature"}, {"geometry": {"coordinates": [149.129807, -35.427319], "type": "Point"}, "properties": {"name": "Deamer Cr after Heagney Cr", "stop_I": "117"}, "id": "109", "type": "Feature"}, {"geometry": {"coordinates": [149.129608, -35.427189], "type": "Point"}, "properties": {"name": "Deamer Cr before Heagney Cr", "stop_I": "118"}, "id": "110", "type": "Feature"}, {"geometry": {"coordinates": [149.130997, -35.426487], "type": "Point"}, "properties": {"name": "Heagney Cr after Rose Scott Cr", "stop_I": "119"}, "id": "111", "type": "Feature"}, {"geometry": {"coordinates": [149.130249, -35.426567], "type": "Point"}, "properties": {"name": "Heagney Cr after Deamer Cr", "stop_I": "120"}, "id": "112", "type": "Feature"}, {"geometry": {"coordinates": [149.133209, -35.424587], "type": "Point"}, "properties": {"name": "Heagney Cr after Couchman Cr", "stop_I": "121"}, "id": "113", "type": "Feature"}, {"geometry": {"coordinates": [149.133026, -35.424694], "type": "Point"}, "properties": {"name": "Heagney Cr after Hawton Pl", "stop_I": "122"}, "id": "114", "type": "Feature"}, {"geometry": {"coordinates": [149.134918, -35.423046], "type": "Point"}, "properties": {"name": "Heagney Cr before Couchman Cr North Entry", "stop_I": "123"}, "id": "115", "type": "Feature"}, {"geometry": {"coordinates": [149.134537, -35.423023], "type": "Point"}, "properties": {"name": "Heagney Cr after 2nd Couchman Cr", "stop_I": "124"}, "id": "116", "type": "Feature"}, {"geometry": {"coordinates": [149.135986, -35.421379], "type": "Point"}, "properties": {"name": "Heagney Cr after Henry Melville Cr", "stop_I": "125"}, "id": "117", "type": "Feature"}, {"geometry": {"coordinates": [149.136017, -35.420925], "type": "Point"}, "properties": {"name": "Heagney Cr after Emily Bulcock Cr", "stop_I": "126"}, "id": "118", "type": "Feature"}, {"geometry": {"coordinates": [149.136093, -35.419228], "type": "Point"}, "properties": {"name": "Heagney Cr after Louisa Lawson Cr South Entry", "stop_I": "127"}, "id": "119", "type": "Feature"}, {"geometry": {"coordinates": [149.135986, -35.419094], "type": "Point"}, "properties": {"name": "Heagney Cr after 2nd Henry Melville Cr", "stop_I": "128"}, "id": "120", "type": "Feature"}, {"geometry": {"coordinates": [149.125153, -35.415211], "type": "Point"}, "properties": {"name": "Proctor St after Sweet Pl", "stop_I": "131"}, "id": "121", "type": "Feature"}, {"geometry": {"coordinates": [149.125259, -35.415329], "type": "Point"}, "properties": {"name": "Proctor St after Maclean St", "stop_I": "132"}, "id": "122", "type": "Feature"}, {"geometry": {"coordinates": [149.129059, -35.414421], "type": "Point"}, "properties": {"name": "Benham St Chisholm Shops", "stop_I": "135"}, "id": "123", "type": "Feature"}, {"geometry": {"coordinates": [149.129227, -35.414482], "type": "Point"}, "properties": {"name": "Benham St opp Chisholm Shops", "stop_I": "136"}, "id": "124", "type": "Feature"}, {"geometry": {"coordinates": [149.12796, -35.409004], "type": "Point"}, "properties": {"name": "Coyne St after Jackie Howe Cr", "stop_I": "137"}, "id": "125", "type": "Feature"}, {"geometry": {"coordinates": [149.127777, -35.409157], "type": "Point"}, "properties": {"name": "Coyne St after Isabella Dr", "stop_I": "138"}, "id": "126", "type": "Feature"}, {"geometry": {"coordinates": [149.123108, -35.409168], "type": "Point"}, "properties": {"name": "Coyne St after Bugden Av", "stop_I": "139"}, "id": "127", "type": "Feature"}, {"geometry": {"coordinates": [149.122726, -35.409225], "type": "Point"}, "properties": {"name": "Coyne St before Fihelly St", "stop_I": "140"}, "id": "128", "type": "Feature"}, {"geometry": {"coordinates": [149.120438, -35.406963], "type": "Point"}, "properties": {"name": "Bugden Av after Coyne St", "stop_I": "141"}, "id": "129", "type": "Feature"}, {"geometry": {"coordinates": [149.120468, -35.406757], "type": "Point"}, "properties": {"name": "Bugden Av after Larcombe Cr", "stop_I": "142"}, "id": "130", "type": "Feature"}, {"geometry": {"coordinates": [149.122452, -35.404228], "type": "Point"}, "properties": {"name": "Bugden Av before Demaine Cr", "stop_I": "143"}, "id": "131", "type": "Feature"}, {"geometry": {"coordinates": [149.121964, -35.404354], "type": "Point"}, "properties": {"name": "Bugden Av after Fihelly St", "stop_I": "144"}, "id": "132", "type": "Feature"}, {"geometry": {"coordinates": [149.12413, -35.402393], "type": "Point"}, "properties": {"name": "Bugden Av after 2nd Demaine Cr", "stop_I": "145"}, "id": "133", "type": "Feature"}, {"geometry": {"coordinates": [149.12355, -35.401344], "type": "Point"}, "properties": {"name": "Bugden Av after Mullan St", "stop_I": "146"}, "id": "134", "type": "Feature"}, {"geometry": {"coordinates": [149.122116, -35.398518], "type": "Point"}, "properties": {"name": "Bugden Av after 2nd Mullan St", "stop_I": "147"}, "id": "135", "type": "Feature"}, {"geometry": {"coordinates": [149.122192, -35.398529], "type": "Point"}, "properties": {"name": "Bugden Av after Courtice Cl", "stop_I": "148"}, "id": "136", "type": "Feature"}, {"geometry": {"coordinates": [149.115692, -35.400242], "type": "Point"}, "properties": {"name": "Bugden Av after Dash Cr", "stop_I": "149"}, "id": "137", "type": "Feature"}, {"geometry": {"coordinates": [149.114273, -35.401436], "type": "Point"}, "properties": {"name": "Bugden Av after Partridge St", "stop_I": "150"}, "id": "138", "type": "Feature"}, {"geometry": {"coordinates": [149.112762, -35.401321], "type": "Point"}, "properties": {"name": "Bugden Av 2nd after Appel Cr", "stop_I": "151"}, "id": "139", "type": "Feature"}, {"geometry": {"coordinates": [149.110306, -35.401833], "type": "Point"}, "properties": {"name": "Bugden Av after Maughan Cr", "stop_I": "152"}, "id": "140", "type": "Feature"}, {"geometry": {"coordinates": [149.110016, -35.401741], "type": "Point"}, "properties": {"name": "Bugden Av after Appel Cr", "stop_I": "153"}, "id": "141", "type": "Feature"}, {"geometry": {"coordinates": [149.107483, -35.402649], "type": "Point"}, "properties": {"name": "Bugden Av after Sternberg Cr", "stop_I": "154"}, "id": "142", "type": "Feature"}, {"geometry": {"coordinates": [149.107559, -35.402691], "type": "Point"}, "properties": {"name": "Bugden Av before Sternberg Cr", "stop_I": "155"}, "id": "143", "type": "Feature"}, {"geometry": {"coordinates": [149.115829, -35.39954], "type": "Point"}, "properties": {"name": "Bugden Av after 2nd Dash Cr", "stop_I": "156"}, "id": "144", "type": "Feature"}, {"geometry": {"coordinates": [149.099472, -35.398911], "type": "Point"}, "properties": {"name": "Longmore Cr after Angliss Pl", "stop_I": "157"}, "id": "145", "type": "Feature"}, {"geometry": {"coordinates": [149.103287, -35.40226], "type": "Point"}, "properties": {"name": "Sternberg Cr after Erindale Dr", "stop_I": "158"}, "id": "146", "type": "Feature"}, {"geometry": {"coordinates": [149.100571, -35.401943], "type": "Point"}, "properties": {"name": "Sternberg Cr after Ashley Dr", "stop_I": "159"}, "id": "147", "type": "Feature"}, {"geometry": {"coordinates": [149.099167, -35.403648], "type": "Point"}, "properties": {"name": "Comrie St Erindale Centre Plt 1", "stop_I": "160"}, "id": "148", "type": "Feature"}, {"geometry": {"coordinates": [149.09938, -35.403801], "type": "Point"}, "properties": {"name": "Comrie St opp Erindale Centre Plt 2", "stop_I": "161"}, "id": "149", "type": "Feature"}, {"geometry": {"coordinates": [149.102753, -35.401993], "type": "Point"}, "properties": {"name": "Sternberg Cr before Erindale Dr", "stop_I": "162"}, "id": "150", "type": "Feature"}, {"geometry": {"coordinates": [149.095993, -35.403908], "type": "Point"}, "properties": {"name": "McBryde Cr Erindale Centre", "stop_I": "163"}, "id": "151", "type": "Feature"}, {"geometry": {"coordinates": [149.09584, -35.404015], "type": "Point"}, "properties": {"name": "McBryde Cr opp Erindale Centre", "stop_I": "164"}, "id": "152", "type": "Feature"}, {"geometry": {"coordinates": [149.093552, -35.405556], "type": "Point"}, "properties": {"name": "Amsinck St after McBryde Cr", "stop_I": "165"}, "id": "153", "type": "Feature"}, {"geometry": {"coordinates": [149.093292, -35.405602], "type": "Point"}, "properties": {"name": "Amsinck St after Erindale Dr", "stop_I": "166"}, "id": "154", "type": "Feature"}, {"geometry": {"coordinates": [149.090576, -35.406139], "type": "Point"}, "properties": {"name": "MacKillop College McBryde Cr", "stop_I": "167"}, "id": "155", "type": "Feature"}, {"geometry": {"coordinates": [149.090561, -35.406265], "type": "Point"}, "properties": {"name": "McBryde Cr opp MacKillop College", "stop_I": "168"}, "id": "156", "type": "Feature"}, {"geometry": {"coordinates": [149.086182, -35.441864], "type": "Point"}, "properties": {"name": "Woodcock Dr after Covenant CLG", "stop_I": "169"}, "id": "157", "type": "Feature"}, {"geometry": {"coordinates": [149.086151, -35.441692], "type": "Point"}, "properties": {"name": "Woodcock Dr before Drakeford Dr", "stop_I": "170"}, "id": "158", "type": "Feature"}, {"geometry": {"coordinates": [149.085968, -35.443043], "type": "Point"}, "properties": {"name": "Clare Dennis Av after Woodcock Dr", "stop_I": "171"}, "id": "159", "type": "Feature"}, {"geometry": {"coordinates": [149.087799, -35.44516], "type": "Point"}, "properties": {"name": "Clare Dennis Av after Churchill Wy", "stop_I": "172"}, "id": "160", "type": "Feature"}, {"geometry": {"coordinates": [149.086075, -35.44677], "type": "Point"}, "properties": {"name": "Clare Dennis Av after Fred Lane Cr", "stop_I": "173"}, "id": "161", "type": "Feature"}, {"geometry": {"coordinates": [149.083847, -35.44709], "type": "Point"}, "properties": {"name": "Clare Dennis Av after 2nd Fred Lane Cr", "stop_I": "174"}, "id": "162", "type": "Feature"}, {"geometry": {"coordinates": [149.086121, -35.448402], "type": "Point"}, "properties": {"name": "Lewis Luxton Av after Preddy Wy", "stop_I": "175"}, "id": "163", "type": "Feature"}, {"geometry": {"coordinates": [149.089096, -35.450436], "type": "Point"}, "properties": {"name": "Lewis Luxton Av after Flegg Cr", "stop_I": "176"}, "id": "164", "type": "Feature"}, {"geometry": {"coordinates": [149.087967, -35.452904], "type": "Point"}, "properties": {"name": "Lewis Luxton Av after Sid Barnes Cr", "stop_I": "177"}, "id": "165", "type": "Feature"}, {"geometry": {"coordinates": [149.086121, -35.458122], "type": "Point"}, "properties": {"name": "Knoke Av opp Gordon Primary School", "stop_I": "178"}, "id": "166", "type": "Feature"}, {"geometry": {"coordinates": [149.085663, -35.460579], "type": "Point"}, "properties": {"name": "Knoke Av 2nd after Jim Pike Av", "stop_I": "179"}, "id": "167", "type": "Feature"}, {"geometry": {"coordinates": [149.083206, -35.46228], "type": "Point"}, "properties": {"name": "Knoke Av after Jim Pike Av", "stop_I": "180"}, "id": "168", "type": "Feature"}, {"geometry": {"coordinates": [149.07991, -35.462017], "type": "Point"}, "properties": {"name": "Jim Pike Av after Knoke St", "stop_I": "181"}, "id": "169", "type": "Feature"}, {"geometry": {"coordinates": [149.080048, -35.459068], "type": "Point"}, "properties": {"name": "Callaway Cr after 2nd Wootton Cr", "stop_I": "182"}, "id": "170", "type": "Feature"}, {"geometry": {"coordinates": [149.081741, -35.460037], "type": "Point"}, "properties": {"name": "Callaway Cr after Myles Connell Cr", "stop_I": "183"}, "id": "171", "type": "Feature"}, {"geometry": {"coordinates": [149.117569, -35.39864], "type": "Point"}, "properties": {"name": "Bugden Av after Chataway Cr", "stop_I": "184"}, "id": "172", "type": "Feature"}, {"geometry": {"coordinates": [149.118256, -35.398045], "type": "Point"}, "properties": {"name": "Bugden Av after Nicklin Cr", "stop_I": "185"}, "id": "173", "type": "Feature"}, {"geometry": {"coordinates": [149.084183, -35.464787], "type": "Point"}, "properties": {"name": "Knoke Av after Clem Hill St", "stop_I": "186"}, "id": "174", "type": "Feature"}, {"geometry": {"coordinates": [149.087646, -35.467258], "type": "Point"}, "properties": {"name": "Knoke Av after 2nd Harry Hopman Cct", "stop_I": "187"}, "id": "175", "type": "Feature"}, {"geometry": {"coordinates": [149.089279, -35.472809], "type": "Point"}, "properties": {"name": "Knoke Av after Harry Hopman Cct", "stop_I": "188"}, "id": "176", "type": "Feature"}, {"geometry": {"coordinates": [149.09317, -35.474079], "type": "Point"}, "properties": {"name": "Pockett Av after Bellchambers Cr", "stop_I": "189"}, "id": "177", "type": "Feature"}, {"geometry": {"coordinates": [149.096924, -35.471703], "type": "Point"}, "properties": {"name": "Pockett Av after Wilson Cr", "stop_I": "190"}, "id": "178", "type": "Feature"}, {"geometry": {"coordinates": [149.097641, -35.469475], "type": "Point"}, "properties": {"name": "Pockett Av after 2nd Ironbark Cr", "stop_I": "191"}, "id": "179", "type": "Feature"}, {"geometry": {"coordinates": [149.095367, -35.467556], "type": "Point"}, "properties": {"name": "Pockett Av after Perrin Cct", "stop_I": "192"}, "id": "180", "type": "Feature"}, {"geometry": {"coordinates": [149.094101, -35.465279], "type": "Point"}, "properties": {"name": "Pockett Av after Box Hill Av", "stop_I": "193"}, "id": "181", "type": "Feature"}, {"geometry": {"coordinates": [149.096497, -35.463821], "type": "Point"}, "properties": {"name": "Tom Roberts Av before Box Hill", "stop_I": "194"}, "id": "182", "type": "Feature"}, {"geometry": {"coordinates": [149.098404, -35.465324], "type": "Point"}, "properties": {"name": "Tom Roberts Av opp Conder PS", "stop_I": "195"}, "id": "183", "type": "Feature"}, {"geometry": {"coordinates": [149.105606, -35.466305], "type": "Point"}, "properties": {"name": "Tom Roberts Av Jane Sutherland St", "stop_I": "196"}, "id": "184", "type": "Feature"}, {"geometry": {"coordinates": [149.105194, -35.462227], "type": "Point"}, "properties": {"name": "Tom Roberts Av after Chartersville Av", "stop_I": "197"}, "id": "185", "type": "Feature"}, {"geometry": {"coordinates": [149.102203, -35.461224], "type": "Point"}, "properties": {"name": "Tom Roberts Av 2nd after Box Hill Av", "stop_I": "198"}, "id": "186", "type": "Feature"}, {"geometry": {"coordinates": [149.099258, -35.460419], "type": "Point"}, "properties": {"name": "Tom Roberts Av after Box Hill Av", "stop_I": "199"}, "id": "187", "type": "Feature"}, {"geometry": {"coordinates": [149.100418, -35.466404], "type": "Point"}, "properties": {"name": "Tom Roberts Av after Beaumaris St", "stop_I": "200"}, "id": "188", "type": "Feature"}, {"geometry": {"coordinates": [149.092499, -35.456169], "type": "Point"}, "properties": {"name": "Box Hill Av opp Lanyon Marketplace", "stop_I": "201"}, "id": "189", "type": "Feature"}, {"geometry": {"coordinates": [149.097366, -35.457714], "type": "Point"}, "properties": {"name": "Box Hill Av opp St. Clare of Assisi Primary", "stop_I": "202"}, "id": "190", "type": "Feature"}, {"geometry": {"coordinates": [149.092468, -35.456352], "type": "Point"}, "properties": {"name": "Box Hill Av Lanyon Marketplace", "stop_I": "203"}, "id": "191", "type": "Feature"}, {"geometry": {"coordinates": [149.097458, -35.457981], "type": "Point"}, "properties": {"name": "Box Hill Av St. Clare of Assisi PS", "stop_I": "204"}, "id": "192", "type": "Feature"}, {"geometry": {"coordinates": [149.099014, -35.460468], "type": "Point"}, "properties": {"name": "Tom Roberts Av before Box Hill Av", "stop_I": "205"}, "id": "193", "type": "Feature"}, {"geometry": {"coordinates": [149.101807, -35.461296], "type": "Point"}, "properties": {"name": "Tom Roberts Av after John Russell Cct", "stop_I": "206"}, "id": "194", "type": "Feature"}, {"geometry": {"coordinates": [149.10498, -35.4622], "type": "Point"}, "properties": {"name": "Tom Roberts Av before Lethbridge St", "stop_I": "207"}, "id": "195", "type": "Feature"}, {"geometry": {"coordinates": [149.097977, -35.464855], "type": "Point"}, "properties": {"name": "Tom Roberts Av Conder Primary School", "stop_I": "208"}, "id": "196", "type": "Feature"}, {"geometry": {"coordinates": [149.093948, -35.464989], "type": "Point"}, "properties": {"name": "Pockett Av after Bastow Cct", "stop_I": "209"}, "id": "197", "type": "Feature"}, {"geometry": {"coordinates": [149.095276, -35.46759], "type": "Point"}, "properties": {"name": "Pockett Av after Tregellas Cr", "stop_I": "210"}, "id": "198", "type": "Feature"}, {"geometry": {"coordinates": [149.097656, -35.470394], "type": "Point"}, "properties": {"name": "Pockett Av 2nd after Brockway Cct", "stop_I": "211"}, "id": "199", "type": "Feature"}, {"geometry": {"coordinates": [149.095947, -35.472431], "type": "Point"}, "properties": {"name": "Pockett Av Banks Shops", "stop_I": "212"}, "id": "200", "type": "Feature"}, {"geometry": {"coordinates": [149.091736, -35.473495], "type": "Point"}, "properties": {"name": "Pockett Av after Tharwa Dr", "stop_I": "213"}, "id": "201", "type": "Feature"}, {"geometry": {"coordinates": [149.089447, -35.472851], "type": "Point"}, "properties": {"name": "Knoke Av after Coventry Cl", "stop_I": "214"}, "id": "202", "type": "Feature"}, {"geometry": {"coordinates": [149.088898, -35.470764], "type": "Point"}, "properties": {"name": "Knoke Av after Minnett Cl", "stop_I": "215"}, "id": "203", "type": "Feature"}, {"geometry": {"coordinates": [149.088791, -35.470875], "type": "Point"}, "properties": {"name": "Knoke Av 2nd after Harry Hopman Cct", "stop_I": "216"}, "id": "204", "type": "Feature"}, {"geometry": {"coordinates": [149.087677, -35.467175], "type": "Point"}, "properties": {"name": "Knoke Av after Matson St", "stop_I": "217"}, "id": "205", "type": "Feature"}, {"geometry": {"coordinates": [149.085587, -35.465672], "type": "Point"}, "properties": {"name": "Knoke Av after Travers St", "stop_I": "218"}, "id": "206", "type": "Feature"}, {"geometry": {"coordinates": [149.083649, -35.461983], "type": "Point"}, "properties": {"name": "Knoke Av after Cornforth St", "stop_I": "219"}, "id": "207", "type": "Feature"}, {"geometry": {"coordinates": [149.085724, -35.460663], "type": "Point"}, "properties": {"name": "Knoke Av after Midge St", "stop_I": "220"}, "id": "208", "type": "Feature"}, {"geometry": {"coordinates": [149.087341, -35.452995], "type": "Point"}, "properties": {"name": "Lewis Luxton Av after Woodcock Dr", "stop_I": "222"}, "id": "209", "type": "Feature"}, {"geometry": {"coordinates": [149.08934, -35.450897], "type": "Point"}, "properties": {"name": "Lewis Luxton Av after 2nd Cerutty Cr", "stop_I": "223"}, "id": "210", "type": "Feature"}, {"geometry": {"coordinates": [149.087143, -35.448734], "type": "Point"}, "properties": {"name": "Lewis Luxton Av after Mackney Pl", "stop_I": "224"}, "id": "211", "type": "Feature"}, {"geometry": {"coordinates": [149.084198, -35.448162], "type": "Point"}, "properties": {"name": "Preddy Wy after Lewis Luxton Av", "stop_I": "225"}, "id": "212", "type": "Feature"}, {"geometry": {"coordinates": [149.085449, -35.446545], "type": "Point"}, "properties": {"name": "Clare Dennis Av after Noel Ryan Gdn", "stop_I": "226"}, "id": "213", "type": "Feature"}, {"geometry": {"coordinates": [149.087173, -35.444641], "type": "Point"}, "properties": {"name": "Clare Dennis Av after 2nd Noel Ryan Gdn", "stop_I": "227"}, "id": "214", "type": "Feature"}, {"geometry": {"coordinates": [149.085846, -35.443119], "type": "Point"}, "properties": {"name": "Clare Dennis Av after Woodfull Lp", "stop_I": "228"}, "id": "215", "type": "Feature"}, {"geometry": {"coordinates": [149.082199, -35.428791], "type": "Point"}, "properties": {"name": "Barr Smith Av before Drakeford Dr", "stop_I": "229"}, "id": "216", "type": "Feature"}, {"geometry": {"coordinates": [149.082367, -35.428825], "type": "Point"}, "properties": {"name": "Barr Smith Av after Drakeford Dr", "stop_I": "230"}, "id": "217", "type": "Feature"}, {"geometry": {"coordinates": [149.052338, -35.340843], "type": "Point"}, "properties": {"name": "Brierly St Cooleman Ct Plt1", "stop_I": "231"}, "id": "218", "type": "Feature"}, {"geometry": {"coordinates": [149.050278, -35.340981], "type": "Point"}, "properties": {"name": "Streeton Dr before Hindmarsh Dr", "stop_I": "232"}, "id": "219", "type": "Feature"}, {"geometry": {"coordinates": [149.047089, -35.344681], "type": "Point"}, "properties": {"name": "Streeton Dr after Hindmarsh Dr", "stop_I": "233"}, "id": "220", "type": "Feature"}, {"geometry": {"coordinates": [149.047043, -35.344612], "type": "Point"}, "properties": {"name": "Streeton Dr South of Hindmarsh Dr", "stop_I": "234"}, "id": "221", "type": "Feature"}, {"geometry": {"coordinates": [149.046936, -35.346409], "type": "Point"}, "properties": {"name": "Fremantle Dr after Streeton Dr", "stop_I": "235"}, "id": "222", "type": "Feature"}, {"geometry": {"coordinates": [149.047043, -35.3466], "type": "Point"}, "properties": {"name": "Fremantle Dr before Streeton Dr", "stop_I": "236"}, "id": "223", "type": "Feature"}, {"geometry": {"coordinates": [149.04924, -35.348286], "type": "Point"}, "properties": {"name": "Fremantle Dr after 2nd McKail Cr", "stop_I": "237"}, "id": "224", "type": "Feature"}, {"geometry": {"coordinates": [149.048187, -35.347359], "type": "Point"}, "properties": {"name": "Fremantle Dr 3rd after Crowder Cct", "stop_I": "238"}, "id": "225", "type": "Feature"}, {"geometry": {"coordinates": [149.053757, -35.352146], "type": "Point"}, "properties": {"name": "Namatjira Dr opp St John Vianney", "stop_I": "241"}, "id": "226", "type": "Feature"}, {"geometry": {"coordinates": [149.050491, -35.355186], "type": "Point"}, "properties": {"name": "Namatjira Dr Northbound after Streeton Dr", "stop_I": "242"}, "id": "227", "type": "Feature"}, {"geometry": {"coordinates": [149.054153, -35.351921], "type": "Point"}, "properties": {"name": "Namatjira Dr St John Vianney", "stop_I": "243"}, "id": "228", "type": "Feature"}, {"geometry": {"coordinates": [149.10051, -35.46656], "type": "Point"}, "properties": {"name": "Tom Roberts before McLuckie Cr", "stop_I": "244"}, "id": "229", "type": "Feature"}, {"geometry": {"coordinates": [149.098663, -35.469933], "type": "Point"}, "properties": {"name": "Wiburd St before Pockett Av", "stop_I": "245"}, "id": "230", "type": "Feature"}, {"geometry": {"coordinates": [149.050797, -35.355114], "type": "Point"}, "properties": {"name": "Namatjira Dr after Badimara St", "stop_I": "246"}, "id": "231", "type": "Feature"}, {"geometry": {"coordinates": [149.047928, -35.358479], "type": "Point"}, "properties": {"name": "Namatjira Dr Southbound after Streeton Dr", "stop_I": "247"}, "id": "232", "type": "Feature"}, {"geometry": {"coordinates": [149.047806, -35.360592], "type": "Point"}, "properties": {"name": "Namatjira Dr before Kapunda St", "stop_I": "248"}, "id": "233", "type": "Feature"}, {"geometry": {"coordinates": [149.049713, -35.363483], "type": "Point"}, "properties": {"name": "Namatjira Dr after Kapunda St", "stop_I": "249"}, "id": "234", "type": "Feature"}, {"geometry": {"coordinates": [149.051514, -35.366089], "type": "Point"}, "properties": {"name": "Namatjira Dr 2nd after Kapunda St", "stop_I": "250"}, "id": "235", "type": "Feature"}, {"geometry": {"coordinates": [149.051361, -35.366009], "type": "Point"}, "properties": {"name": "Namatjira Dr 2nd before Drakeford Dr", "stop_I": "251"}, "id": "236", "type": "Feature"}, {"geometry": {"coordinates": [149.047882, -35.358208], "type": "Point"}, "properties": {"name": "Namatjira Dr after Perry Dr", "stop_I": "252"}, "id": "237", "type": "Feature"}, {"geometry": {"coordinates": [149.047653, -35.360443], "type": "Point"}, "properties": {"name": "Namatjira Dr after Kapunda St", "stop_I": "253"}, "id": "238", "type": "Feature"}, {"geometry": {"coordinates": [149.049606, -35.36356], "type": "Point"}, "properties": {"name": "Namatjira Dr 3rd from Drakeford Dr", "stop_I": "254"}, "id": "239", "type": "Feature"}, {"geometry": {"coordinates": [149.048965, -35.375137], "type": "Point"}, "properties": {"name": "Kambah Pool Rd after Namatjira Dr", "stop_I": "255"}, "id": "240", "type": "Feature"}, {"geometry": {"coordinates": [149.048615, -35.37534], "type": "Point"}, "properties": {"name": "Kambah Pool Rd after Barritt St", "stop_I": "256"}, "id": "241", "type": "Feature"}, {"geometry": {"coordinates": [149.04837, -35.377991], "type": "Point"}, "properties": {"name": "Barritt St after Kambah Pool Rd", "stop_I": "257"}, "id": "242", "type": "Feature"}, {"geometry": {"coordinates": [149.048294, -35.378094], "type": "Point"}, "properties": {"name": "Barritt St before Kambah Pool Rd", "stop_I": "258"}, "id": "243", "type": "Feature"}, {"geometry": {"coordinates": [149.051865, -35.380211], "type": "Point"}, "properties": {"name": "Barritt St after Bacchus Cct", "stop_I": "259"}, "id": "244", "type": "Feature"}, {"geometry": {"coordinates": [149.051193, -35.37986], "type": "Point"}, "properties": {"name": "Barritt St after Boddington Cr", "stop_I": "260"}, "id": "245", "type": "Feature"}, {"geometry": {"coordinates": [149.051773, -35.38121], "type": "Point"}, "properties": {"name": "Boddington Cr 2nd after Carleton St", "stop_I": "261"}, "id": "246", "type": "Feature"}, {"geometry": {"coordinates": [149.051147, -35.382092], "type": "Point"}, "properties": {"name": "Boddington Cr after Carleton St", "stop_I": "262"}, "id": "247", "type": "Feature"}, {"geometry": {"coordinates": [149.051285, -35.382088], "type": "Point"}, "properties": {"name": "Boddington Cr after Barritt St", "stop_I": "263"}, "id": "248", "type": "Feature"}, {"geometry": {"coordinates": [149.050568, -35.385033], "type": "Point"}, "properties": {"name": "Boddington Cr before Castley Cct", "stop_I": "264"}, "id": "249", "type": "Feature"}, {"geometry": {"coordinates": [149.050415, -35.385777], "type": "Point"}, "properties": {"name": "Boddington Cr after 2nd Crozier Cct", "stop_I": "265"}, "id": "250", "type": "Feature"}, {"geometry": {"coordinates": [149.051636, -35.389282], "type": "Point"}, "properties": {"name": "Boddington Cr after 2nd Castley Cct", "stop_I": "266"}, "id": "251", "type": "Feature"}, {"geometry": {"coordinates": [149.051361, -35.389191], "type": "Point"}, "properties": {"name": "Boddington Cr after Bateman St", "stop_I": "267"}, "id": "252", "type": "Feature"}, {"geometry": {"coordinates": [149.05365, -35.390041], "type": "Point"}, "properties": {"name": "Boddington Cr before McLeod Pl", "stop_I": "268"}, "id": "253", "type": "Feature"}, {"geometry": {"coordinates": [149.056656, -35.389198], "type": "Point"}, "properties": {"name": "Boddington Cr before O'Halloran Cct", "stop_I": "269"}, "id": "254", "type": "Feature"}, {"geometry": {"coordinates": [149.053802, -35.390316], "type": "Point"}, "properties": {"name": "Boddington Cr after McLeod Pl", "stop_I": "270"}, "id": "255", "type": "Feature"}, {"geometry": {"coordinates": [149.057159, -35.389393], "type": "Point"}, "properties": {"name": "Boddington Cr after O'Halloran Cct", "stop_I": "271"}, "id": "256", "type": "Feature"}, {"geometry": {"coordinates": [149.059036, -35.390377], "type": "Point"}, "properties": {"name": "O'Halloran Cct after Springbett St", "stop_I": "272"}, "id": "257", "type": "Feature"}, {"geometry": {"coordinates": [149.058853, -35.390362], "type": "Point"}, "properties": {"name": "O'Halloran Cct after 2nd McKillop Cct", "stop_I": "273"}, "id": "258", "type": "Feature"}, {"geometry": {"coordinates": [149.058197, -35.39291], "type": "Point"}, "properties": {"name": "O'Halloran Cct after 2nd Springbett St", "stop_I": "274"}, "id": "259", "type": "Feature"}, {"geometry": {"coordinates": [149.058014, -35.39312], "type": "Point"}, "properties": {"name": "O'Halloran Cct after 1st McKillop Cct", "stop_I": "275"}, "id": "260", "type": "Feature"}, {"geometry": {"coordinates": [149.05925, -35.395622], "type": "Point"}, "properties": {"name": "O'Halloran Cct before Snodgrass Cr", "stop_I": "276"}, "id": "261", "type": "Feature"}, {"geometry": {"coordinates": [149.05928, -35.395813], "type": "Point"}, "properties": {"name": "O'Halloran Cct 2nd after Vansittart Cr", "stop_I": "277"}, "id": "262", "type": "Feature"}, {"geometry": {"coordinates": [149.062881, -35.39579], "type": "Point"}, "properties": {"name": "O'Halloran Cct after Snodgrass Cr", "stop_I": "278"}, "id": "263", "type": "Feature"}, {"geometry": {"coordinates": [149.062897, -35.39592], "type": "Point"}, "properties": {"name": "O'Halloran Cct after Vansittart Cr", "stop_I": "279"}, "id": "264", "type": "Feature"}, {"geometry": {"coordinates": [149.065918, -35.3941], "type": "Point"}, "properties": {"name": "O'Halloran Cct after 2nd Jenke Cct", "stop_I": "280"}, "id": "265", "type": "Feature"}, {"geometry": {"coordinates": [149.065796, -35.39397], "type": "Point"}, "properties": {"name": "O'Halloran Cct after 2nd Snodgrass Cr", "stop_I": "281"}, "id": "266", "type": "Feature"}, {"geometry": {"coordinates": [149.067673, -35.393074], "type": "Point"}, "properties": {"name": "O'Halloran Cct opp. Namadgi School", "stop_I": "282"}, "id": "267", "type": "Feature"}, {"geometry": {"coordinates": [149.066025, -35.414871], "type": "Point"}, "properties": {"name": "Tuggeranong Stn Arrivals", "stop_I": "283"}, "id": "268", "type": "Feature"}, {"geometry": {"coordinates": [149.068207, -35.392578], "type": "Point"}, "properties": {"name": "O'Halloran Cct Namadgi School Kambah", "stop_I": "284"}, "id": "269", "type": "Feature"}, {"geometry": {"coordinates": [149.071579, -35.391098], "type": "Point"}, "properties": {"name": "Summerland Cct after Vanzetti Cr", "stop_I": "285"}, "id": "270", "type": "Feature"}, {"geometry": {"coordinates": [149.071503, -35.39098], "type": "Point"}, "properties": {"name": "Summerland Cct before Kingsmill St", "stop_I": "286"}, "id": "271", "type": "Feature"}, {"geometry": {"coordinates": [149.073547, -35.39003], "type": "Point"}, "properties": {"name": "Summerland Cct after Kingsmill St", "stop_I": "287"}, "id": "272", "type": "Feature"}, {"geometry": {"coordinates": [149.073486, -35.390171], "type": "Point"}, "properties": {"name": "Summerland Cct after Livingston Av", "stop_I": "288"}, "id": "273", "type": "Feature"}, {"geometry": {"coordinates": [149.079208, -35.389587], "type": "Point"}, "properties": {"name": "Livingston Av after Cutbush St", "stop_I": "291"}, "id": "274", "type": "Feature"}, {"geometry": {"coordinates": [149.079285, -35.389343], "type": "Point"}, "properties": {"name": "Livingston Av after Shops", "stop_I": "292"}, "id": "275", "type": "Feature"}, {"geometry": {"coordinates": [149.081116, -35.388111], "type": "Point"}, "properties": {"name": "Livingston Av after Maxworthy St", "stop_I": "293"}, "id": "276", "type": "Feature"}, {"geometry": {"coordinates": [149.081268, -35.38797], "type": "Point"}, "properties": {"name": "Livingston Av before Maxworthy St", "stop_I": "294"}, "id": "277", "type": "Feature"}, {"geometry": {"coordinates": [149.083832, -35.387684], "type": "Point"}, "properties": {"name": "Livingston Av after Symers St", "stop_I": "295"}, "id": "278", "type": "Feature"}, {"geometry": {"coordinates": [149.084122, -35.387806], "type": "Point"}, "properties": {"name": "Livingston Av after Atkins St", "stop_I": "296"}, "id": "279", "type": "Feature"}, {"geometry": {"coordinates": [149.085724, -35.388237], "type": "Point"}, "properties": {"name": "Atkins St after Athllon Dr", "stop_I": "297"}, "id": "280", "type": "Feature"}, {"geometry": {"coordinates": [149.085892, -35.388206], "type": "Point"}, "properties": {"name": "Atkins St after Livingston Av", "stop_I": "298"}, "id": "281", "type": "Feature"}, {"geometry": {"coordinates": [149.08667, -35.392429], "type": "Point"}, "properties": {"name": "Garratt St opp Wanniassa Shops", "stop_I": "299"}, "id": "282", "type": "Feature"}, {"geometry": {"coordinates": [149.086533, -35.392551], "type": "Point"}, "properties": {"name": "Garratt St Wanniassa Shops", "stop_I": "300"}, "id": "283", "type": "Feature"}, {"geometry": {"coordinates": [149.078903, -35.39616], "type": "Point"}, "properties": {"name": "Fincham Cr after Morrissey St", "stop_I": "305"}, "id": "284", "type": "Feature"}, {"geometry": {"coordinates": [149.079132, -35.396301], "type": "Point"}, "properties": {"name": "Fincham Cr after Wheeler Cr", "stop_I": "306"}, "id": "285", "type": "Feature"}, {"geometry": {"coordinates": [149.080307, -35.398613], "type": "Point"}, "properties": {"name": "Fincham Cr 2nd after Wheeler Cr", "stop_I": "307"}, "id": "286", "type": "Feature"}, {"geometry": {"coordinates": [149.080521, -35.398903], "type": "Point"}, "properties": {"name": "Fincham Cr after DeGraves Cr", "stop_I": "308"}, "id": "287", "type": "Feature"}, {"geometry": {"coordinates": [149.081268, -35.401054], "type": "Point"}, "properties": {"name": "Forlonge St after Fincham Cr", "stop_I": "309"}, "id": "288", "type": "Feature"}, {"geometry": {"coordinates": [149.080933, -35.401413], "type": "Point"}, "properties": {"name": "Forlonge St after Wheeler Cr", "stop_I": "310"}, "id": "289", "type": "Feature"}, {"geometry": {"coordinates": [149.081818, -35.404076], "type": "Point"}, "properties": {"name": "Wheeler Cr after Annand Pl", "stop_I": "311"}, "id": "290", "type": "Feature"}, {"geometry": {"coordinates": [149.081787, -35.403996], "type": "Point"}, "properties": {"name": "Wheeler Cr after Derham Cct", "stop_I": "312"}, "id": "291", "type": "Feature"}, {"geometry": {"coordinates": [149.084915, -35.404007], "type": "Point"}, "properties": {"name": "Wheeler Cr after Riddell Ct", "stop_I": "313"}, "id": "292", "type": "Feature"}, {"geometry": {"coordinates": [149.084351, -35.404175], "type": "Point"}, "properties": {"name": "Wheeler Cr after Curtain Pl", "stop_I": "314"}, "id": "293", "type": "Feature"}, {"geometry": {"coordinates": [149.088928, -35.403706], "type": "Point"}, "properties": {"name": "Sternberg Cr after Mackinnon St", "stop_I": "315"}, "id": "294", "type": "Feature"}, {"geometry": {"coordinates": [149.088531, -35.403545], "type": "Point"}, "properties": {"name": "Sternberg Cr after Sitwell St", "stop_I": "316"}, "id": "295", "type": "Feature"}, {"geometry": {"coordinates": [149.092804, -35.402386], "type": "Point"}, "properties": {"name": "Sternberg Cr back of MacKillop CLG", "stop_I": "317"}, "id": "296", "type": "Feature"}, {"geometry": {"coordinates": [149.094986, -35.401199], "type": "Point"}, "properties": {"name": "Sternberg Cr before Wynne St", "stop_I": "318"}, "id": "297", "type": "Feature"}, {"geometry": {"coordinates": [149.092728, -35.402351], "type": "Point"}, "properties": {"name": "Sternberg Cr after Wheeler Cr", "stop_I": "319"}, "id": "298", "type": "Feature"}, {"geometry": {"coordinates": [149.0952, -35.401035], "type": "Point"}, "properties": {"name": "Sternberg Cr after Whiteman St", "stop_I": "320"}, "id": "299", "type": "Feature"}, {"geometry": {"coordinates": [149.098862, -35.401527], "type": "Point"}, "properties": {"name": "Sternberg Cr after Langdon Av", "stop_I": "321"}, "id": "300", "type": "Feature"}, {"geometry": {"coordinates": [149.097214, -35.40147], "type": "Point"}, "properties": {"name": "Sternberg Cr Erindale Centre", "stop_I": "322"}, "id": "301", "type": "Feature"}, {"geometry": {"coordinates": [149.056198, -35.377342], "type": "Point"}, "properties": {"name": "Drakeford Dr after Boddington Cr", "stop_I": "323"}, "id": "302", "type": "Feature"}, {"geometry": {"coordinates": [149.056534, -35.377331], "type": "Point"}, "properties": {"name": "Drakeford Dr after Sulwood Dr", "stop_I": "324"}, "id": "303", "type": "Feature"}, {"geometry": {"coordinates": [149.057632, -35.378929], "type": "Point"}, "properties": {"name": "Marconi Cr opp Kambah Village", "stop_I": "325"}, "id": "304", "type": "Feature"}, {"geometry": {"coordinates": [149.05777, -35.379135], "type": "Point"}, "properties": {"name": "Marconi Cr Kambah Village", "stop_I": "326"}, "id": "305", "type": "Feature"}, {"geometry": {"coordinates": [149.060638, -35.377834], "type": "Point"}, "properties": {"name": "Marconi Cr after Harrington Cct", "stop_I": "327"}, "id": "306", "type": "Feature"}, {"geometry": {"coordinates": [149.060104, -35.378265], "type": "Point"}, "properties": {"name": "Marconi Cr after Wyselaskie Cct", "stop_I": "328"}, "id": "307", "type": "Feature"}, {"geometry": {"coordinates": [149.064026, -35.377613], "type": "Point"}, "properties": {"name": "Marconi Cr opp Taylor PS after Sinclair St", "stop_I": "329"}, "id": "308", "type": "Feature"}, {"geometry": {"coordinates": [149.064056, -35.377739], "type": "Point"}, "properties": {"name": "Marconi Cr Taylor PS", "stop_I": "330"}, "id": "309", "type": "Feature"}, {"geometry": {"coordinates": [149.065353, -35.378685], "type": "Point"}, "properties": {"name": "Marconi Cr Taylor PS", "stop_I": "331"}, "id": "310", "type": "Feature"}, {"geometry": {"coordinates": [149.065491, -35.378727], "type": "Point"}, "properties": {"name": "Marconi Cr opp Taylor PS", "stop_I": "332"}, "id": "311", "type": "Feature"}, {"geometry": {"coordinates": [149.065308, -35.381702], "type": "Point"}, "properties": {"name": "Marconi Cr after Lascelles Cct", "stop_I": "333"}, "id": "312", "type": "Feature"}, {"geometry": {"coordinates": [149.065582, -35.381401], "type": "Point"}, "properties": {"name": "Marconi Cr after Hutchison Cr", "stop_I": "334"}, "id": "313", "type": "Feature"}, {"geometry": {"coordinates": [149.067474, -35.383373], "type": "Point"}, "properties": {"name": "Summerland Cct after Marconi Cr", "stop_I": "335"}, "id": "314", "type": "Feature"}, {"geometry": {"coordinates": [149.06749, -35.383465], "type": "Point"}, "properties": {"name": "Summerland Cct after Gallagher St", "stop_I": "336"}, "id": "315", "type": "Feature"}, {"geometry": {"coordinates": [149.070892, -35.384914], "type": "Point"}, "properties": {"name": "Summerland Cct after Hutchison Cr", "stop_I": "337"}, "id": "316", "type": "Feature"}, {"geometry": {"coordinates": [149.071136, -35.385021], "type": "Point"}, "properties": {"name": "Summerland Cct 2nd after Mason St", "stop_I": "338"}, "id": "317", "type": "Feature"}, {"geometry": {"coordinates": [149.075043, -35.387623], "type": "Point"}, "properties": {"name": "Summerland Cct after Lee Steere Cr", "stop_I": "339"}, "id": "318", "type": "Feature"}, {"geometry": {"coordinates": [149.074921, -35.387516], "type": "Point"}, "properties": {"name": "Summerland Cct after 2nd Kingsmill St", "stop_I": "340"}, "id": "319", "type": "Feature"}, {"geometry": {"coordinates": [149.089645, -35.39241], "type": "Point"}, "properties": {"name": "Langdon Av after Dyer Pl", "stop_I": "341"}, "id": "320", "type": "Feature"}, {"geometry": {"coordinates": [149.089325, -35.392319], "type": "Point"}, "properties": {"name": "Langdon Av after Garrett St", "stop_I": "342"}, "id": "321", "type": "Feature"}, {"geometry": {"coordinates": [149.093018, -35.392567], "type": "Point"}, "properties": {"name": "Langdon Av after Shackell Pl", "stop_I": "343"}, "id": "322", "type": "Feature"}, {"geometry": {"coordinates": [149.093689, -35.392174], "type": "Point"}, "properties": {"name": "Langdon Av after Sainsbury St", "stop_I": "344"}, "id": "323", "type": "Feature"}, {"geometry": {"coordinates": [149.095779, -35.392151], "type": "Point"}, "properties": {"name": "Langdon Av Wanniassa Hills PS", "stop_I": "345"}, "id": "324", "type": "Feature"}, {"geometry": {"coordinates": [149.096558, -35.392879], "type": "Point"}, "properties": {"name": "Langdon Av opp Wanniassa Hills PS", "stop_I": "346"}, "id": "325", "type": "Feature"}, {"geometry": {"coordinates": [149.09639, -35.396343], "type": "Point"}, "properties": {"name": "Langdon Av after Gaunson Cr", "stop_I": "347"}, "id": "326", "type": "Feature"}, {"geometry": {"coordinates": [149.096237, -35.396095], "type": "Point"}, "properties": {"name": "Langdon Av after Kirkton St", "stop_I": "348"}, "id": "327", "type": "Feature"}, {"geometry": {"coordinates": [149.097412, -35.397873], "type": "Point"}, "properties": {"name": "Langdon Av after Brunton St", "stop_I": "349"}, "id": "328", "type": "Feature"}, {"geometry": {"coordinates": [149.097412, -35.397755], "type": "Point"}, "properties": {"name": "Langdon Av 2nd after Gaunson Cr", "stop_I": "350"}, "id": "329", "type": "Feature"}, {"geometry": {"coordinates": [149.097397, -35.400372], "type": "Point"}, "properties": {"name": "Langdon Av after Sternberg Cr", "stop_I": "351"}, "id": "330", "type": "Feature"}, {"geometry": {"coordinates": [149.097733, -35.400017], "type": "Point"}, "properties": {"name": "Langdon Av after Longmore Cr", "stop_I": "352"}, "id": "331", "type": "Feature"}, {"geometry": {"coordinates": [149.074417, -35.402576], "type": "Point"}, "properties": {"name": "Drakeford Dr after Mortimer Lewis Dr", "stop_I": "353"}, "id": "332", "type": "Feature"}, {"geometry": {"coordinates": [149.07457, -35.40123], "type": "Point"}, "properties": {"name": "Drakeford Dr before Taverner St", "stop_I": "354"}, "id": "333", "type": "Feature"}, {"geometry": {"coordinates": [149.073532, -35.408028], "type": "Point"}, "properties": {"name": "Drakeford Dr after Taverner St", "stop_I": "355"}, "id": "334", "type": "Feature"}, {"geometry": {"coordinates": [149.073074, -35.408348], "type": "Point"}, "properties": {"name": "Drakeford Dr after Erindale Dr", "stop_I": "356"}, "id": "335", "type": "Feature"}, {"geometry": {"coordinates": [149.064407, -35.418159], "type": "Point"}, "properties": {"name": "Athllon Dr after Pitman St", "stop_I": "357"}, "id": "336", "type": "Feature"}, {"geometry": {"coordinates": [149.08783, -35.348743], "type": "Point"}, "properties": {"name": "Hindmarsh Dr after Ball St", "stop_I": "358"}, "id": "337", "type": "Feature"}, {"geometry": {"coordinates": [149.097443, -35.38707], "type": "Point"}, "properties": {"name": "Sainsbury St before Sullwood Dr", "stop_I": "359"}, "id": "338", "type": "Feature"}, {"geometry": {"coordinates": [149.09761, -35.387173], "type": "Point"}, "properties": {"name": "Sainsbury St after Sulwood Dr", "stop_I": "360"}, "id": "339", "type": "Feature"}, {"geometry": {"coordinates": [149.096085, -35.387157], "type": "Point"}, "properties": {"name": "Longmore Cr after Toohey Pl", "stop_I": "361"}, "id": "340", "type": "Feature"}, {"geometry": {"coordinates": [149.096298, -35.387341], "type": "Point"}, "properties": {"name": "Longmore Cr after Bosisto Pl", "stop_I": "362"}, "id": "341", "type": "Feature"}, {"geometry": {"coordinates": [149.093674, -35.387634], "type": "Point"}, "properties": {"name": "Longmore Cr after Methven Pl", "stop_I": "363"}, "id": "342", "type": "Feature"}, {"geometry": {"coordinates": [149.093521, -35.387848], "type": "Point"}, "properties": {"name": "Longmore Cr 2nd after Sainsbury St", "stop_I": "364"}, "id": "343", "type": "Feature"}, {"geometry": {"coordinates": [149.091156, -35.389038], "type": "Point"}, "properties": {"name": "Longmore Cr after Wilkie Pl", "stop_I": "365"}, "id": "344", "type": "Feature"}, {"geometry": {"coordinates": [149.09079, -35.389168], "type": "Point"}, "properties": {"name": "Longmore Cr after Strachan Pl", "stop_I": "366"}, "id": "345", "type": "Feature"}, {"geometry": {"coordinates": [149.087982, -35.389771], "type": "Point"}, "properties": {"name": "Longmore Cr after Lobb Pl", "stop_I": "367"}, "id": "346", "type": "Feature"}, {"geometry": {"coordinates": [149.088104, -35.38961], "type": "Point"}, "properties": {"name": "Longmore Cr after Langdon Av", "stop_I": "368"}, "id": "347", "type": "Feature"}, {"geometry": {"coordinates": [149.078705, -35.391071], "type": "Point"}, "properties": {"name": "Vosper St after Livingston Av", "stop_I": "369"}, "id": "348", "type": "Feature"}, {"geometry": {"coordinates": [149.078506, -35.391132], "type": "Point"}, "properties": {"name": "Vosper St after Athllon Dr", "stop_I": "370"}, "id": "349", "type": "Feature"}, {"geometry": {"coordinates": [149.081741, -35.411888], "type": "Point"}, "properties": {"name": "Newman-Morris Cct after McIlveen Pl", "stop_I": "371"}, "id": "350", "type": "Feature"}, {"geometry": {"coordinates": [149.081741, -35.411785], "type": "Point"}, "properties": {"name": "Newman-Morris Cct after 2nd Cuthbertson Cr", "stop_I": "372"}, "id": "351", "type": "Feature"}, {"geometry": {"coordinates": [149.083603, -35.410217], "type": "Point"}, "properties": {"name": "Newman-Morris Cct after Raphael Cl", "stop_I": "373"}, "id": "352", "type": "Feature"}, {"geometry": {"coordinates": [149.082947, -35.409718], "type": "Point"}, "properties": {"name": "Newman-Morris Cct after 2nd Nunan Cr", "stop_I": "374"}, "id": "353", "type": "Feature"}, {"geometry": {"coordinates": [149.082199, -35.408348], "type": "Point"}, "properties": {"name": "Newman-Morris Cct after Farrelly Cl", "stop_I": "375"}, "id": "354", "type": "Feature"}, {"geometry": {"coordinates": [149.081192, -35.407307], "type": "Point"}, "properties": {"name": "Newman-Morris Cct after Clutterbuck Cr", "stop_I": "376"}, "id": "355", "type": "Feature"}, {"geometry": {"coordinates": [149.079575, -35.406723], "type": "Point"}, "properties": {"name": "Newman-Morris Cct 2nd before Farrelly Cl", "stop_I": "377"}, "id": "356", "type": "Feature"}, {"geometry": {"coordinates": [149.077591, -35.406841], "type": "Point"}, "properties": {"name": "Newman-Morris Cct after 2nd Clutterbuck Cr", "stop_I": "378"}, "id": "357", "type": "Feature"}, {"geometry": {"coordinates": [149.07753, -35.406719], "type": "Point"}, "properties": {"name": "Newman-Morris Cct after Forlonge St", "stop_I": "379"}, "id": "358", "type": "Feature"}, {"geometry": {"coordinates": [149.075668, -35.407463], "type": "Point"}, "properties": {"name": "Newman-Morris Cct 2nd after Taverner St", "stop_I": "380"}, "id": "359", "type": "Feature"}, {"geometry": {"coordinates": [149.075684, -35.407219], "type": "Point"}, "properties": {"name": "Newman-Morris Cct after 2nd Singleton Cr", "stop_I": "381"}, "id": "360", "type": "Feature"}, {"geometry": {"coordinates": [149.075058, -35.410851], "type": "Point"}, "properties": {"name": "Newman-Morris Cct after Dalgarno Cl", "stop_I": "382"}, "id": "361", "type": "Feature"}, {"geometry": {"coordinates": [149.075165, -35.410988], "type": "Point"}, "properties": {"name": "Newman-Morris Cct before Cuthbertson Cr", "stop_I": "383"}, "id": "362", "type": "Feature"}, {"geometry": {"coordinates": [149.076065, -35.413456], "type": "Point"}, "properties": {"name": "Newman-Morris Cct after Collocott Cr", "stop_I": "384"}, "id": "363", "type": "Feature"}, {"geometry": {"coordinates": [149.07634, -35.413536], "type": "Point"}, "properties": {"name": "Newman-Morris Cct 3rd before Cuthbertson Cr", "stop_I": "385"}, "id": "364", "type": "Feature"}, {"geometry": {"coordinates": [149.079376, -35.412838], "type": "Point"}, "properties": {"name": "Newman-Morris Cct after Cuthbertson Cr", "stop_I": "386"}, "id": "365", "type": "Feature"}, {"geometry": {"coordinates": [149.078629, -35.413296], "type": "Point"}, "properties": {"name": "Newman-Morris Cct after Maconochie Cr", "stop_I": "387"}, "id": "366", "type": "Feature"}, {"geometry": {"coordinates": [149.063187, -35.412151], "type": "Point"}, "properties": {"name": "Anketell St Tuggeranong Pool", "stop_I": "388"}, "id": "367", "type": "Feature"}, {"geometry": {"coordinates": [149.060867, -35.40197], "type": "Point"}, "properties": {"name": "Learmonth Dr after Vansittart Cr", "stop_I": "389"}, "id": "368", "type": "Feature"}, {"geometry": {"coordinates": [149.060776, -35.402084], "type": "Point"}, "properties": {"name": "Learmonth Dr 2nd after Athllon Dr", "stop_I": "390"}, "id": "369", "type": "Feature"}, {"geometry": {"coordinates": [149.062607, -35.400154], "type": "Point"}, "properties": {"name": "Vansittart Cr after Stieglitz Cct", "stop_I": "391"}, "id": "370", "type": "Feature"}, {"geometry": {"coordinates": [149.062469, -35.400089], "type": "Point"}, "properties": {"name": "Vansittart Cr after Ragless Cct", "stop_I": "392"}, "id": "371", "type": "Feature"}, {"geometry": {"coordinates": [149.063354, -35.403179], "type": "Point"}, "properties": {"name": "Learmonth Dr after Athllon Dr", "stop_I": "393"}, "id": "372", "type": "Feature"}, {"geometry": {"coordinates": [149.063522, -35.403084], "type": "Point"}, "properties": {"name": "Learmonth Dr 2nd after Vansittart Cr", "stop_I": "394"}, "id": "373", "type": "Feature"}, {"geometry": {"coordinates": [149.064056, -35.397224], "type": "Point"}, "properties": {"name": "Vansittart Cr after 2nd Ragless Cct", "stop_I": "395"}, "id": "374", "type": "Feature"}, {"geometry": {"coordinates": [149.064255, -35.397461], "type": "Point"}, "properties": {"name": "Vansittart Cr after O'Halloran Cr", "stop_I": "396"}, "id": "375", "type": "Feature"}, {"geometry": {"coordinates": [149.056885, -35.373047], "type": "Point"}, "properties": {"name": "Tuggeranong Pky after Sulwood Dr", "stop_I": "397"}, "id": "376", "type": "Feature"}, {"geometry": {"coordinates": [149.057404, -35.372604], "type": "Point"}, "properties": {"name": "Tuggeranong Pky before Sulwood Dr", "stop_I": "398"}, "id": "377", "type": "Feature"}, {"geometry": {"coordinates": [149.100693, -35.410717], "type": "Point"}, "properties": {"name": "Clive Steele Av before Priddle St", "stop_I": "403"}, "id": "378", "type": "Feature"}, {"geometry": {"coordinates": [149.100723, -35.410892], "type": "Point"}, "properties": {"name": "Clive Steele Av after Ashley Dr", "stop_I": "404"}, "id": "379", "type": "Feature"}, {"geometry": {"coordinates": [149.100021, -35.412361], "type": "Point"}, "properties": {"name": "Clive Steele Av after Brain St", "stop_I": "405"}, "id": "380", "type": "Feature"}, {"geometry": {"coordinates": [149.099365, -35.412884], "type": "Point"}, "properties": {"name": "Clive Steele Av between Brain St", "stop_I": "406"}, "id": "381", "type": "Feature"}, {"geometry": {"coordinates": [149.097046, -35.414112], "type": "Point"}, "properties": {"name": "Clive Steele Av after Fraenkel St", "stop_I": "407"}, "id": "382", "type": "Feature"}, {"geometry": {"coordinates": [149.096741, -35.41444], "type": "Point"}, "properties": {"name": "Clive Steele Av after Coode St", "stop_I": "408"}, "id": "383", "type": "Feature"}, {"geometry": {"coordinates": [149.098236, -35.417061], "type": "Point"}, "properties": {"name": "Cockcroft Av after Barraclough Cr", "stop_I": "409"}, "id": "384", "type": "Feature"}, {"geometry": {"coordinates": [149.098206, -35.41674], "type": "Point"}, "properties": {"name": "Cockcroft Av before Barraclough Cr", "stop_I": "410"}, "id": "385", "type": "Feature"}, {"geometry": {"coordinates": [149.097305, -35.419884], "type": "Point"}, "properties": {"name": "Cockcroft Av before Kneeshaw St", "stop_I": "411"}, "id": "386", "type": "Feature"}, {"geometry": {"coordinates": [149.097046, -35.41975], "type": "Point"}, "properties": {"name": "Cockcroft Av after Isabella Dr", "stop_I": "412"}, "id": "387", "type": "Feature"}, {"geometry": {"coordinates": [149.079178, -35.416283], "type": "Point"}, "properties": {"name": "Charleston St after William Hudson Cr", "stop_I": "413"}, "id": "388", "type": "Feature"}, {"geometry": {"coordinates": [149.079361, -35.416264], "type": "Point"}, "properties": {"name": "Charleston St after Blakey Cl", "stop_I": "414"}, "id": "389", "type": "Feature"}, {"geometry": {"coordinates": [149.082443, -35.418194], "type": "Point"}, "properties": {"name": "Charleston St after Clive Steele Av", "stop_I": "415"}, "id": "390", "type": "Feature"}, {"geometry": {"coordinates": [149.082413, -35.418091], "type": "Point"}, "properties": {"name": "Charleston St after Hallstrom Cct", "stop_I": "416"}, "id": "391", "type": "Feature"}, {"geometry": {"coordinates": [149.086212, -35.416676], "type": "Point"}, "properties": {"name": "Clive Steele Av after Charleston St", "stop_I": "417"}, "id": "392", "type": "Feature"}, {"geometry": {"coordinates": [149.086533, -35.416611], "type": "Point"}, "properties": {"name": "Clive Steele Av after Harkness St", "stop_I": "418"}, "id": "393", "type": "Feature"}, {"geometry": {"coordinates": [149.088013, -35.416241], "type": "Point"}, "properties": {"name": "Clive Steele Av after Balsillie Cr", "stop_I": "419"}, "id": "394", "type": "Feature"}, {"geometry": {"coordinates": [149.088364, -35.416298], "type": "Point"}, "properties": {"name": "Clive Steele Av before Harkness St", "stop_I": "420"}, "id": "395", "type": "Feature"}, {"geometry": {"coordinates": [149.089569, -35.41534], "type": "Point"}, "properties": {"name": "Corlette Cr Monash Primary", "stop_I": "421"}, "id": "396", "type": "Feature"}, {"geometry": {"coordinates": [149.08757, -35.414165], "type": "Point"}, "properties": {"name": "Corlette Cr after Hebblewhite St", "stop_I": "422"}, "id": "397", "type": "Feature"}, {"geometry": {"coordinates": [149.11998, -35.418907], "type": "Point"}, "properties": {"name": "Hambidge Cr after Goldstein Cr", "stop_I": "423"}, "id": "398", "type": "Feature"}, {"geometry": {"coordinates": [149.088974, -35.414787], "type": "Point"}, "properties": {"name": "Corlette Cr opp Monash Primary", "stop_I": "424"}, "id": "399", "type": "Feature"}, {"geometry": {"coordinates": [149.087265, -35.41423], "type": "Point"}, "properties": {"name": "Corlette Cr before Hebblewhite St", "stop_I": "425"}, "id": "400", "type": "Feature"}, {"geometry": {"coordinates": [149.087662, -35.411987], "type": "Point"}, "properties": {"name": "Hebblewhite St after Forwood St", "stop_I": "426"}, "id": "401", "type": "Feature"}, {"geometry": {"coordinates": [149.087402, -35.412098], "type": "Point"}, "properties": {"name": "Hebblewhite St after Twine Pl", "stop_I": "427"}, "id": "402", "type": "Feature"}, {"geometry": {"coordinates": [149.091171, -35.410713], "type": "Point"}, "properties": {"name": "Harricks Cr after Michell St", "stop_I": "428"}, "id": "403", "type": "Feature"}, {"geometry": {"coordinates": [149.090881, -35.410767], "type": "Point"}, "properties": {"name": "Harricks Cr after Beirne St", "stop_I": "429"}, "id": "404", "type": "Feature"}, {"geometry": {"coordinates": [149.092682, -35.408806], "type": "Point"}, "properties": {"name": "Harricks Cr after Cracknell St", "stop_I": "430"}, "id": "405", "type": "Feature"}, {"geometry": {"coordinates": [149.092453, -35.408936], "type": "Point"}, "properties": {"name": "Harricks Cr 2nd after Beirne St", "stop_I": "431"}, "id": "406", "type": "Feature"}, {"geometry": {"coordinates": [149.091782, -35.402336], "type": "Point"}, "properties": {"name": "Wheeler Cr after Sternberg Cr", "stop_I": "434"}, "id": "407", "type": "Feature"}, {"geometry": {"coordinates": [149.089233, -35.400528], "type": "Point"}, "properties": {"name": "Wheeler Cr after Keys Cr", "stop_I": "435"}, "id": "408", "type": "Feature"}, {"geometry": {"coordinates": [149.091797, -35.402092], "type": "Point"}, "properties": {"name": "Wheeler Cr before Sternberg Cr", "stop_I": "436"}, "id": "409", "type": "Feature"}, {"geometry": {"coordinates": [149.089294, -35.40041], "type": "Point"}, "properties": {"name": "Wheeler Cr after Halfrey Cct", "stop_I": "437"}, "id": "410", "type": "Feature"}, {"geometry": {"coordinates": [149.088379, -35.398151], "type": "Point"}, "properties": {"name": "Wheeler Cr after Guthridge Cr", "stop_I": "438"}, "id": "411", "type": "Feature"}, {"geometry": {"coordinates": [149.088486, -35.398117], "type": "Point"}, "properties": {"name": "Wheeler Cr after Kirkton St", "stop_I": "439"}, "id": "412", "type": "Feature"}, {"geometry": {"coordinates": [149.086685, -35.394802], "type": "Point"}, "properties": {"name": "Wheeler Cr Wanniassa HS", "stop_I": "440"}, "id": "413", "type": "Feature"}, {"geometry": {"coordinates": [149.086594, -35.394653], "type": "Point"}, "properties": {"name": "Wheeler Cr after Garratt St", "stop_I": "441"}, "id": "414", "type": "Feature"}, {"geometry": {"coordinates": [149.097977, -35.388088], "type": "Point"}, "properties": {"name": "Longmore Cr after Sainsbury St", "stop_I": "446"}, "id": "415", "type": "Feature"}, {"geometry": {"coordinates": [149.098297, -35.388493], "type": "Point"}, "properties": {"name": "Longmore Cr North of Gaunson Cr", "stop_I": "447"}, "id": "416", "type": "Feature"}, {"geometry": {"coordinates": [149.104019, -35.42474], "type": "Point"}, "properties": {"name": "Clift Cr after Ashley Dr", "stop_I": "448"}, "id": "417", "type": "Feature"}, {"geometry": {"coordinates": [149.10405, -35.424896], "type": "Point"}, "properties": {"name": "Clift Cr 3rd after Rohan St", "stop_I": "449"}, "id": "418", "type": "Feature"}, {"geometry": {"coordinates": [149.107056, -35.426281], "type": "Point"}, "properties": {"name": "Clift Cr after Kiddle Cr", "stop_I": "450"}, "id": "419", "type": "Feature"}, {"geometry": {"coordinates": [149.10704, -35.426373], "type": "Point"}, "properties": {"name": "Clift Cr 2nd after Rohan St", "stop_I": "451"}, "id": "420", "type": "Feature"}, {"geometry": {"coordinates": [149.109589, -35.427563], "type": "Point"}, "properties": {"name": "Clift Cr 2nd after Kiddle Cr", "stop_I": "452"}, "id": "421", "type": "Feature"}, {"geometry": {"coordinates": [149.109787, -35.427624], "type": "Point"}, "properties": {"name": "Clift Cr after Rohan St", "stop_I": "453"}, "id": "422", "type": "Feature"}, {"geometry": {"coordinates": [149.112289, -35.426281], "type": "Point"}, "properties": {"name": "Clift Cr before Heagney Cr", "stop_I": "454"}, "id": "423", "type": "Feature"}, {"geometry": {"coordinates": [149.112473, -35.426308], "type": "Point"}, "properties": {"name": "Clift Cr after Heagney Cr", "stop_I": "455"}, "id": "424", "type": "Feature"}, {"geometry": {"coordinates": [149.114075, -35.425385], "type": "Point"}, "properties": {"name": "Heagney Cr after Clift Cr", "stop_I": "456"}, "id": "425", "type": "Feature"}, {"geometry": {"coordinates": [149.114288, -35.42524], "type": "Point"}, "properties": {"name": "Heagney Cr after McLorinan St", "stop_I": "457"}, "id": "426", "type": "Feature"}, {"geometry": {"coordinates": [149.112015, -35.42276], "type": "Point"}, "properties": {"name": "Beattie Cr after McBurney Cr", "stop_I": "458"}, "id": "427", "type": "Feature"}, {"geometry": {"coordinates": [149.112183, -35.423058], "type": "Point"}, "properties": {"name": "Beattie Cr before Swanton St", "stop_I": "459"}, "id": "428", "type": "Feature"}, {"geometry": {"coordinates": [149.113617, -35.420982], "type": "Point"}, "properties": {"name": "Beattie Cr after Hemmings Cr", "stop_I": "460"}, "id": "429", "type": "Feature"}, {"geometry": {"coordinates": [149.113861, -35.420963], "type": "Point"}, "properties": {"name": "Beattie Cr after Gibbons St", "stop_I": "461"}, "id": "430", "type": "Feature"}, {"geometry": {"coordinates": [149.11557, -35.418312], "type": "Point"}, "properties": {"name": "Beattie Cr after Goldstein Cr", "stop_I": "462"}, "id": "431", "type": "Feature"}, {"geometry": {"coordinates": [149.115219, -35.418602], "type": "Point"}, "properties": {"name": "Beattie Cr after Longman St", "stop_I": "463"}, "id": "432", "type": "Feature"}, {"geometry": {"coordinates": [149.112503, -35.414661], "type": "Point"}, "properties": {"name": "Bugden Av after Kellett St", "stop_I": "464"}, "id": "433", "type": "Feature"}, {"geometry": {"coordinates": [149.112869, -35.41452], "type": "Point"}, "properties": {"name": "Bugden Av after Castleton Cr", "stop_I": "465"}, "id": "434", "type": "Feature"}, {"geometry": {"coordinates": [149.109329, -35.413868], "type": "Point"}, "properties": {"name": "Castleton Cr Gowrie Shops", "stop_I": "466"}, "id": "435", "type": "Feature"}, {"geometry": {"coordinates": [149.10939, -35.414013], "type": "Point"}, "properties": {"name": "Castleton Cr opp Gowrie Shops", "stop_I": "467"}, "id": "436", "type": "Feature"}, {"geometry": {"coordinates": [149.105804, -35.412067], "type": "Point"}, "properties": {"name": "Castleton Cr after 2nd Wheatley St", "stop_I": "468"}, "id": "437", "type": "Feature"}, {"geometry": {"coordinates": [149.10556, -35.41198], "type": "Point"}, "properties": {"name": "Castleton Cr after Coningham St", "stop_I": "469"}, "id": "438", "type": "Feature"}, {"geometry": {"coordinates": [149.104889, -35.409962], "type": "Point"}, "properties": {"name": "Castleton Cr after 2nd Coningham St", "stop_I": "470"}, "id": "439", "type": "Feature"}, {"geometry": {"coordinates": [149.104965, -35.410091], "type": "Point"}, "properties": {"name": "Castleton Cr after Wheatley St", "stop_I": "471"}, "id": "440", "type": "Feature"}, {"geometry": {"coordinates": [149.106461, -35.407349], "type": "Point"}, "properties": {"name": "Castleton Cr after Farcomb Pl", "stop_I": "472"}, "id": "441", "type": "Feature"}, {"geometry": {"coordinates": [149.106506, -35.407181], "type": "Point"}, "properties": {"name": "Castleton Cr after Middleton Cct", "stop_I": "473"}, "id": "442", "type": "Feature"}, {"geometry": {"coordinates": [149.111053, -35.406055], "type": "Point"}, "properties": {"name": "Castleton Cr after Peeler Pl", "stop_I": "474"}, "id": "443", "type": "Feature"}, {"geometry": {"coordinates": [149.111206, -35.406197], "type": "Point"}, "properties": {"name": "Castleton Cr after Partridge St", "stop_I": "475"}, "id": "444", "type": "Feature"}, {"geometry": {"coordinates": [149.113739, -35.405716], "type": "Point"}, "properties": {"name": "Partridge St after Castleton Cr", "stop_I": "476"}, "id": "445", "type": "Feature"}, {"geometry": {"coordinates": [149.113815, -35.40575], "type": "Point"}, "properties": {"name": "Partridge St after Garrick St", "stop_I": "477"}, "id": "446", "type": "Feature"}, {"geometry": {"coordinates": [149.115829, -35.403248], "type": "Point"}, "properties": {"name": "Partridge St after Airey Cr", "stop_I": "478"}, "id": "447", "type": "Feature"}, {"geometry": {"coordinates": [149.116074, -35.402653], "type": "Point"}, "properties": {"name": "Partridge St after Bulcock Pl", "stop_I": "479"}, "id": "448", "type": "Feature"}, {"geometry": {"coordinates": [149.09935, -35.398781], "type": "Point"}, "properties": {"name": "Longmore Cr after Cruikshank St", "stop_I": "480"}, "id": "449", "type": "Feature"}, {"geometry": {"coordinates": [149.102921, -35.398785], "type": "Point"}, "properties": {"name": "Longmore Cr after Petit Pl", "stop_I": "481"}, "id": "450", "type": "Feature"}, {"geometry": {"coordinates": [149.102814, -35.398918], "type": "Point"}, "properties": {"name": "Longmore Cr before Pettit Pl", "stop_I": "482"}, "id": "451", "type": "Feature"}, {"geometry": {"coordinates": [149.104095, -35.396854], "type": "Point"}, "properties": {"name": "Longmore Cr after Harker Pl", "stop_I": "483"}, "id": "452", "type": "Feature"}, {"geometry": {"coordinates": [149.104156, -35.397308], "type": "Point"}, "properties": {"name": "Longmore Cr 4th after Gaunson St", "stop_I": "484"}, "id": "453", "type": "Feature"}, {"geometry": {"coordinates": [149.10347, -35.39502], "type": "Point"}, "properties": {"name": "Longmore Cr & McKenna St", "stop_I": "485"}, "id": "454", "type": "Feature"}, {"geometry": {"coordinates": [149.103745, -35.395367], "type": "Point"}, "properties": {"name": "Longmore Cr Backing Sulwood Dr", "stop_I": "486"}, "id": "455", "type": "Feature"}, {"geometry": {"coordinates": [149.101974, -35.39286], "type": "Point"}, "properties": {"name": "Longmore Cr after McKenna St", "stop_I": "487"}, "id": "456", "type": "Feature"}, {"geometry": {"coordinates": [149.102097, -35.392956], "type": "Point"}, "properties": {"name": "Longmore Cr 2nd from Gaunson Cr", "stop_I": "488"}, "id": "457", "type": "Feature"}, {"geometry": {"coordinates": [149.100647, -35.390842], "type": "Point"}, "properties": {"name": "Longmore Cr after Bindon Pl", "stop_I": "489"}, "id": "458", "type": "Feature"}, {"geometry": {"coordinates": [149.100693, -35.390701], "type": "Point"}, "properties": {"name": "Longmore Cr South of Gaunson Cr", "stop_I": "490"}, "id": "459", "type": "Feature"}, {"geometry": {"coordinates": [149.104538, -35.414471], "type": "Point"}, "properties": {"name": "Bugden Av after Ashley Dv", "stop_I": "491"}, "id": "460", "type": "Feature"}, {"geometry": {"coordinates": [149.104599, -35.414684], "type": "Point"}, "properties": {"name": "Bugden Av after Herington St", "stop_I": "492"}, "id": "461", "type": "Feature"}, {"geometry": {"coordinates": [149.104858, -35.417137], "type": "Point"}, "properties": {"name": "Bugden Av after Dalziel St", "stop_I": "493"}, "id": "462", "type": "Feature"}, {"geometry": {"coordinates": [149.104782, -35.416935], "type": "Point"}, "properties": {"name": "Bugden Av after Stacey St", "stop_I": "494"}, "id": "463", "type": "Feature"}, {"geometry": {"coordinates": [149.107391, -35.418079], "type": "Point"}, "properties": {"name": "Bugden Av after 2nd Dalziel St", "stop_I": "495"}, "id": "464", "type": "Feature"}, {"geometry": {"coordinates": [149.107849, -35.417953], "type": "Point"}, "properties": {"name": "Bugden Av after 2nd Galleghan Cct", "stop_I": "496"}, "id": "465", "type": "Feature"}, {"geometry": {"coordinates": [149.109833, -35.41581], "type": "Point"}, "properties": {"name": "Bugden Av after Beardsmore Pl", "stop_I": "497"}, "id": "466", "type": "Feature"}, {"geometry": {"coordinates": [149.110046, -35.41573], "type": "Point"}, "properties": {"name": "Bugden Av after Galleghan Cct", "stop_I": "498"}, "id": "467", "type": "Feature"}, {"geometry": {"coordinates": [149.117767, -35.416851], "type": "Point"}, "properties": {"name": "Norriss St after 1st Woodburn St", "stop_I": "499"}, "id": "468", "type": "Feature"}, {"geometry": {"coordinates": [149.117966, -35.416912], "type": "Point"}, "properties": {"name": "Norriss St after Woodburn St", "stop_I": "500"}, "id": "469", "type": "Feature"}, {"geometry": {"coordinates": [149.121033, -35.416431], "type": "Point"}, "properties": {"name": "Norriss St after 2nd Woodburn St", "stop_I": "501"}, "id": "470", "type": "Feature"}, {"geometry": {"coordinates": [149.120834, -35.416576], "type": "Point"}, "properties": {"name": "Norriss St after Kirkcaldie Cct", "stop_I": "502"}, "id": "471", "type": "Feature"}, {"geometry": {"coordinates": [149.081039, -35.407082], "type": "Point"}, "properties": {"name": "Newman-Morris Cct before Farrelly Cl", "stop_I": "503"}, "id": "472", "type": "Feature"}, {"geometry": {"coordinates": [149.130188, -35.416042], "type": "Point"}, "properties": {"name": "Hambidge Cr before Proctor St", "stop_I": "504"}, "id": "473", "type": "Feature"}, {"geometry": {"coordinates": [149.127213, -35.418266], "type": "Point"}, "properties": {"name": "Hambidge Cr before Baskerville St", "stop_I": "505"}, "id": "474", "type": "Feature"}, {"geometry": {"coordinates": [149.127335, -35.418098], "type": "Point"}, "properties": {"name": "Hambidge Cr after Baskerville St", "stop_I": "506"}, "id": "475", "type": "Feature"}, {"geometry": {"coordinates": [149.129852, -35.416603], "type": "Point"}, "properties": {"name": "Hambidge Cr after Alice Jackson Cr", "stop_I": "507"}, "id": "476", "type": "Feature"}, {"geometry": {"coordinates": [149.125427, -35.419529], "type": "Point"}, "properties": {"name": "Baskerville St after Hambidge Cr", "stop_I": "508"}, "id": "477", "type": "Feature"}, {"geometry": {"coordinates": [149.125336, -35.419582], "type": "Point"}, "properties": {"name": "Baskerville St after Lucy Gullett Cct", "stop_I": "509"}, "id": "478", "type": "Feature"}, {"geometry": {"coordinates": [149.12439, -35.42205], "type": "Point"}, "properties": {"name": "Baskerville St after Heagney Cr", "stop_I": "510"}, "id": "479", "type": "Feature"}, {"geometry": {"coordinates": [149.124527, -35.421959], "type": "Point"}, "properties": {"name": "Baskerville St after Purbrick St", "stop_I": "511"}, "id": "480", "type": "Feature"}, {"geometry": {"coordinates": [149.123474, -35.424282], "type": "Point"}, "properties": {"name": "Heagney Cr after Alston St", "stop_I": "512"}, "id": "481", "type": "Feature"}, {"geometry": {"coordinates": [149.123688, -35.424408], "type": "Point"}, "properties": {"name": "Heagney Cr after Muntz St", "stop_I": "513"}, "id": "482", "type": "Feature"}, {"geometry": {"coordinates": [149.121338, -35.424252], "type": "Point"}, "properties": {"name": "Heagney Cr after Goldstein Cr", "stop_I": "514"}, "id": "483", "type": "Feature"}, {"geometry": {"coordinates": [149.121262, -35.424343], "type": "Point"}, "properties": {"name": "Heagney Cr after 2nd Muntz St", "stop_I": "515"}, "id": "484", "type": "Feature"}, {"geometry": {"coordinates": [149.117447, -35.424313], "type": "Point"}, "properties": {"name": "Heagney Cr after 2nd Mofflin St", "stop_I": "516"}, "id": "485", "type": "Feature"}, {"geometry": {"coordinates": [149.117203, -35.424198], "type": "Point"}, "properties": {"name": "Heagney Cr after 2nd McLorinan St", "stop_I": "517"}, "id": "486", "type": "Feature"}, {"geometry": {"coordinates": [149.115799, -35.427258], "type": "Point"}, "properties": {"name": "Clift Cr Richardson Shops", "stop_I": "518"}, "id": "487", "type": "Feature"}, {"geometry": {"coordinates": [149.1185, -35.428669], "type": "Point"}, "properties": {"name": "Clift Cr after Deamer Cr", "stop_I": "519"}, "id": "488", "type": "Feature"}, {"geometry": {"coordinates": [149.118576, -35.428604], "type": "Point"}, "properties": {"name": "Clift Cr before Meeson St", "stop_I": "520"}, "id": "489", "type": "Feature"}, {"geometry": {"coordinates": [149.115997, -35.427334], "type": "Point"}, "properties": {"name": "Clift Cr opp Richardson Shops", "stop_I": "521"}, "id": "490", "type": "Feature"}, {"geometry": {"coordinates": [149.137222, -35.41769], "type": "Point"}, "properties": {"name": "Louisa Lawson Cr before Gellatly Pl", "stop_I": "522"}, "id": "491", "type": "Feature"}, {"geometry": {"coordinates": [149.137253, -35.417599], "type": "Point"}, "properties": {"name": "Louisa Lawson Cr after May Maxwell Cr", "stop_I": "523"}, "id": "492", "type": "Feature"}, {"geometry": {"coordinates": [149.139435, -35.416145], "type": "Point"}, "properties": {"name": "Louisa Lawson Cr after Fenston Pl", "stop_I": "524"}, "id": "493", "type": "Feature"}, {"geometry": {"coordinates": [149.139359, -35.416088], "type": "Point"}, "properties": {"name": "Louisa Lawson Cr before Fenston Pl", "stop_I": "525"}, "id": "494", "type": "Feature"}, {"geometry": {"coordinates": [149.137512, -35.412315], "type": "Point"}, "properties": {"name": "Louisa Lawson Cr before Aronson Cr", "stop_I": "526"}, "id": "495", "type": "Feature"}, {"geometry": {"coordinates": [149.137405, -35.412258], "type": "Point"}, "properties": {"name": "Louisa Lawson Cr after 2nd Willoughby Cr", "stop_I": "527"}, "id": "496", "type": "Feature"}, {"geometry": {"coordinates": [149.135269, -35.41251], "type": "Point"}, "properties": {"name": "Louisa Lawson Cr after Willoughby Cr", "stop_I": "528"}, "id": "497", "type": "Feature"}, {"geometry": {"coordinates": [149.135101, -35.412579], "type": "Point"}, "properties": {"name": "Louisa Lawson Cr after Aronson Cr", "stop_I": "529"}, "id": "498", "type": "Feature"}, {"geometry": {"coordinates": [149.132996, -35.413876], "type": "Point"}, "properties": {"name": "Louisa Lawson Cr before 2nd Aronson Cr", "stop_I": "530"}, "id": "499", "type": "Feature"}, {"geometry": {"coordinates": [149.132904, -35.413853], "type": "Point"}, "properties": {"name": "Louisa Lawson Cr after Heagney Cr", "stop_I": "531"}, "id": "500", "type": "Feature"}, {"geometry": {"coordinates": [149.116928, -35.418156], "type": "Point"}, "properties": {"name": "Goldstein Cr after Norriss St", "stop_I": "532"}, "id": "501", "type": "Feature"}, {"geometry": {"coordinates": [149.116669, -35.418201], "type": "Point"}, "properties": {"name": "Goldstein Cr 2nd after Wolstenholme St", "stop_I": "533"}, "id": "502", "type": "Feature"}, {"geometry": {"coordinates": [149.097748, -35.436523], "type": "Point"}, "properties": {"name": "Duggan St after Outtrim Av", "stop_I": "534"}, "id": "503", "type": "Feature"}, {"geometry": {"coordinates": [149.09761, -35.436485], "type": "Point"}, "properties": {"name": "Duggan St after Pennington Cr", "stop_I": "535"}, "id": "504", "type": "Feature"}, {"geometry": {"coordinates": [149.087082, -35.407417], "type": "Point"}, "properties": {"name": "McBryde Cr after Bromley St", "stop_I": "545"}, "id": "505", "type": "Feature"}, {"geometry": {"coordinates": [149.086838, -35.407528], "type": "Point"}, "properties": {"name": "McBryde Cr Trinity Christian School", "stop_I": "546"}, "id": "506", "type": "Feature"}, {"geometry": {"coordinates": [149.116882, -35.441238], "type": "Point"}, "properties": {"name": "Casey Cr Calwell High School", "stop_I": "547"}, "id": "507", "type": "Feature"}, {"geometry": {"coordinates": [149.08429, -35.406727], "type": "Point"}, "properties": {"name": "Laurens St after Taverner St", "stop_I": "549"}, "id": "508", "type": "Feature"}, {"geometry": {"coordinates": [149.08432, -35.406872], "type": "Point"}, "properties": {"name": "Laurens St Trinity Christian PS", "stop_I": "550"}, "id": "509", "type": "Feature"}, {"geometry": {"coordinates": [149.027664, -35.343933], "type": "Point"}, "properties": {"name": "Hindmarsh Dr Weston Creek Terminus", "stop_I": "551"}, "id": "510", "type": "Feature"}, {"geometry": {"coordinates": [149.094711, -35.474491], "type": "Point"}, "properties": {"name": "Forsythe St before Pockett Av", "stop_I": "552"}, "id": "511", "type": "Feature"}, {"geometry": {"coordinates": [149.094925, -35.474525], "type": "Point"}, "properties": {"name": "Forsythe St after Pockett Av", "stop_I": "553"}, "id": "512", "type": "Feature"}, {"geometry": {"coordinates": [149.032486, -35.388977], "type": "Point"}, "properties": {"name": "Mt Vernon Dr Gleneagles", "stop_I": "554"}, "id": "513", "type": "Feature"}, {"geometry": {"coordinates": [149.096252, -35.416332], "type": "Point"}, "properties": {"name": "Barraclough Cr opp Retirement Village", "stop_I": "555"}, "id": "514", "type": "Feature"}, {"geometry": {"coordinates": [149.122787, -35.442654], "type": "Point"}, "properties": {"name": "Lawrence Wackett Cr after Scantlebury Cr", "stop_I": "556"}, "id": "515", "type": "Feature"}, {"geometry": {"coordinates": [149.095901, -35.416279], "type": "Point"}, "properties": {"name": "Barraclough Cr Retirement Village", "stop_I": "557"}, "id": "516", "type": "Feature"}, {"geometry": {"coordinates": [149.076645, -35.432228], "type": "Point"}, "properties": {"name": "Barr Smith Av after Derrington Cr", "stop_I": "558"}, "id": "517", "type": "Feature"}, {"geometry": {"coordinates": [149.074844, -35.431019], "type": "Point"}, "properties": {"name": "Barr Smith Av 2nd after Derrington Cr", "stop_I": "559"}, "id": "518", "type": "Feature"}, {"geometry": {"coordinates": [149.054825, -35.373367], "type": "Point"}, "properties": {"name": "Sulwood Dr Kambah Fire Station", "stop_I": "560"}, "id": "519", "type": "Feature"}, {"geometry": {"coordinates": [149.054672, -35.373409], "type": "Point"}, "properties": {"name": "Sulwood Dr opp Kambah Fire Station", "stop_I": "561"}, "id": "520", "type": "Feature"}, {"geometry": {"coordinates": [149.086243, -35.458172], "type": "Point"}, "properties": {"name": "Knoke Av Gordon Primary School", "stop_I": "562"}, "id": "521", "type": "Feature"}, {"geometry": {"coordinates": [149.098282, -35.438992], "type": "Point"}, "properties": {"name": "Duggan St 2nd after Outtrim Av", "stop_I": "563"}, "id": "522", "type": "Feature"}, {"geometry": {"coordinates": [149.098206, -35.439075], "type": "Point"}, "properties": {"name": "Duggan St 2nd after Beckett St", "stop_I": "564"}, "id": "523", "type": "Feature"}, {"geometry": {"coordinates": [149.085648, -35.419868], "type": "Point"}, "properties": {"name": "Clive Steele Av 2nd after Isabella Dr", "stop_I": "565"}, "id": "524", "type": "Feature"}, {"geometry": {"coordinates": [149.085861, -35.419968], "type": "Point"}, "properties": {"name": "Clive Steele Av after Charleston St", "stop_I": "566"}, "id": "525", "type": "Feature"}, {"geometry": {"coordinates": [149.088593, -35.42136], "type": "Point"}, "properties": {"name": "Clive Steele Av after Isabella Dr", "stop_I": "567"}, "id": "526", "type": "Feature"}, {"geometry": {"coordinates": [149.088745, -35.421375], "type": "Point"}, "properties": {"name": "Clive Steele Av after Falconer St", "stop_I": "568"}, "id": "527", "type": "Feature"}, {"geometry": {"coordinates": [149.097626, -35.47514], "type": "Point"}, "properties": {"name": "Forsythe St after Bellchambers Cr", "stop_I": "569"}, "id": "528", "type": "Feature"}, {"geometry": {"coordinates": [149.097153, -35.47488], "type": "Point"}, "properties": {"name": "Forsythe St after Smeaton Cct North Entry", "stop_I": "570"}, "id": "529", "type": "Feature"}, {"geometry": {"coordinates": [149.099792, -35.476551], "type": "Point"}, "properties": {"name": "Forsythe St after Olive Pink Cr", "stop_I": "571"}, "id": "530", "type": "Feature"}, {"geometry": {"coordinates": [149.099808, -35.476444], "type": "Point"}, "properties": {"name": "Forsythe St after Smeaton Cct South Entry", "stop_I": "572"}, "id": "531", "type": "Feature"}, {"geometry": {"coordinates": [149.101074, -35.475243], "type": "Point"}, "properties": {"name": "Forsythe St after 2nd Alison Ashby Cr", "stop_I": "573"}, "id": "532", "type": "Feature"}, {"geometry": {"coordinates": [149.100906, -35.474991], "type": "Point"}, "properties": {"name": "Forsythe St 2nd after Smeaton Cct", "stop_I": "574"}, "id": "533", "type": "Feature"}, {"geometry": {"coordinates": [149.10321, -35.472401], "type": "Point"}, "properties": {"name": "Paperbark St after Galbraith Cl", "stop_I": "575"}, "id": "534", "type": "Feature"}, {"geometry": {"coordinates": [149.103104, -35.472404], "type": "Point"}, "properties": {"name": "Paperbark St after Troughton St", "stop_I": "576"}, "id": "535", "type": "Feature"}, {"geometry": {"coordinates": [149.104675, -35.4692], "type": "Point"}, "properties": {"name": "Paperbark St before 2nd Kettlewell Cr", "stop_I": "577"}, "id": "536", "type": "Feature"}, {"geometry": {"coordinates": [149.104431, -35.469856], "type": "Point"}, "properties": {"name": "Paperbark St 2nd after Troughton St", "stop_I": "578"}, "id": "537", "type": "Feature"}, {"geometry": {"coordinates": [149.105682, -35.468349], "type": "Point"}, "properties": {"name": "Paperbark St after Kettlewell Cr", "stop_I": "579"}, "id": "538", "type": "Feature"}, {"geometry": {"coordinates": [149.105988, -35.468243], "type": "Point"}, "properties": {"name": "Paperbark St before Jane Sutherland St", "stop_I": "580"}, "id": "539", "type": "Feature"}, {"geometry": {"coordinates": [149.111343, -35.46389], "type": "Point"}, "properties": {"name": "Templestowe Av after Eaglemont Rt", "stop_I": "581"}, "id": "540", "type": "Feature"}, {"geometry": {"coordinates": [149.111206, -35.463829], "type": "Point"}, "properties": {"name": "Templestowe Av after Morison St", "stop_I": "582"}, "id": "541", "type": "Feature"}, {"geometry": {"coordinates": [149.109787, -35.462639], "type": "Point"}, "properties": {"name": "Templestowe Av 2nd after Barringer St", "stop_I": "583"}, "id": "542", "type": "Feature"}, {"geometry": {"coordinates": [149.109497, -35.462749], "type": "Point"}, "properties": {"name": "Templestowe Av 2nd after Jane Sutherland St", "stop_I": "584"}, "id": "543", "type": "Feature"}, {"geometry": {"coordinates": [149.107925, -35.462498], "type": "Point"}, "properties": {"name": "Templestowe Av after Barringer St", "stop_I": "585"}, "id": "544", "type": "Feature"}, {"geometry": {"coordinates": [149.107193, -35.462227], "type": "Point"}, "properties": {"name": "Templestowe Av 3rd after Jane Sutherland St", "stop_I": "586"}, "id": "545", "type": "Feature"}, {"geometry": {"coordinates": [149.076797, -35.432178], "type": "Point"}, "properties": {"name": "Barr Smith Av before Kingscote Cr", "stop_I": "587"}, "id": "546", "type": "Feature"}, {"geometry": {"coordinates": [149.075073, -35.430954], "type": "Point"}, "properties": {"name": "Barr Smith Av 2nd after Coombe St", "stop_I": "588"}, "id": "547", "type": "Feature"}, {"geometry": {"coordinates": [149.118393, -35.410007], "type": "Point"}, "properties": {"name": "Bugden Av opp Holy Family PS", "stop_I": "589"}, "id": "548", "type": "Feature"}, {"geometry": {"coordinates": [149.118271, -35.410011], "type": "Point"}, "properties": {"name": "Bugden Av Holy Family PS", "stop_I": "590"}, "id": "549", "type": "Feature"}, {"geometry": {"coordinates": [149.1306, -35.278553], "type": "Point"}, "properties": {"name": "City Bus Stn Arrivals", "stop_I": "591"}, "id": "550", "type": "Feature"}, {"geometry": {"coordinates": [149.102814, -35.348011], "type": "Point"}, "properties": {"name": "Palmer St after Bateson St", "stop_I": "592"},