{"features": [{"id": "0", "properties": {"stop_I": "9", "name": "Roma Ostiense"}, "geometry": {"coordinates": [12.48444, 41.872362], "type": "Point"}, "type": "Feature"}, {"id": "1", "properties": {"stop_I": "10", "name": "Settebagni"}, "geometry": {"coordinates": [12.520168, 42.006374], "type": "Point"}, "type": "Feature"}, {"id": "2", "properties": {"stop_I": "16", "name": "La Storta"}, "geometry": {"coordinates": [12.380691, 42.002853], "type": "Point"}, "type": "Feature"}, {"id": "3", "properties": {"stop_I": "17", "name": "Ponte Galeria"}, "geometry": {"coordinates": [12.34473, 41.818408], "type": "Point"}, "type": "Feature"}, {"id": "4", "properties": {"stop_I": "18", "name": "Torricola"}, "geometry": {"coordinates": [12.557676, 41.809481], "type": "Point"}, "type": "Feature"}, {"id": "5", "properties": {"stop_I": "19", "name": "Muratella"}, "geometry": {"coordinates": [12.408648, 41.824775], "type": "Point"}, "type": "Feature"}, {"id": "6", "properties": {"stop_I": "20", "name": "Villa Bonelli"}, "geometry": {"coordinates": [12.455112, 41.847902], "type": "Point"}, "type": "Feature"}, {"id": "7", "properties": {"stop_I": "21", "name": "Fiera di Roma"}, "geometry": {"coordinates": [12.319127, 41.81002], "type": "Point"}, "type": "Feature"}, {"id": "8", "properties": {"stop_I": "22", "name": "Olgiata"}, "geometry": {"coordinates": [12.363741, 42.01463], "type": "Point"}, "type": "Feature"}, {"id": "9", "properties": {"stop_I": "23", "name": "Roma Trastevere"}, "geometry": {"coordinates": [12.466139, 41.872385], "type": "Point"}, "type": "Feature"}, {"id": "10", "properties": {"stop_I": "24", "name": "Roma San Pietro"}, "geometry": {"coordinates": [12.454467, 41.896065], "type": "Point"}, "type": "Feature"}, {"id": "11", "properties": {"stop_I": "25", "name": "Appiano Proba Petronia"}, "geometry": {"coordinates": [12.438886, 41.911906], "type": "Point"}, "type": "Feature"}, {"id": "12", "properties": {"stop_I": "26", "name": "Gemelli"}, "geometry": {"coordinates": [12.427862, 41.927852], "type": "Point"}, "type": "Feature"}, {"id": "13", "properties": {"stop_I": "27", "name": "Parco Leonardo"}, "geometry": {"coordinates": [12.296186, 41.799809], "type": "Point"}, "type": "Feature"}, {"id": "14", "properties": {"stop_I": "28", "name": "Roma San Filippo Neri"}, "geometry": {"coordinates": [12.416304, 41.946703], "type": "Point"}, "type": "Feature"}, {"id": "15", "properties": {"stop_I": "30", "name": "Capannelle"}, "geometry": {"coordinates": [12.568833, 41.830764], "type": "Point"}, "type": "Feature"}, {"id": "16", "properties": {"stop_I": "31", "name": "Magliana"}, "geometry": {"coordinates": [12.430979, 41.834296], "type": "Point"}, "type": "Feature"}, {"id": "17", "properties": {"stop_I": "32", "name": "Fidene"}, "geometry": {"coordinates": [12.508455, 41.979177], "type": "Point"}, "type": "Feature"}, {"id": "18", "properties": {"stop_I": "33", "name": "Quattro Venti"}, "geometry": {"coordinates": [12.458787, 41.878598], "type": "Point"}, "type": "Feature"}, {"id": "19", "properties": {"stop_I": "34", "name": "Ipogeo degli Ottavi"}, "geometry": {"coordinates": [12.408857, 41.968752], "type": "Point"}, "type": "Feature"}, {"id": "20", "properties": {"stop_I": "35", "name": "Roma Tiburtina"}, "geometry": {"coordinates": [12.531088, 41.911082], "type": "Point"}, "type": "Feature"}, {"id": "21", "properties": {"stop_I": "37", "name": "Roma Tuscolana"}, "geometry": {"coordinates": [12.523672, 41.879237], "type": "Point"}, "type": "Feature"}, {"id": "22", "properties": {"stop_I": "38", "name": "Roma Monte Mario"}, "geometry": {"coordinates": [12.421741, 41.939064], "type": "Point"}, "type": "Feature"}, {"id": "23", "properties": {"stop_I": "39", "name": "Roma Balduina"}, "geometry": {"coordinates": [12.436624, 41.920067], "type": "Point"}, "type": "Feature"}, {"id": "24", "properties": {"stop_I": "40", "name": "La Giustiniana"}, "geometry": {"coordinates": [12.403301, 41.985294], "type": "Point"}, "type": "Feature"}, {"id": "25", "properties": {"stop_I": "41", "name": "Ottavia"}, "geometry": {"coordinates": [12.410142, 41.960357], "type": "Point"}, "type": "Feature"}, {"id": "26", "properties": {"stop_I": "43", "name": "Roma Nomentana"}, "geometry": {"coordinates": [12.523367, 41.932639], "type": "Point"}, "type": "Feature"}, {"id": "27", "properties": {"stop_I": "48", "name": "Roma Aurelia"}, "geometry": {"coordinates": [12.394187, 41.883045], "type": "Point"}, "type": "Feature"}, {"id": "28", "properties": {"stop_I": "72", "name": "ROCCA CENCIA/GIOIOSA JONICA"}, "geometry": {"coordinates": [12.689102, 41.867586], "type": "Point"}, "type": "Feature"}, {"id": "29", "properties": {"stop_I": "73", "name": "PRATI FISCALI/VAL DI SANGRO"}, "geometry": {"coordinates": [12.521851, 41.945968], "type": "Point"}, "type": "Feature"}, {"id": "30", "properties": {"stop_I": "74", "name": "CASTEL PORZIANO/MARIANI"}, "geometry": {"coordinates": [12.372494, 41.737614], "type": "Point"}, "type": "Feature"}, {"id": "31", "properties": {"stop_I": "75", "name": "FOSSO OSA/MONTELAPIANO"}, "geometry": {"coordinates": [12.684791, 41.902849], "type": "Point"}, "type": "Feature"}, {"id": "32", "properties": {"stop_I": "76", "name": "LUCREZIA ROMANA"}, "geometry": {"coordinates": [12.586431, 41.824006], "type": "Point"}, "type": "Feature"}, {"id": "33", "properties": {"stop_I": "77", "name": "GORDIANI/AMALFI"}, "geometry": {"coordinates": [12.554396, 41.886401], "type": "Point"}, "type": "Feature"}, {"id": "34", "properties": {"stop_I": "79", "name": "SELVA CANDIDA/ROSSO E."}, "geometry": {"coordinates": [12.378061, 41.937262], "type": "Point"}, "type": "Feature"}, {"id": "35", "properties": {"stop_I": "80", "name": "SESTO S. GIOVANNI/DRAGONE"}, "geometry": {"coordinates": [12.330582, 41.789476], "type": "Point"}, "type": "Feature"}, {"id": "36", "properties": {"stop_I": "81", "name": "TRADATE/BAREGGIO"}, "geometry": {"coordinates": [12.329542, 41.791448], "type": "Point"}, "type": "Feature"}, {"id": "37", "properties": {"stop_I": "82", "name": "TIBURTINA/LINO DA PARMA"}, "geometry": {"coordinates": [12.581147, 41.932141], "type": "Point"}, "type": "Feature"}, {"id": "38", "properties": {"stop_I": "83", "name": "TIBURTINA/TOR CERVARA"}, "geometry": {"coordinates": [12.588327, 41.932732], "type": "Point"}, "type": "Feature"}, {"id": "39", "properties": {"stop_I": "84", "name": "TIBURTINA/TIVOLI"}, "geometry": {"coordinates": [12.590991, 41.932953], "type": "Point"}, "type": "Feature"}, {"id": "40", "properties": {"stop_I": "85", "name": "CIMITERO/V.LE UFFICI"}, "geometry": {"coordinates": [12.493485, 42.008463], "type": "Point"}, "type": "Feature"}, {"id": "41", "properties": {"stop_I": "86", "name": "SALK/GHISALBA"}, "geometry": {"coordinates": [12.481125, 41.989138], "type": "Point"}, "type": "Feature"}, {"id": "42", "properties": {"stop_I": "87", "name": "SELVA CANDIDA/BASALUZZO"}, "geometry": {"coordinates": [12.376702, 41.932181], "type": "Point"}, "type": "Feature"}, {"id": "43", "properties": {"stop_I": "88", "name": "SELVA CANDIDA/BASALUZZO"}, "geometry": {"coordinates": [12.37688, 41.932069], "type": "Point"}, "type": "Feature"}, {"id": "44", "properties": {"stop_I": "89", "name": "DONNA OLIMPIA/FIORINI"}, "geometry": {"coordinates": [12.454793, 41.875227], "type": "Point"}, "type": "Feature"}, {"id": "45", "properties": {"stop_I": "92", "name": "GELLI/DANIELLO"}, "geometry": {"coordinates": [12.386423, 41.789928], "type": "Point"}, "type": "Feature"}, {"id": "46", "properties": {"stop_I": "93", "name": "GELLI/DANIELLO"}, "geometry": {"coordinates": [12.386478, 41.789858], "type": "Point"}, "type": "Feature"}, {"id": "47", "properties": {"stop_I": "94", "name": "INCISA VAL D'ARNO"}, "geometry": {"coordinates": [12.509104, 41.978957], "type": "Point"}, "type": "Feature"}, {"id": "48", "properties": {"stop_I": "95", "name": "INCISA VAL D'ARNO"}, "geometry": {"coordinates": [12.50905, 41.979118], "type": "Point"}, "type": "Feature"}, {"id": "49", "properties": {"stop_I": "96", "name": "CAVACEPPI/VICO CONSORTI"}, "geometry": {"coordinates": [12.432575, 41.795613], "type": "Point"}, "type": "Feature"}, {"id": "50", "properties": {"stop_I": "97", "name": "L.GO VALSABBIA"}, "geometry": {"coordinates": [12.515863, 41.942862], "type": "Point"}, "type": "Feature"}, {"id": "51", "properties": {"stop_I": "98", "name": "L.GO VALSABBIA"}, "geometry": {"coordinates": [12.515963, 41.942924], "type": "Point"}, "type": "Feature"}, {"id": "52", "properties": {"stop_I": "99", "name": "L.GO VALSABBIA"}, "geometry": {"coordinates": [12.516132, 41.942831], "type": "Point"}, "type": "Feature"}, {"id": "53", "properties": {"stop_I": "100", "name": "EMO/DI BARTOLO"}, "geometry": {"coordinates": [12.441357, 41.902498], "type": "Point"}, "type": "Feature"}, {"id": "54", "properties": {"stop_I": "101", "name": "CAVE DI PIETRALATA"}, "geometry": {"coordinates": [12.541044, 41.912685], "type": "Point"}, "type": "Feature"}, {"id": "55", "properties": {"stop_I": "102", "name": "CAVE DI PIETRALATA"}, "geometry": {"coordinates": [12.540914, 41.912801], "type": "Point"}, "type": "Feature"}, {"id": "56", "properties": {"stop_I": "103", "name": "MARCIGLIANA/BUFALOTTA"}, "geometry": {"coordinates": [12.552899, 41.991357], "type": "Point"}, "type": "Feature"}, {"id": "57", "properties": {"stop_I": "104", "name": "MARCIGLIANA/BUFALOTTA"}, "geometry": {"coordinates": [12.558128, 41.991462], "type": "Point"}, "type": "Feature"}, {"id": "58", "properties": {"stop_I": "105", "name": "MONTI TIBURTINI/PERTINI (H)"}, "geometry": {"coordinates": [12.538868, 41.918398], "type": "Point"}, "type": "Feature"}, {"id": "59", "properties": {"stop_I": "106", "name": "MONTI TIBURTINI/PERTINI (H)"}, "geometry": {"coordinates": [12.536974, 41.919181], "type": "Point"}, "type": "Feature"}, {"id": "60", "properties": {"stop_I": "107", "name": "TIBURTINA/MOROLO"}, "geometry": {"coordinates": [12.617572, 41.937198], "type": "Point"}, "type": "Feature"}, {"id": "61", "properties": {"stop_I": "108", "name": "TIBURTINA/SALONE"}, "geometry": {"coordinates": [12.619142, 41.937649], "type": "Point"}, "type": "Feature"}, {"id": "62", "properties": {"stop_I": "109", "name": "MAGNANO IN RIVIERA/NIMIS"}, "geometry": {"coordinates": [12.4818, 41.994887], "type": "Point"}, "type": "Feature"}, {"id": "63", "properties": {"stop_I": "111", "name": "AURELIA/PERSICHETTI"}, "geometry": {"coordinates": [12.340975, 41.882983], "type": "Point"}, "type": "Feature"}, {"id": "64", "properties": {"stop_I": "112", "name": "GARIBALDI/FABRIZI"}, "geometry": {"coordinates": [12.466636, 41.88762], "type": "Point"}, "type": "Feature"}, {"id": "65", "properties": {"stop_I": "113", "name": "NICCOLO' CAROSIO"}, "geometry": {"coordinates": [12.494308, 41.978508], "type": "Point"}, "type": "Feature"}, {"id": "66", "properties": {"stop_I": "114", "name": "TUSCOLANA/CENTRALE ENEL"}, "geometry": {"coordinates": [12.579692, 41.845885], "type": "Point"}, "type": "Feature"}, {"id": "67", "properties": {"stop_I": "115", "name": "TOR S. GIOVANNI"}, "geometry": {"coordinates": [12.564601, 41.981909], "type": "Point"}, "type": "Feature"}, {"id": "68", "properties": {"stop_I": "116", "name": "TOR S. GIOVANNI"}, "geometry": {"coordinates": [12.564239, 41.981873], "type": "Point"}, "type": "Feature"}, {"id": "69", "properties": {"stop_I": "117", "name": "TIBURTINA/NASINI"}, "geometry": {"coordinates": [12.577088, 41.929436], "type": "Point"}, "type": "Feature"}, {"id": "70", "properties": {"stop_I": "118", "name": "CAPUANA/DI BREME"}, "geometry": {"coordinates": [12.547177, 41.945492], "type": "Point"}, "type": "Feature"}, {"id": "71", "properties": {"stop_I": "119", "name": "TRIGORIA/ANDRIULI"}, "geometry": {"coordinates": [12.477571, 41.762043], "type": "Point"}, "type": "Feature"}, {"id": "72", "properties": {"stop_I": "120", "name": "COLLATINA/BIROLLI"}, "geometry": {"coordinates": [12.599527, 41.905024], "type": "Point"}, "type": "Feature"}, {"id": "73", "properties": {"stop_I": "121", "name": "PESENTI/TIBURTINA"}, "geometry": {"coordinates": [12.599443, 41.932137], "type": "Point"}, "type": "Feature"}, {"id": "74", "properties": {"stop_I": "123", "name": "TIBURTINA/MOROLO"}, "geometry": {"coordinates": [12.618882, 41.937401], "type": "Point"}, "type": "Feature"}, {"id": "75", "properties": {"stop_I": "124", "name": "TIBURTINA/CASTEL MADAMA"}, "geometry": {"coordinates": [12.603642, 41.933755], "type": "Point"}, "type": "Feature"}, {"id": "76", "properties": {"stop_I": "125", "name": "TIBURTINA/PESENTI"}, "geometry": {"coordinates": [12.597967, 41.932848], "type": "Point"}, "type": "Feature"}, {"id": "77", "properties": {"stop_I": "126", "name": "TIBURTINA/TOR CERVARA"}, "geometry": {"coordinates": [12.58605, 41.932713], "type": "Point"}, "type": "Feature"}, {"id": "78", "properties": {"stop_I": "127", "name": "ROCCA CENCIA/STABILIMENTO AMA"}, "geometry": {"coordinates": [12.695302, 41.884916], "type": "Point"}, "type": "Feature"}, {"id": "79", "properties": {"stop_I": "128", "name": "TIBURTINA/NASINI"}, "geometry": {"coordinates": [12.577412, 41.929832], "type": "Point"}, "type": "Feature"}, {"id": "80", "properties": {"stop_I": "129", "name": "CASAL BOCCONE/ALMAVIVA"}, "geometry": {"coordinates": [12.557408, 41.957857], "type": "Point"}, "type": "Feature"}, {"id": "81", "properties": {"stop_I": "130", "name": "OSTIENSE/FOSSO DI DRAGONCELLO"}, "geometry": {"coordinates": [12.325069, 41.769807], "type": "Point"}, "type": "Feature"}, {"id": "82", "properties": {"stop_I": "131", "name": "CHIODELLI/PUPPINI"}, "geometry": {"coordinates": [12.662278, 41.90566], "type": "Point"}, "type": "Feature"}, {"id": "83", "properties": {"stop_I": "132", "name": "CASAL BOCCONE/OJETTI"}, "geometry": {"coordinates": [12.559125, 41.952226], "type": "Point"}, "type": "Feature"}, {"id": "84", "properties": {"stop_I": "133", "name": "CASAL BOCCONE/ALMAVIVA"}, "geometry": {"coordinates": [12.556998, 41.957887], "type": "Point"}, "type": "Feature"}, {"id": "85", "properties": {"stop_I": "134", "name": "FIORANELLO/ARDEATINA"}, "geometry": {"coordinates": [12.535365, 41.79549], "type": "Point"}, "type": "Feature"}, {"id": "86", "properties": {"stop_I": "135", "name": "FIORANELLO/CIVICO 186"}, "geometry": {"coordinates": [12.537452, 41.794306], "type": "Point"}, "type": "Feature"}, {"id": "87", "properties": {"stop_I": "136", "name": "TIBURTINA/PORTONACCIO"}, "geometry": {"coordinates": [12.535477, 41.908064], "type": "Point"}, "type": "Feature"}, {"id": "88", "properties": {"stop_I": "137", "name": "TIBURTINA/OTTOBONI"}, "geometry": {"coordinates": [12.540447, 41.908369], "type": "Point"}, "type": "Feature"}, {"id": "89", "properties": {"stop_I": "138", "name": "TIBURTINA/GALLA PLACIDIA"}, "geometry": {"coordinates": [12.543423, 41.90849], "type": "Point"}, "type": "Feature"}, {"id": "90", "properties": {"stop_I": "139", "name": "TIBURTINA/GALLA PLACIDIA"}, "geometry": {"coordinates": [12.542928, 41.908804], "type": "Point"}, "type": "Feature"}, {"id": "91", "properties": {"stop_I": "140", "name": "TIBURTINA/OTTOBONI"}, "geometry": {"coordinates": [12.540374, 41.908686], "type": "Point"}, "type": "Feature"}, {"id": "92", "properties": {"stop_I": "141", "name": "PALMAROLA NUOVA"}, "geometry": {"coordinates": [12.392367, 41.948018], "type": "Point"}, "type": "Feature"}, {"id": "93", "properties": {"stop_I": "142", "name": "TOR PAGNOTTA/CECCHIGNOLA"}, "geometry": {"coordinates": [12.505873, 41.803728], "type": "Point"}, "type": "Feature"}, {"id": "94", "properties": {"stop_I": "143", "name": "MOROSINI E./NUOVO REGINA MARGHERITA (H)"}, "geometry": {"coordinates": [12.469251, 41.885852], "type": "Point"}, "type": "Feature"}, {"id": "95", "properties": {"stop_I": "144", "name": "XXI APRILE/NARDINI"}, "geometry": {"coordinates": [12.520179, 41.917966], "type": "Point"}, "type": "Feature"}, {"id": "96", "properties": {"stop_I": "145", "name": "CHIODELLI/DANUSSO"}, "geometry": {"coordinates": [12.661747, 41.90464], "type": "Point"}, "type": "Feature"}, {"id": "97", "properties": {"stop_I": "146", "name": "MERCOGLIANO/SPREGAMORE"}, "geometry": {"coordinates": [12.556244, 41.734569], "type": "Point"}, "type": "Feature"}, {"id": "98", "properties": {"stop_I": "147", "name": "OSLAVIA/BAINSIZZA"}, "geometry": {"coordinates": [12.461541, 41.918895], "type": "Point"}, "type": "Feature"}, {"id": "99", "properties": {"stop_I": "148", "name": "LEVI CIVITA"}, "geometry": {"coordinates": [12.473056, 41.855584], "type": "Point"}, "type": "Feature"}, {"id": "100", "properties": {"stop_I": "149", "name": "MAMELI"}, "geometry": {"coordinates": [12.467598, 41.888044], "type": "Point"}, "type": "Feature"}, {"id": "101", "properties": {"stop_I": "150", "name": "GARIBALDI/IACOBUCCI"}, "geometry": {"coordinates": [12.465997, 41.888462], "type": "Point"}, "type": "Feature"}, {"id": "102", "properties": {"stop_I": "151", "name": "GARIBALDI/FABRIZI"}, "geometry": {"coordinates": [12.466102, 41.88762], "type": "Point"}, "type": "Feature"}, {"id": "103", "properties": {"stop_I": "152", "name": "CHIODELLI/CORBELLINI"}, "geometry": {"coordinates": [12.662415, 41.907874], "type": "Point"}, "type": "Feature"}, {"id": "104", "properties": {"stop_I": "153", "name": "TIBURTINA/PORTONACCIO"}, "geometry": {"coordinates": [12.535116, 41.908366], "type": "Point"}, "type": "Feature"}, {"id": "105", "properties": {"stop_I": "154", "name": "ACQUEDOTTO DEL PESCHIERA"}, "geometry": {"coordinates": [12.425338, 41.936465], "type": "Point"}, "type": "Feature"}, {"id": "106", "properties": {"stop_I": "155", "name": "BOSTON"}, "geometry": {"coordinates": [12.471226, 41.829028], "type": "Point"}, "type": "Feature"}, {"id": "107", "properties": {"stop_I": "156", "name": "BOSTON"}, "geometry": {"coordinates": [12.471742, 41.829682], "type": "Point"}, "type": "Feature"}, {"id": "108", "properties": {"stop_I": "157", "name": "MAMELI"}, "geometry": {"coordinates": [12.467551, 41.888385], "type": "Point"}, "type": "Feature"}, {"id": "109", "properties": {"stop_I": "158", "name": "CIVITACAMPOMARANO/CASE ROSSE"}, "geometry": {"coordinates": [12.643026, 41.931996], "type": "Point"}, "type": "Feature"}, {"id": "110", "properties": {"stop_I": "159", "name": "GARIBALDI/IACOBUCCI"}, "geometry": {"coordinates": [12.465772, 41.888386], "type": "Point"}, "type": "Feature"}, {"id": "111", "properties": {"stop_I": "160", "name": "S. ARCANGELO DI ROMAGNA"}, "geometry": {"coordinates": [12.407778, 41.789929], "type": "Point"}, "type": "Feature"}, {"id": "112", "properties": {"stop_I": "161", "name": "STAZIONE GROTTAROSSA"}, "geometry": {"coordinates": [12.488956, 41.964001], "type": "Point"}, "type": "Feature"}, {"id": "113", "properties": {"stop_I": "162", "name": "STAZ.NE TIBURTINA (MB)"}, "geometry": {"coordinates": [12.530759, 41.909096], "type": "Point"}, "type": "Feature"}, {"id": "114", "properties": {"stop_I": "163", "name": "LAURENTINA/TOR PAGNOTTA"}, "geometry": {"coordinates": [12.481647, 41.802706], "type": "Point"}, "type": "Feature"}, {"id": "115", "properties": {"stop_I": "164", "name": "LAURENTINA/CIMITERO LAURENTINO"}, "geometry": {"coordinates": [12.498068, 41.764162], "type": "Point"}, "type": "Feature"}, {"id": "116", "properties": {"stop_I": "165", "name": "LAURENTINA/MANDRIOLA"}, "geometry": {"coordinates": [12.500043, 41.761258], "type": "Point"}, "type": "Feature"}, {"id": "117", "properties": {"stop_I": "166", "name": "LAURENTINA/CIVICO 1569"}, "geometry": {"coordinates": [12.50346, 41.745727], "type": "Point"}, "type": "Feature"}, {"id": "118", "properties": {"stop_I": "167", "name": "LAURENTINA/CIMITERO LAURENTINO"}, "geometry": {"coordinates": [12.499105, 41.763711], "type": "Point"}, "type": "Feature"}, {"id": "119", "properties": {"stop_I": "168", "name": "LAURENTINA/BOSCOTRECASE"}, "geometry": {"coordinates": [12.501545, 41.748744], "type": "Point"}, "type": "Feature"}, {"id": "120", "properties": {"stop_I": "169", "name": "QUATTRO VENTI/REGNOLI"}, "geometry": {"coordinates": [12.458725, 41.883656], "type": "Point"}, "type": "Feature"}, {"id": "121", "properties": {"stop_I": "170", "name": "G.R.A."}, "geometry": {"coordinates": [12.376749, 41.857694], "type": "Point"}, "type": "Feature"}, {"id": "122", "properties": {"stop_I": "171", "name": "COLOSSEO (MB)"}, "geometry": {"coordinates": [12.492325, 41.891308], "type": "Point"}, "type": "Feature"}, {"id": "123", "properties": {"stop_I": "172", "name": "CORNELIA/VILLATA"}, "geometry": {"coordinates": [12.389355, 41.899737], "type": "Point"}, "type": "Feature"}, {"id": "124", "properties": {"stop_I": "173", "name": "OCEANO PACIFICO/VELODROMO"}, "geometry": {"coordinates": [12.45607, 41.824976], "type": "Point"}, "type": "Feature"}, {"id": "125", "properties": {"stop_I": "174", "name": "TEANO (MC)"}, "geometry": {"coordinates": [12.551109, 41.8902], "type": "Point"}, "type": "Feature"}, {"id": "126", "properties": {"stop_I": "175", "name": "PTA S. SEBASTIANO/SEPOLCRO SCIPIONI"}, "geometry": {"coordinates": [12.501353, 41.873796], "type": "Point"}, "type": "Feature"}, {"id": "127", "properties": {"stop_I": "176", "name": "VINCI"}, "geometry": {"coordinates": [12.419366, 41.938177], "type": "Point"}, "type": "Feature"}, {"id": "128", "properties": {"stop_I": "177", "name": "PITAGORA"}, "geometry": {"coordinates": [12.489647, 41.921548], "type": "Point"}, "type": "Feature"}, {"id": "129", "properties": {"stop_I": "178", "name": "BUOZZI/MONTI PARIOLI"}, "geometry": {"coordinates": [12.476791, 41.919113], "type": "Point"}, "type": "Feature"}, {"id": "130", "properties": {"stop_I": "179", "name": "NOMENTANA/MONTE ARGENTARIO"}, "geometry": {"coordinates": [12.629432, 41.999569], "type": "Point"}, "type": "Feature"}, {"id": "131", "properties": {"stop_I": "180", "name": "VENEZUELA/INDIA"}, "geometry": {"coordinates": [12.47829, 41.933007], "type": "Point"}, "type": "Feature"}, {"id": "132", "properties": {"stop_I": "182", "name": "TIBURTINA/ZOE FONTANA"}, "geometry": {"coordinates": [12.608046, 41.934304], "type": "Point"}, "type": "Feature"}, {"id": "133", "properties": {"stop_I": "183", "name": "TOR PAGNOTTA/PELOSI"}, "geometry": {"coordinates": [12.486031, 41.802399], "type": "Point"}, "type": "Feature"}, {"id": "134", "properties": {"stop_I": "184", "name": "TOR PAGNOTTA/PELOSI"}, "geometry": {"coordinates": [12.485537, 41.802705], "type": "Point"}, "type": "Feature"}, {"id": "135", "properties": {"stop_I": "186", "name": "BUAZZELLI/FABBRI"}, "geometry": {"coordinates": [12.56696, 41.940424], "type": "Point"}, "type": "Feature"}, {"id": "136", "properties": {"stop_I": "187", "name": "NAIDE/NICANDRO"}, "geometry": {"coordinates": [12.605405, 41.915602], "type": "Point"}, "type": "Feature"}, {"id": "137", "properties": {"stop_I": "188", "name": "CAMBELLOTTI"}, "geometry": {"coordinates": [12.631965, 41.869434], "type": "Point"}, "type": "Feature"}, {"id": "138", "properties": {"stop_I": "190", "name": "Ciampino"}, "geometry": {"coordinates": [12.599533, 41.804301], "type": "Point"}, "type": "Feature"}, {"id": "139", "properties": {"stop_I": "192", "name": "Roma Prenestina"}, "geometry": {"coordinates": [12.54599, 41.897793], "type": "Point"}, "type": "Feature"}, {"id": "140", "properties": {"stop_I": "193", "name": "Salone"}, "geometry": {"coordinates": [12.636063, 41.915095], "type": "Point"}, "type": "Feature"}, {"id": "141", "properties": {"stop_I": "194", "name": "Lunghezza"}, "geometry": {"coordinates": [12.667547, 41.923843], "type": "Point"}, "type": "Feature"}, {"id": "142", "properties": {"stop_I": "196", "name": "Roma Termini"}, "geometry": {"coordinates": [12.502332, 41.900815], "type": "Point"}, "type": "Feature"}, {"id": "143", "properties": {"stop_I": "206", "name": "Casabianca"}, "geometry": {"coordinates": [12.604225, 41.788451], "type": "Point"}, "type": "Feature"}, {"id": "144", "properties": {"stop_I": "224", "name": "Tor Vergata"}, "geometry": {"coordinates": [12.669887, 41.826101], "type": "Point"}, "type": "Feature"}, {"id": "145", "properties": {"stop_I": "233", "name": "LAURENTINA/CELINE"}, "geometry": {"coordinates": [12.484701, 41.809304], "type": "Point"}, "type": "Feature"}, {"id": "146", "properties": {"stop_I": "234", "name": "LAURENTINA/SILONE"}, "geometry": {"coordinates": [12.486156, 41.813061], "type": "Point"}, "type": "Feature"}, {"id": "147", "properties": {"stop_I": "235", "name": "LAURENTINA/MERCATO"}, "geometry": {"coordinates": [12.486338, 41.811112], "type": "Point"}, "type": "Feature"}, {"id": "148", "properties": {"stop_I": "236", "name": "LAURENTINA/CELINE"}, "geometry": {"coordinates": [12.485185, 41.809092], "type": "Point"}, "type": "Feature"}, {"id": "149", "properties": {"stop_I": "237", "name": "P.ZA VITTORIO EMANUELE (MA)"}, "geometry": {"coordinates": [12.503506, 41.894054], "type": "Point"}, "type": "Feature"}, {"id": "150", "properties": {"stop_I": "238", "name": "LAURENTINA/MERCATO"}, "geometry": {"coordinates": [12.48596, 41.811156], "type": "Point"}, "type": "Feature"}, {"id": "151", "properties": {"stop_I": "239", "name": "LAURENTINA/CELINE"}, "geometry": {"coordinates": [12.484854, 41.809624], "type": "Point"}, "type": "Feature"}, {"id": "152", "properties": {"stop_I": "240", "name": "Acqua Acetosa"}, "geometry": {"coordinates": [12.616687, 41.794052], "type": "Point"}, "type": "Feature"}, {"id": "153", "properties": {"stop_I": "241", "name": "Sassone"}, "geometry": {"coordinates": [12.62603, 41.783559], "type": "Point"}, "type": "Feature"}, {"id": "154", "properties": {"stop_I": "242", "name": "Santa Maria delle Mole"}, "geometry": {"coordinates": [12.606198, 41.77428], "type": "Point"}, "type": "Feature"}, {"id": "155", "properties": {"stop_I": "260", "name": "Valle Aurelia"}, "geometry": {"coordinates": [12.441388, 41.902878], "type": "Point"}, "type": "Feature"}, {"id": "156", "properties": {"stop_I": "265", "name": "Serenissima"}, "geometry": {"coordinates": [12.557863, 41.899993], "type": "Point"}, "type": "Feature"}, {"id": "157", "properties": {"stop_I": "266", "name": "Palmiro Togliatti"}, "geometry": {"coordinates": [12.574194, 41.903331], "type": "Point"}, "type": "Feature"}, {"id": "158", "properties": {"stop_I": "267", "name": "Tor Sapienza"}, "geometry": {"coordinates": [12.587851, 41.905879], "type": "Point"}, "type": "Feature"}, {"id": "159", "properties": {"stop_I": "268", "name": "La Rustica Citt\u00e0"}, "geometry": {"coordinates": [12.609624, 41.910153], "type": "Point"}, "type": "Feature"}, {"id": "160", "properties": {"stop_I": "269", "name": "La Rustica U.I.R."}, "geometry": {"coordinates": [12.621819, 41.912549], "type": "Point"}, "type": "Feature"}, {"id": "161", "properties": {"stop_I": "270", "name": "Nuovo Salario"}, "geometry": {"coordinates": [12.510332, 41.955429], "type": "Point"}, "type": "Feature"}, {"id": "162", "properties": {"stop_I": "279", "name": "Pantanella"}, "geometry": {"coordinates": [12.633931, 41.779934], "type": "Point"}, "type": "Feature"}, {"id": "163", "properties": {"stop_I": "290", "name": "FLAMINIA/CANTALUPO"}, "geometry": {"coordinates": [12.48454, 41.954898], "type": "Point"}, "type": "Feature"}, {"id": "164", "properties": {"stop_I": "291", "name": "FLAMINIA/TOR DI QUINTO"}, "geometry": {"coordinates": [12.484661, 41.951968], "type": "Point"}, "type": "Feature"}, {"id": "165", "properties": {"stop_I": "292", "name": "FLAMINIA/MONTEROSI"}, "geometry": {"coordinates": [12.480726, 41.951018], "type": "Point"}, "type": "Feature"}, {"id": "166", "properties": {"stop_I": "293", "name": "FLAMINIA/CAPPELLI R."}, "geometry": {"coordinates": [12.478951, 41.949768], "type": "Point"}, "type": "Feature"}, {"id": "167", "properties": {"stop_I": "294", "name": "FLAMINIA/MORLUPO"}, "geometry": {"coordinates": [12.475594, 41.947811], "type": "Point"}, "type": "Feature"}, {"id": "168", "properties": {"stop_I": "295", "name": "FLAMINIA/NITTI"}, "geometry": {"coordinates": [12.473407, 41.946291], "type": "Point"}, "type": "Feature"}, {"id": "169", "properties": {"stop_I": "296", "name": "FLAMINIA/BEVAGNA"}, "geometry": {"coordinates": [12.472055, 41.944299], "type": "Point"}, "type": "Feature"}, {"id": "170", "properties": {"stop_I": "297", "name": "C.SO FRANCIA/FLAMINIA"}, "geometry": {"coordinates": [12.470782, 41.94073], "type": "Point"}, "type": "Feature"}, {"id": "171", "properties": {"stop_I": "298", "name": "TOR DI QUINTO/RIANO"}, "geometry": {"coordinates": [12.469628, 41.937106], "type": "Point"}, "type": "Feature"}, {"id": "172", "properties": {"stop_I": "299", "name": "MOZART/SIBELIUS"}, "geometry": {"coordinates": [12.563835, 41.912178], "type": "Point"}, "type": "Feature"}, {"id": "173", "properties": {"stop_I": "300", "name": "MOZART/BADILE"}, "geometry": {"coordinates": [12.562363, 41.914187], "type": "Point"}, "type": "Feature"}, {"id": "174", "properties": {"stop_I": "301", "name": "ORTUCCHIO/PACENTRO"}, "geometry": {"coordinates": [12.650361, 41.936713], "type": "Point"}, "type": "Feature"}, {"id": "175", "properties": {"stop_I": "302", "name": "LGT THAON DI REVEL/FORO ITALICO"}, "geometry": {"coordinates": [12.462859, 41.9311], "type": "Point"}, "type": "Feature"}, {"id": "176", "properties": {"stop_I": "303", "name": "LGT THAON DI REVEL/ROMANO"}, "geometry": {"coordinates": [12.465266, 41.933328], "type": "Point"}, "type": "Feature"}, {"id": "177", "properties": {"stop_I": "304", "name": "FLAMINIA/CALDERINI"}, "geometry": {"coordinates": [12.467816, 41.931266], "type": "Point"}, "type": "Feature"}, {"id": "178", "properties": {"stop_I": "305", "name": "FLAMINIA/CARRACCI"}, "geometry": {"coordinates": [12.4685, 41.929502], "type": "Point"}, "type": "Feature"}, {"id": "179", "properties": {"stop_I": "306", "name": "FLAMINIA/RENI"}, "geometry": {"coordinates": [12.469218, 41.927791], "type": "Point"}, "type": "Feature"}, {"id": "180", "properties": {"stop_I": "307", "name": "FLAMINIA/VIGNOLA"}, "geometry": {"coordinates": [12.470358, 41.92499], "type": "Point"}, "type": "Feature"}, {"id": "181", "properties": {"stop_I": "308", "name": "FLAMINIA/FRACASSINI"}, "geometry": {"coordinates": [12.471209, 41.922918], "type": "Point"}, "type": "Feature"}, {"id": "182", "properties": {"stop_I": "310", "name": "DEL FIOCCO/VALLE GIULIA"}, "geometry": {"coordinates": [12.480619, 41.913686], "type": "Point"}, "type": "Feature"}, {"id": "183", "properties": {"stop_I": "311", "name": "VICTOR HUGO/MUSEO BILOTTI"}, "geometry": {"coordinates": [12.483451, 41.912981], "type": "Point"}, "type": "Feature"}, {"id": "184", "properties": {"stop_I": "312", "name": "VICTOR HUGO/MUSEO BILOTTI"}, "geometry": {"coordinates": [12.482804, 41.913334], "type": "Point"}, "type": "Feature"}, {"id": "185", "properties": {"stop_I": "313", "name": "DEL FIOCCO/VALLE GIULIA"}, "geometry": {"coordinates": [12.481055, 41.913781], "type": "Point"}, "type": "Feature"}, {"id": "186", "properties": {"stop_I": "314", "name": "REPUBBLICA (MA)"}, "geometry": {"coordinates": [12.497125, 41.902503], "type": "Point"}, "type": "Feature"}, {"id": "187", "properties": {"stop_I": "315", "name": "NAZIONALE/TORINO"}, "geometry": {"coordinates": [12.494917, 41.90188], "type": "Point"}, "type": "Feature"}, {"id": "188", "properties": {"stop_I": "316", "name": "VILLA BORGHESE/WASHINGTON"}, "geometry": {"coordinates": [12.477478, 41.912488], "type": "Point"}, "type": "Feature"}, {"id": "189", "properties": {"stop_I": "317", "name": "NAZIONALE/QUATTRO FONTANE"}, "geometry": {"coordinates": [12.492297, 41.900158], "type": "Point"}, "type": "Feature"}, {"id": "190", "properties": {"stop_I": "318", "name": "NAZIONALE/PALAZZO ESPOSIZIONI"}, "geometry": {"coordinates": [12.490731, 41.899134], "type": "Point"}, "type": "Feature"}, {"id": "191", "properties": {"stop_I": "320", "name": "NAZIONALE/QUIRINALE"}, "geometry": {"coordinates": [12.487428, 41.89697], "type": "Point"}, "type": "Feature"}, {"id": "192", "properties": {"stop_I": "321", "name": "P.ZA VENEZIA"}, "geometry": {"coordinates": [12.482841, 41.896823], "type": "Point"}, "type": "Feature"}, {"id": "193", "properties": {"stop_I": "322", "name": "PIAZZA DELLA MARINA"}, "geometry": {"coordinates": [12.474329, 41.915819], "type": "Point"}, "type": "Feature"}, {"id": "194", "properties": {"stop_I": "323", "name": "FLAMINIA/VILLA GIULIA"}, "geometry": {"coordinates": [12.473426, 41.917876], "type": "Point"}, "type": "Feature"}, {"id": "195", "properties": {"stop_I": "324", "name": "ARGENTINA"}, "geometry": {"coordinates": [12.476847, 41.896117], "type": "Point"}, "type": "Feature"}, {"id": "196", "properties": {"stop_I": "325", "name": "C.SO VITTORIO EMANUELE/S. A. DELLA VALLE"}, "geometry": {"coordinates": [12.473886, 41.89657], "type": "Point"}, "type": "Feature"}, {"id": "197", "properties": {"stop_I": "326", "name": "ANKARA"}, "geometry": {"coordinates": [12.471758, 41.924235], "type": "Point"}, "type": "Feature"}, {"id": "198", "properties": {"stop_I": "328", "name": "TIZIANO/APOLLODORO"}, "geometry": {"coordinates": [12.469522, 41.929396], "type": "Point"}, "type": "Feature"}, {"id": "199", "properties": {"stop_I": "329", "name": "TIZIANO/XVII OLIMPIADE"}, "geometry": {"coordinates": [12.468375, 41.932292], "type": "Point"}, "type": "Feature"}, {"id": "200", "properties": {"stop_I": "330", "name": "C.SO VITTORIO EMANUELE/NAVONA"}, "geometry": {"coordinates": [12.47144, 41.897191], "type": "Point"}, "type": "Feature"}, {"id": "201", "properties": {"stop_I": "332", "name": "LGT THAON DI REVEL/P. MILVIO"}, "geometry": {"coordinates": [12.466742, 41.934368], "type": "Point"}, "type": "Feature"}, {"id": "202", "properties": {"stop_I": "333", "name": "LGT THAON DI REVEL/ROMANO"}, "geometry": {"coordinates": [12.464703, 41.933146], "type": "Point"}, "type": "Feature"}, {"id": "203", "properties": {"stop_I": "334", "name": "C.SO VITTORIO EMANUELE/TASSONI"}, "geometry": {"coordinates": [12.467488, 41.898823], "type": "Point"}, "type": "Feature"}, {"id": "204", "properties": {"stop_I": "335", "name": "PONTE VITTORIO EMANUELE"}, "geometry": {"coordinates": [12.465338, 41.900456], "type": "Point"}, "type": "Feature"}, {"id": "205", "properties": {"stop_I": "336", "name": "LGT THAON DI REVEL/DUCA D'AOSTA"}, "geometry": {"coordinates": [12.462502, 41.931216], "type": "Point"}, "type": "Feature"}, {"id": "206", "properties": {"stop_I": "337", "name": "LGT M.LLO DIAZ/DE BOSIS"}, "geometry": {"coordinates": [12.460698, 41.932687], "type": "Point"}, "type": "Feature"}, {"id": "207", "properties": {"stop_I": "339", "name": "LGT M.LLO DIAZ/PONTE MILVIO"}, "geometry": {"coordinates": [12.464806, 41.935577], "type": "Point"}, "type": "Feature"}, {"id": "208", "properties": {"stop_I": "341", "name": "C.SO FRANCIA/FLAMINIA"}, "geometry": {"coordinates": [12.471059, 41.940808], "type": "Point"}, "type": "Feature"}, {"id": "209", "properties": {"stop_I": "342", "name": "FLAMINIA/BEVAGNA"}, "geometry": {"coordinates": [12.472661, 41.944959], "type": "Point"}, "type": "Feature"}, {"id": "210", "properties": {"stop_I": "343", "name": "ACCIAIOLI"}, "geometry": {"coordinates": [12.464929, 41.899737], "type": "Point"}, "type": "Feature"}, {"id": "211", "properties": {"stop_I": "344", "name": "FLAMINIA/NITTI"}, "geometry": {"coordinates": [12.473798, 41.946586], "type": "Point"}, "type": "Feature"}, {"id": "212", "properties": {"stop_I": "345", "name": "FLAMINIA/MORLUPO"}, "geometry": {"coordinates": [12.476426, 41.947717], "type": "Point"}, "type": "Feature"}, {"id": "213", "properties": {"stop_I": "346", "name": "C.SO VITTORIO EMANUELE/TASSONI"}, "geometry": {"coordinates": [12.467079, 41.898939], "type": "Point"}, "type": "Feature"}, {"id": "214", "properties": {"stop_I": "347", "name": "FLAMINIA/CAPPELLI R."}, "geometry": {"coordinates": [12.478445, 41.9489], "type": "Point"}, "type": "Feature"}, {"id": "215", "properties": {"stop_I": "348", "name": "CHIESA NUOVA"}, "geometry": {"coordinates": [12.469608, 41.897479], "type": "Point"}, "type": "Feature"}, {"id": "216", "properties": {"stop_I": "349", "name": "C.SO VITTORIO EMANUELE/NAVONA"}, "geometry": {"coordinates": [12.471763, 41.896998], "type": "Point"}, "type": "Feature"}, {"id": "217", "properties": {"stop_I": "350", "name": "FLAMINIA/MONTEROSI"}, "geometry": {"coordinates": [12.481096, 41.950907], "type": "Point"}, "type": "Feature"}, {"id": "218", "properties": {"stop_I": "353", "name": "P.ZA VENEZIA"}, "geometry": {"coordinates": [12.483121, 41.896735], "type": "Point"}, "type": "Feature"}, {"id": "219", "properties": {"stop_I": "354", "name": "NAZIONALE/QUIRINALE"}, "geometry": {"coordinates": [12.487835, 41.897049], "type": "Point"}, "type": "Feature"}, {"id": "220", "properties": {"stop_I": "355", "name": "FLAMINIA/CANTALUPO"}, "geometry": {"coordinates": [12.484855, 41.954638], "type": "Point"}, "type": "Feature"}, {"id": "221", "properties": {"stop_I": "356", "name": "NAZIONALE/PALAZZO ESPOSIZIONI"}, "geometry": {"coordinates": [12.489896, 41.898451], "type": "Point"}, "type": "Feature"}, {"id": "222", "properties": {"stop_I": "357", "name": "NAZIONALE/QUATTRO FONTANE"}, "geometry": {"coordinates": [12.492278, 41.899983], "type": "Point"}, "type": "Feature"}, {"id": "223", "properties": {"stop_I": "358", "name": "STAZ.NE DUE PONTI"}, "geometry": {"coordinates": [12.484934, 41.955566], "type": "Point"}, "type": "Feature"}, {"id": "224", "properties": {"stop_I": "359", "name": "NAZIONALE/TORINO"}, "geometry": {"coordinates": [12.495106, 41.901839], "type": "Point"}, "type": "Feature"}, {"id": "225", "properties": {"stop_I": "360", "name": "TERME DIOCLEZIANO"}, "geometry": {"coordinates": [12.497094, 41.901824], "type": "Point"}, "type": "Feature"}, {"id": "226", "properties": {"stop_I": "363", "name": "TOMACELLI"}, "geometry": {"coordinates": [12.476098, 41.904889], "type": "Point"}, "type": "Feature"}, {"id": "227", "properties": {"stop_I": "364", "name": "GREGORIO VII/RANUCCI"}, "geometry": {"coordinates": [12.44989, 41.896554], "type": "Point"}, "type": "Feature"}, {"id": "228", "properties": {"stop_I": "367", "name": "PORTUENSE/CAMPI SPORTIVI"}, "geometry": {"coordinates": [12.385396, 41.842037], "type": "Point"}, "type": "Feature"}, {"id": "229", "properties": {"stop_I": "368", "name": "PORTUENSE/CAMPI SPORTIVI"}, "geometry": {"coordinates": [12.385695, 41.841949], "type": "Point"}, "type": "Feature"}, {"id": "230", "properties": {"stop_I": "369", "name": "P.ZA DELLA ROVERE"}, "geometry": {"coordinates": [12.461544, 41.899494], "type": "Point"}, "type": "Feature"}, {"id": "231", "properties": {"stop_I": "370", "name": "LGT GIANICOLENSE/REGINA COELI"}, "geometry": {"coordinates": [12.464809, 41.896154], "type": "Point"}, "type": "Feature"}, {"id": "232", "properties": {"stop_I": "371", "name": "LGT FARNESINA"}, "geometry": {"coordinates": [12.466913, 41.894397], "type": "Point"}, "type": "Feature"}, {"id": "233", "properties": {"stop_I": "372", "name": "LGT FARNESINA/TRILUSSA"}, "geometry": {"coordinates": [12.469451, 41.892409], "type": "Point"}, "type": "Feature"}, {"id": "234", "properties": {"stop_I": "373", "name": "GIANICOLENSE/CASALETTO"}, "geometry": {"coordinates": [12.441263, 41.877512], "type": "Point"}, "type": "Feature"}, {"id": "235", "properties": {"stop_I": "374", "name": "ARENULA/MIN. G. GIUSTIZIA"}, "geometry": {"coordinates": [12.474793, 41.892244], "type": "Point"}, "type": "Feature"}, {"id": "236", "properties": {"stop_I": "375", "name": "ISOLA FARNESE/VALLE BOSCO"}, "geometry": {"coordinates": [12.388823, 42.018845], "type": "Point"}, "type": "Feature"}, {"id": "237", "properties": {"stop_I": "376", "name": "ISOLA FARNESE/VALLE BOSCO"}, "geometry": {"coordinates": [12.388597, 42.018849], "type": "Point"}, "type": "Feature"}, {"id": "238", "properties": {"stop_I": "377", "name": "CERNAIA"}, "geometry": {"coordinates": [12.497762, 41.90466], "type": "Point"}, "type": "Feature"}, {"id": "239", "properties": {"stop_I": "378", "name": "PALESTRO"}, "geometry": {"coordinates": [12.500576, 41.907987], "type": "Point"}, "type": "Feature"}, {"id": "240", "properties": {"stop_I": "379", "name": "PORTA PIA"}, "geometry": {"coordinates": [12.502122, 41.908654], "type": "Point"}, "type": "Feature"}, {"id": "241", "properties": {"stop_I": "380", "name": "CROCE ROSSA"}, "geometry": {"coordinates": [12.50427, 41.908041], "type": "Point"}, "type": "Feature"}, {"id": "242", "properties": {"stop_I": "381", "name": "PADRE SEMERIA/VALIGNANO"}, "geometry": {"coordinates": [12.494658, 41.865729], "type": "Point"}, "type": "Feature"}, {"id": "243", "properties": {"stop_I": "382", "name": "RAVENNA/PIAZZA"}, "geometry": {"coordinates": [12.518919, 41.912988], "type": "Point"}, "type": "Feature"}, {"id": "244", "properties": {"stop_I": "383", "name": "LORENZO IL MAGNIFICO/STAMIRA"}, "geometry": {"coordinates": [12.521836, 41.913141], "type": "Point"}, "type": "Feature"}, {"id": "245", "properties": {"stop_I": "384", "name": "LORENZO IL MAGNIFICO/G.DA PROCIDA"}, "geometry": {"coordinates": [12.525493, 41.911909], "type": "Point"}, "type": "Feature"}, {"id": "246", "properties": {"stop_I": "385", "name": "LORENZO IL MAGNIFICO/TEODORICO"}, "geometry": {"coordinates": [12.528415, 41.910937], "type": "Point"}, "type": "Feature"}, {"id": "247", "properties": {"stop_I": "386", "name": "STAZ.NE TIBURTINA (MB)"}, "geometry": {"coordinates": [12.529508, 41.909798], "type": "Point"}, "type": "Feature"}, {"id": "248", "properties": {"stop_I": "387", "name": "PADRE SEMERIA/COLOMBO"}, "geometry": {"coordinates": [12.496548, 41.863514], "type": "Point"}, "type": "Feature"}, {"id": "249", "properties": {"stop_I": "388", "name": "BOLOGNA (MB)"}, "geometry": {"coordinates": [12.522191, 41.914518], "type": "Point"}, "type": "Feature"}, {"id": "250", "properties": {"stop_I": "389", "name": "RAVENNA/PIAZZA"}, "geometry": {"coordinates": [12.519212, 41.913157], "type": "Point"}, "type": "Feature"}, {"id": "251", "properties": {"stop_I": "390", "name": "CATANZARO"}, "geometry": {"coordinates": [12.51715, 41.911874], "type": "Point"}, "type": "Feature"}, {"id": "252", "properties": {"stop_I": "391", "name": "CHIANESI (H)"}, "geometry": {"coordinates": [12.447827, 41.8027], "type": "Point"}, "type": "Feature"}, {"id": "253", "properties": {"stop_I": "392", "name": "POLICLINICO (H)"}, "geometry": {"coordinates": [12.507396, 41.909087], "type": "Point"}, "type": "Feature"}, {"id": "254", "properties": {"stop_I": "393", "name": "C.SO FRANCIA/URUGUAY"}, "geometry": {"coordinates": [12.47206, 41.935031], "type": "Point"}, "type": "Feature"}, {"id": "255", "properties": {"stop_I": "394", "name": "CROCE ROSSA"}, "geometry": {"coordinates": [12.503191, 41.908451], "type": "Point"}, "type": "Feature"}, {"id": "256", "properties": {"stop_I": "395", "name": "PORTA PIA"}, "geometry": {"coordinates": [12.502018, 41.909091], "type": "Point"}, "type": "Feature"}, {"id": "257", "properties": {"stop_I": "396", "name": "XX SETTEMBRE/PIAVE"}, "geometry": {"coordinates": [12.498199, 41.907033], "type": "Point"}, "type": "Feature"}, {"id": "258", "properties": {"stop_I": "397", "name": "XX SETTEMBRE/MIN. FINANZE"}, "geometry": {"coordinates": [12.496188, 41.905628], "type": "Point"}, "type": "Feature"}, {"id": "259", "properties": {"stop_I": "398", "name": "TARANTELLI"}, "geometry": {"coordinates": [12.436373, 41.818766], "type": "Point"}, "type": "Feature"}, {"id": "260", "properties": {"stop_I": "399", "name": "C.SO FRANCIA/PONTE FLAMINIO"}, "geometry": {"coordinates": [12.471547, 41.93797], "type": "Point"}, "type": "Feature"}, {"id": "261", "properties": {"stop_I": "400", "name": "FIUME GIALLO/FIUME AZZURRO"}, "geometry": {"coordinates": [12.432307, 41.812064], "type": "Point"}, "type": "Feature"}, {"id": "262", "properties": {"stop_I": "401", "name": "C.SO FRANCIA/BODIO"}, "geometry": {"coordinates": [12.469523, 41.944388], "type": "Point"}, "type": "Feature"}, {"id": "263", "properties": {"stop_I": "402", "name": "VILLA SEVERINI"}, "geometry": {"coordinates": [12.46988, 41.94665], "type": "Point"}, "type": "Feature"}, {"id": "264", "properties": {"stop_I": "403", "name": "FIUME GIALLO/CIVICO 321"}, "geometry": {"coordinates": [12.433519, 41.813247], "type": "Point"}, "type": "Feature"}, {"id": "265", "properties": {"stop_I": "404", "name": "CASSIA/JACINI"}, "geometry": {"coordinates": [12.469775, 41.948692], "type": "Point"}, "type": "Feature"}, {"id": "266", "properties": {"stop_I": "405", "name": "CASSIA/FABBRONI"}, "geometry": {"coordinates": [12.4679, 41.951261], "type": "Point"}, "type": "Feature"}, {"id": "267", "properties": {"stop_I": "406", "name": "LGT VALLATI/PETTINARI"}, "geometry": {"coordinates": [12.471789, 41.892383], "type": "Point"}, "type": "Feature"}, {"id": "268", "properties": {"stop_I": "407", "name": "CASSIA/INVIOLATELLA BORGHESE"}, "geometry": {"coordinates": [12.460577, 41.956834], "type": "Point"}, "type": "Feature"}, {"id": "269", "properties": {"stop_I": "408", "name": "LGT TEBALDI/ARMATA"}, "geometry": {"coordinates": [12.468432, 41.895075], "type": "Point"}, "type": "Feature"}, {"id": "270", "properties": {"stop_I": "409", "name": "CASSIA/ORIOLO ROMANO"}, "geometry": {"coordinates": [12.457728, 41.957453], "type": "Point"}, "type": "Feature"}, {"id": "271", "properties": {"stop_I": "410", "name": "FIUME GIALLO/CIVICO 257"}, "geometry": {"coordinates": [12.433077, 41.814218], "type": "Point"}, "type": "Feature"}, {"id": "272", "properties": {"stop_I": "411", "name": "FIUME GIALLO/CIVICO 196"}, "geometry": {"coordinates": [12.42943, 41.813232], "type": "Point"}, "type": "Feature"}, {"id": "273", "properties": {"stop_I": "412", "name": "CASSIA/S. GODENZO"}, "geometry": {"coordinates": [12.452645, 41.960029], "type": "Point"}, "type": "Feature"}, {"id": "274", "properties": {"stop_I": "413", "name": "FIUME GIALLO/CIVICO 82"}, "geometry": {"coordinates": [12.428691, 41.810185], "type": "Point"}, "type": "Feature"}, {"id": "275", "properties": {"stop_I": "414", "name": "FIUME GIALLO/CIVICO 13"}, "geometry": {"coordinates": [12.42954, 41.808505], "type": "Point"}, "type": "Feature"}, {"id": "276", "properties": {"stop_I": "415", "name": "GREGORIO VII/STAZ. S. PIETRO (FS)"}, "geometry": {"coordinates": [12.450562, 41.897852], "type": "Point"}, "type": "Feature"}, {"id": "277", "properties": {"stop_I": "416", "name": "GREGORIO VII/RANUCCI"}, "geometry": {"coordinates": [12.449352, 41.896195], "type": "Point"}, "type": "Feature"}, {"id": "278", "properties": {"stop_I": "417", "name": "CASSIA/VILLA S. PIETRO (H)"}, "geometry": {"coordinates": [12.447768, 41.96273], "type": "Point"}, "type": "Feature"}, {"id": "279", "properties": {"stop_I": "418", "name": "CASSIA/S. GODENZO"}, "geometry": {"coordinates": [12.451992, 41.960154], "type": "Point"}, "type": "Feature"}, {"id": "280", "properties": {"stop_I": "419", "name": "GREGORIO VII/S. DAMASO"}, "geometry": {"coordinates": [12.444757, 41.895832], "type": "Point"}, "type": "Feature"}, {"id": "281", "properties": {"stop_I": "420", "name": "CASSIA/S. GIOVANNA ELISABETTA"}, "geometry": {"coordinates": [12.455944, 41.957149], "type": "Point"}, "type": "Feature"}, {"id": "282", "properties": {"stop_I": "421", "name": "GREGORIO VII/DI PIETRO"}, "geometry": {"coordinates": [12.441505, 41.896421], "type": "Point"}, "type": "Feature"}, {"id": "283", "properties": {"stop_I": "422", "name": "GREGORIO VII/ANASTASIO II"}, "geometry": {"coordinates": [12.438762, 41.895125], "type": "Point"}, "type": "Feature"}, {"id": "284", "properties": {"stop_I": "423", "name": "SCIANGAI"}, "geometry": {"coordinates": [12.431429, 41.807328], "type": "Point"}, "type": "Feature"}, {"id": "285", "properties": {"stop_I": "424", "name": "GIOLITTI"}, "geometry": {"coordinates": [12.505315, 41.897562], "type": "Point"}, "type": "Feature"}, {"id": "286", "properties": {"stop_I": "425", "name": "TEMPIO DEL CIELO"}, "geometry": {"coordinates": [12.433857, 41.807054], "type": "Point"}, "type": "Feature"}, {"id": "287", "properties": {"stop_I": "426", "name": "BEATA VERGINE DEL CARMELO/MONTE TAI"}, "geometry": {"coordinates": [12.43615, 41.807114], "type": "Point"}, "type": "Feature"}, {"id": "288", "properties": {"stop_I": "427", "name": "C.SO FRANCIA/VIGNA STELLUTI"}, "geometry": {"coordinates": [12.46922, 41.945992], "type": "Point"}, "type": "Feature"}, {"id": "289", "properties": {"stop_I": "428", "name": "C.SO FRANCIA/BODIO"}, "geometry": {"coordinates": [12.469316, 41.943893], "type": "Point"}, "type": "Feature"}, {"id": "290", "properties": {"stop_I": "429", "name": "C.SO FRANCIA/PONTE FLAMINIO"}, "geometry": {"coordinates": [12.471211, 41.937898], "type": "Point"}, "type": "Feature"}, {"id": "291", "properties": {"stop_I": "430", "name": "VIMINALE"}, "geometry": {"coordinates": [12.494469, 41.899801], "type": "Point"}, "type": "Feature"}, {"id": "292", "properties": {"stop_I": "431", "name": "C.SO FRANCIA/URUGUAY"}, "geometry": {"coordinates": [12.471738, 41.93484], "type": "Point"}, "type": "Feature"}, {"id": "293", "properties": {"stop_I": "432", "name": "RINASCIMENTO"}, "geometry": {"coordinates": [12.474212, 41.897272], "type": "Point"}, "type": "Feature"}, {"id": "294", "properties": {"stop_I": "433", "name": "SENATO"}, "geometry": {"coordinates": [12.473907, 41.900261], "type": "Point"}, "type": "Feature"}, {"id": "295", "properties": {"stop_I": "434", "name": "BEATA VERGINE DEL CARMELO"}, "geometry": {"coordinates": [12.443453, 41.808189], "type": "Point"}, "type": "Feature"}, {"id": "296", "properties": {"stop_I": "435", "name": "ZANARDELLI"}, "geometry": {"coordinates": [12.472179, 41.901379], "type": "Point"}, "type": "Feature"}, {"id": "297", "properties": {"stop_I": "436", "name": "LGT MARZIO"}, "geometry": {"coordinates": [12.473874, 41.903006], "type": "Point"}, "type": "Feature"}, {"id": "298", "properties": {"stop_I": "437", "name": "VITTORIA COLONNA"}, "geometry": {"coordinates": [12.471719, 41.905182], "type": "Point"}, "type": "Feature"}, {"id": "299", "properties": {"stop_I": "438", "name": "P.ZA CAVOUR"}, "geometry": {"coordinates": [12.470042, 41.905949], "type": "Point"}, "type": "Feature"}, {"id": "300", "properties": {"stop_I": "439", "name": "CICERONE/PLINIO"}, "geometry": {"coordinates": [12.468196, 41.908037], "type": "Point"}, "type": "Feature"}, {"id": "301", "properties": {"stop_I": "440", "name": "BEATA VERGINE DEL CARMELO/MONTE TAI"}, "geometry": {"coordinates": [12.435885, 41.807279], "type": "Point"}, "type": "Feature"}, {"id": "302", "properties": {"stop_I": "441", "name": "SCIANGAI"}, "geometry": {"coordinates": [12.430796, 41.807499], "type": "Point"}, "type": "Feature"}, {"id": "303", "properties": {"stop_I": "442", "name": "FIUME GIALLO/CIVICO 13"}, "geometry": {"coordinates": [12.429603, 41.808742], "type": "Point"}, "type": "Feature"}, {"id": "304", "properties": {"stop_I": "443", "name": "FIUME GIALLO/CIVICO 82"}, "geometry": {"coordinates": [12.428691, 41.810473], "type": "Point"}, "type": "Feature"}, {"id": "305", "properties": {"stop_I": "444", "name": "L.GO TRIONFALE"}, "geometry": {"coordinates": [12.454843, 41.910975], "type": "Point"}, "type": "Feature"}, {"id": "306", "properties": {"stop_I": "445", "name": "GIULIANA/GRAZIOLI LANTE"}, "geometry": {"coordinates": [12.454312, 41.913175], "type": "Point"}, "type": "Feature"}, {"id": "307", "properties": {"stop_I": "446", "name": "GIULIANA/PRETURA"}, "geometry": {"coordinates": [12.453826, 41.915204], "type": "Point"}, "type": "Feature"}, {"id": "308", "properties": {"stop_I": "447", "name": "CLODIO"}, "geometry": {"coordinates": [12.455412, 41.91752], "type": "Point"}, "type": "Feature"}, {"id": "309", "properties": {"stop_I": "448", "name": "GIULIANA/PRETURA"}, "geometry": {"coordinates": [12.453725, 41.915052], "type": "Point"}, "type": "Feature"}, {"id": "310", "properties": {"stop_I": "449", "name": "GIULIANA/GRAZIOLI LANTE"}, "geometry": {"coordinates": [12.454276, 41.912473], "type": "Point"}, "type": "Feature"}, {"id": "311", "properties": {"stop_I": "450", "name": "L.GO TRIONFALE"}, "geometry": {"coordinates": [12.454666, 41.911013], "type": "Point"}, "type": "Feature"}, {"id": "312", "properties": {"stop_I": "451", "name": "VIGNA STELLUTI/FRANCIA"}, "geometry": {"coordinates": [12.467435, 41.947357], "type": "Point"}, "type": "Feature"}, {"id": "313", "properties": {"stop_I": "452", "name": "VIGNA STELLUTI/GIUOCHI DELFICI"}, "geometry": {"coordinates": [12.464029, 41.94806], "type": "Point"}, "type": "Feature"}, {"id": "314", "properties": {"stop_I": "453", "name": "CASSIA/PARETO"}, "geometry": {"coordinates": [12.46047, 41.95062], "type": "Point"}, "type": "Feature"}, {"id": "315", "properties": {"stop_I": "454", "name": "CASSIA/CORTINA D'AMPEZZO"}, "geometry": {"coordinates": [12.457445, 41.952457], "type": "Point"}, "type": "Feature"}, {"id": "316", "properties": {"stop_I": "455", "name": "CASSIA/ORIOLO ROMANO"}, "geometry": {"coordinates": [12.457438, 41.957206], "type": "Point"}, "type": "Feature"}, {"id": "317", "properties": {"stop_I": "456", "name": "CASSIA/CORTINA D'AMPEZZO"}, "geometry": {"coordinates": [12.458079, 41.951889], "type": "Point"}, "type": "Feature"}, {"id": "318", "properties": {"stop_I": "457", "name": "CASSIA/PARETO"}, "geometry": {"coordinates": [12.461377, 41.949835], "type": "Point"}, "type": "Feature"}, {"id": "319", "properties": {"stop_I": "458", "name": "VIGNA STELLUTI"}, "geometry": {"coordinates": [12.464084, 41.947934], "type": "Point"}, "type": "Feature"}, {"id": "320", "properties": {"stop_I": "459", "name": "CINA/FIUME AZZURRO"}, "geometry": {"coordinates": [12.432928, 41.811851], "type": "Point"}, "type": "Feature"}, {"id": "321", "properties": {"stop_I": "460", "name": "TARANTELLI"}, "geometry": {"coordinates": [12.43623, 41.818673], "type": "Point"}, "type": "Feature"}, {"id": "322", "properties": {"stop_I": "461", "name": "ARGENTINA/BOLIVIA"}, "geometry": {"coordinates": [12.476364, 41.932557], "type": "Point"}, "type": "Feature"}, {"id": "323", "properties": {"stop_I": "462", "name": "XVII OLIMPIADE"}, "geometry": {"coordinates": [12.473724, 41.93278], "type": "Point"}, "type": "Feature"}, {"id": "324", "properties": {"stop_I": "463", "name": "XVII OLIMPIADE/AUSTRIA"}, "geometry": {"coordinates": [12.471394, 41.932487], "type": "Point"}, "type": "Feature"}, {"id": "325", "properties": {"stop_I": "464", "name": "UNIONE SOVIETICA"}, "geometry": {"coordinates": [12.47102, 41.930656], "type": "Point"}, "type": "Feature"}, {"id": "326", "properties": {"stop_I": "465", "name": "DE COUBERTIN/AUDITORIUM"}, "geometry": {"coordinates": [12.475751, 41.930178], "type": "Point"}, "type": "Feature"}, {"id": "327", "properties": {"stop_I": "466", "name": "GUIDUBALDO DEL MONTE"}, "geometry": {"coordinates": [12.478769, 41.927937], "type": "Point"}, "type": "Feature"}, {"id": "328", "properties": {"stop_I": "467", "name": "STAZ.NE EUCLIDE"}, "geometry": {"coordinates": [12.481929, 41.927536], "type": "Point"}, "type": "Feature"}, {"id": "329", "properties": {"stop_I": "468", "name": "PARIOLI/ACQUA ACETOSA"}, "geometry": {"coordinates": [12.484395, 41.929598], "type": "Point"}, "type": "Feature"}, {"id": "330", "properties": {"stop_I": "469", "name": "PARIOLI/STUPARICH"}, "geometry": {"coordinates": [12.485918, 41.929053], "type": "Point"}, "type": "Feature"}, {"id": "331", "properties": {"stop_I": "470", "name": "PARIOLI/SANTIAGO DEL CILE"}, "geometry": {"coordinates": [12.486395, 41.926152], "type": "Point"}, "type": "Feature"}, {"id": "332", "properties": {"stop_I": "471", "name": "BIOPARCO/MERCADANTE"}, "geometry": {"coordinates": [12.490936, 41.918517], "type": "Point"}, "type": "Feature"}, {"id": "333", "properties": {"stop_I": "472", "name": "DECIMA/PIANETA TERRA"}, "geometry": {"coordinates": [12.446165, 41.818847], "type": "Point"}, "type": "Feature"}, {"id": "334", "properties": {"stop_I": "473", "name": "TARTINI"}, "geometry": {"coordinates": [12.495382, 41.916356], "type": "Point"}, "type": "Feature"}, {"id": "335", "properties": {"stop_I": "474", "name": "SALARIA/ANIENE"}, "geometry": {"coordinates": [12.497851, 41.911851], "type": "Point"}, "type": "Feature"}, {"id": "336", "properties": {"stop_I": "475", "name": "PIAVE/XX SETTEMBRE"}, "geometry": {"coordinates": [12.498681, 41.907708], "type": "Point"}, "type": "Feature"}, {"id": "337", "properties": {"stop_I": "476", "name": "INDIPENDENZA"}, "geometry": {"coordinates": [12.501936, 41.904705], "type": "Point"}, "type": "Feature"}, {"id": "338", "properties": {"stop_I": "477", "name": "TERMINI (MA-MB-FS)"}, "geometry": {"coordinates": [12.499727, 41.900996], "type": "Point"}, "type": "Feature"}, {"id": "339", "properties": {"stop_I": "478", "name": "S. MARIA MAGGIORE"}, "geometry": {"coordinates": [12.498195, 41.896967], "type": "Point"}, "type": "Feature"}, {"id": "340", "properties": {"stop_I": "479", "name": "CONTE VERDE/P.ZA VITTORIO EMANUELE"}, "geometry": {"coordinates": [12.506173, 41.893442], "type": "Point"}, "type": "Feature"}, {"id": "341", "properties": {"stop_I": "480", "name": "VIA S. CROCE IN GERUSALEMME/MANZONI"}, "geometry": {"coordinates": [12.509209, 41.89175], "type": "Point"}, "type": "Feature"}, {"id": "342", "properties": {"stop_I": "481", "name": "VIA S. CROCE IN GERUSALEMME/STATILIA"}, "geometry": {"coordinates": [12.512244, 41.890073], "type": "Point"}, "type": "Feature"}, {"id": "343", "properties": {"stop_I": "482", "name": "VIA S. CROCE IN GERUSALEMME"}, "geometry": {"coordinates": [12.514318, 41.888872], "type": "Point"}, "type": "Feature"}, {"id": "344", "properties": {"stop_I": "483", "name": "LA SPEZIA/LODI"}, "geometry": {"coordinates": [12.520771, 41.887088], "type": "Point"}, "type": "Feature"}, {"id": "345", "properties": {"stop_I": "484", "name": "ALGHERO"}, "geometry": {"coordinates": [12.521508, 41.886344], "type": "Point"}, "type": "Feature"}, {"id": "346", "properties": {"stop_I": "485", "name": "VILLA FIORELLI"}, "geometry": {"coordinates": [12.522447, 41.884221], "type": "Point"}, "type": "Feature"}, {"id": "347", "properties": {"stop_I": "486", "name": "PIANETA TERRA/PIANETA GIOVE"}, "geometry": {"coordinates": [12.44501, 41.817432], "type": "Point"}, "type": "Feature"}, {"id": "348", "properties": {"stop_I": "487", "name": "LEPANTO (MA)"}, "geometry": {"coordinates": [12.465744, 41.911844], "type": "Point"}, "type": "Feature"}, {"id": "349", "properties": {"stop_I": "488", "name": "PIANETA SATURNO"}, "geometry": {"coordinates": [12.444784, 41.815939], "type": "Point"}, "type": "Feature"}, {"id": "350", "properties": {"stop_I": "489", "name": "CICERONE/PLINIO"}, "geometry": {"coordinates": [12.468343, 41.907556], "type": "Point"}, "type": "Feature"}, {"id": "351", "properties": {"stop_I": "490", "name": "CICERONE/CAVOUR"}, "geometry": {"coordinates": [12.469165, 41.906095], "type": "Point"}, "type": "Feature"}, {"id": "352", "properties": {"stop_I": "491", "name": "VITTORIA COLONNA"}, "geometry": {"coordinates": [12.472306, 41.905019], "type": "Point"}, "type": "Feature"}, {"id": "353", "properties": {"stop_I": "492", "name": "RIPETTA"}, "geometry": {"coordinates": [12.475226, 41.904049], "type": "Point"}, "type": "Feature"}, {"id": "354", "properties": {"stop_I": "493", "name": "MONTE BRIANZO"}, "geometry": {"coordinates": [12.474041, 41.902802], "type": "Point"}, "type": "Feature"}, {"id": "355", "properties": {"stop_I": "494", "name": "COSTELLAZIONI/PIANETA GIOVE"}, "geometry": {"coordinates": [12.446617, 41.81511], "type": "Point"}, "type": "Feature"}, {"id": "356", "properties": {"stop_I": "495", "name": "RINASCIMENTO"}, "geometry": {"coordinates": [12.473921, 41.897997], "type": "Point"}, "type": "Feature"}, {"id": "357", "properties": {"stop_I": "496", "name": "COSTELLAZIONI/ORSA MAGGIORE"}, "geometry": {"coordinates": [12.449387, 41.814708], "type": "Point"}, "type": "Feature"}, {"id": "358", "properties": {"stop_I": "497", "name": "ESQUILINO/CAVOUR"}, "geometry": {"coordinates": [12.496627, 41.898418], "type": "Point"}, "type": "Feature"}, {"id": "359", "properties": {"stop_I": "498", "name": "RATTAZZI/GIOLITTI"}, "geometry": {"coordinates": [12.503705, 41.898068], "type": "Point"}, "type": "Feature"}, {"id": "360", "properties": {"stop_I": "499", "name": "RATTAZZI/NAPOLEONE III"}, "geometry": {"coordinates": [12.501978, 41.896345], "type": "Point"}, "type": "Feature"}, {"id": "361", "properties": {"stop_I": "500", "name": "DE LOLLIS/IRPINI"}, "geometry": {"coordinates": [12.515708, 41.900984], "type": "Point"}, "type": "Feature"}, {"id": "362", "properties": {"stop_I": "501", "name": "MARRUCINI"}, "geometry": {"coordinates": [12.513981, 41.899931], "type": "Point"}, "type": "Feature"}, {"id": "363", "properties": {"stop_I": "502", "name": "TIBURTINA/MARRUCINI"}, "geometry": {"coordinates": [12.513926, 41.898216], "type": "Point"}, "type": "Feature"}, {"id": "364", "properties": {"stop_I": "503", "name": "DECIMA/COMETE"}, "geometry": {"coordinates": [12.4538, 41.81073], "type": "Point"}, "type": "Feature"}, {"id": "365", "properties": {"stop_I": "504", "name": "MARSALA"}, "geometry": {"coordinates": [12.507985, 41.898893], "type": "Point"}, "type": "Feature"}, {"id": "366", "properties": {"stop_I": "505", "name": "CAVOUR/ESQUILINO"}, "geometry": {"coordinates": [12.496662, 41.897982], "type": "Point"}, "type": "Feature"}, {"id": "367", "properties": {"stop_I": "506", "name": "PANISPERNA"}, "geometry": {"coordinates": [12.494583, 41.897167], "type": "Point"}, "type": "Feature"}, {"id": "368", "properties": {"stop_I": "507", "name": "MILANO"}, "geometry": {"coordinates": [12.492502, 41.897093], "type": "Point"}, "type": "Feature"}, {"id": "369", "properties": {"stop_I": "508", "name": "MILANO/NAZIONALE"}, "geometry": {"coordinates": [12.490817, 41.8985], "type": "Point"}, "type": "Feature"}, {"id": "370", "properties": {"stop_I": "509", "name": "TRITONE/FONTANA TREVI"}, "geometry": {"coordinates": [12.484624, 41.902673], "type": "Point"}, "type": "Feature"}, {"id": "371", "properties": {"stop_I": "510", "name": "TRAFORO/TRITONE"}, "geometry": {"coordinates": [12.486187, 41.902197], "type": "Point"}, "type": "Feature"}, {"id": "372", "properties": {"stop_I": "511", "name": "MILANO/NAZIONALE"}, "geometry": {"coordinates": [12.489735, 41.89918], "type": "Point"}, "type": "Feature"}, {"id": "373", "properties": {"stop_I": "512", "name": "DECIMA/COMETE"}, "geometry": {"coordinates": [12.453863, 41.809676], "type": "Point"}, "type": "Feature"}, {"id": "374", "properties": {"stop_I": "513", "name": "TROIANI/DECIMA"}, "geometry": {"coordinates": [12.451795, 41.812969], "type": "Point"}, "type": "Feature"}, {"id": "375", "properties": {"stop_I": "514", "name": "TROIANI/COSTELLAZIONI"}, "geometry": {"coordinates": [12.450555, 41.812438], "type": "Point"}, "type": "Feature"}, {"id": "376", "properties": {"stop_I": "515", "name": "COSTELLAZIONI/ORSA MAGGIORE"}, "geometry": {"coordinates": [12.448949, 41.815168], "type": "Point"}, "type": "Feature"}, {"id": "377", "properties": {"stop_I": "516", "name": "TIBURTINA/MARRUCINI"}, "geometry": {"coordinates": [12.515495, 41.898905], "type": "Point"}, "type": "Feature"}, {"id": "378", "properties": {"stop_I": "517", "name": "TIBURTINA/RETI"}, "geometry": {"coordinates": [12.516821, 41.899575], "type": "Point"}, "type": "Feature"}, {"id": "379", "properties": {"stop_I": "518", "name": "INDIPENDENZA"}, "geometry": {"coordinates": [12.502842, 41.904177], "type": "Point"}, "type": "Feature"}, {"id": "380", "properties": {"stop_I": "519", "name": "PIANETA GIOVE"}, "geometry": {"coordinates": [12.446649, 41.815539], "type": "Point"}, "type": "Feature"}, {"id": "381", "properties": {"stop_I": "520", "name": "PIANETA TERRA/PIANETA GIOVE"}, "geometry": {"coordinates": [12.445236, 41.817376], "type": "Point"}, "type": "Feature"}, {"id": "382", "properties": {"stop_I": "521", "name": "DANDOLO/GLORIOSO"}, "geometry": {"coordinates": [12.468063, 41.884268], "type": "Point"}, "type": "Feature"}, {"id": "383", "properties": {"stop_I": "522", "name": "DANDOLO"}, "geometry": {"coordinates": [12.466512, 41.885251], "type": "Point"}, "type": "Feature"}, {"id": "384", "properties": {"stop_I": "523", "name": "FABRIZI"}, "geometry": {"coordinates": [12.464785, 41.886238], "type": "Point"}, "type": "Feature"}, {"id": "385", "properties": {"stop_I": "524", "name": "CALANDRELLI"}, "geometry": {"coordinates": [12.463012, 41.88502], "type": "Point"}, "type": "Feature"}, {"id": "386", "properties": {"stop_I": "525", "name": "PIANETA TERRA/DECIMA"}, "geometry": {"coordinates": [12.446548, 41.818292], "type": "Point"}, "type": "Feature"}, {"id": "387", "properties": {"stop_I": "526", "name": "CARINI/PILO"}, "geometry": {"coordinates": [12.460705, 41.882304], "type": "Point"}, "type": "Feature"}, {"id": "388", "properties": {"stop_I": "527", "name": "BARRILI"}, "geometry": {"coordinates": [12.460577, 41.879826], "type": "Point"}, "type": "Feature"}, {"id": "389", "properties": {"stop_I": "528", "name": "POERIO"}, "geometry": {"coordinates": [12.461113, 41.876092], "type": "Point"}, "type": "Feature"}, {"id": "390", "properties": {"stop_I": "529", "name": "POERIO/F.LLI BANDIERA"}, "geometry": {"coordinates": [12.463343, 41.880647], "type": "Point"}, "type": "Feature"}, {"id": "391", "properties": {"stop_I": "530", "name": "POERIO/DALL'ONGARO"}, "geometry": {"coordinates": [12.463139, 41.878132], "type": "Point"}, "type": "Feature"}, {"id": "392", "properties": {"stop_I": "531", "name": "QUADRIO"}, "geometry": {"coordinates": [12.461272, 41.881881], "type": "Point"}, "type": "Feature"}, {"id": "393", "properties": {"stop_I": "532", "name": "BONNET/CARINI"}, "geometry": {"coordinates": [12.461361, 41.885038], "type": "Point"}, "type": "Feature"}, {"id": "394", "properties": {"stop_I": "533", "name": "DANDOLO/FABRIZI"}, "geometry": {"coordinates": [12.465635, 41.886195], "type": "Point"}, "type": "Feature"}, {"id": "395", "properties": {"stop_I": "534", "name": "DANDOLO/CASINI"}, "geometry": {"coordinates": [12.466449, 41.883477], "type": "Point"}, "type": "Feature"}, {"id": "396", "properties": {"stop_I": "535", "name": "GRANDE MURAGLIA/OCEANO PACIFICO"}, "geometry": {"coordinates": [12.45592, 41.823697], "type": "Point"}, "type": "Feature"}, {"id": "397", "properties": {"stop_I": "536", "name": "GRANDE MURAGLIA/ROTTERDAM"}, "geometry": {"coordinates": [12.454167, 41.820532], "type": "Point"}, "type": "Feature"}, {"id": "398", "properties": {"stop_I": "537", "name": "GRANDE MURAGLIA/SIVIGLIA"}, "geometry": {"coordinates": [12.451469, 41.819046], "type": "Point"}, "type": "Feature"}, {"id": "399", "properties": {"stop_I": "538", "name": "GATTAMELATA/CANE"}, "geometry": {"coordinates": [12.536681, 41.888295], "type": "Point"}, "type": "Feature"}, {"id": "400", "properties": {"stop_I": "539", "name": "GATTAMELATA/DI BASTELICA"}, "geometry": {"coordinates": [12.536628, 41.890049], "type": "Point"}, "type": "Feature"}, {"id": "401", "properties": {"stop_I": "540", "name": "GRANDE MURAGLIA/DECIMA"}, "geometry": {"coordinates": [12.447505, 41.816722], "type": "Point"}, "type": "Feature"}, {"id": "402", "properties": {"stop_I": "541", "name": "P.LE PRENESTINO"}, "geometry": {"coordinates": [12.527617, 41.891364], "type": "Point"}, "type": "Feature"}, {"id": "403", "properties": {"stop_I": "542", "name": "AQUILA"}, "geometry": {"coordinates": [12.52541, 41.890648], "type": "Point"}, "type": "Feature"}, {"id": "404", "properties": {"stop_I": "543", "name": "PONTE CASILINO"}, "geometry": {"coordinates": [12.523006, 41.889265], "type": "Point"}, "type": "Feature"}, {"id": "405", "properties": {"stop_I": "544", "name": "LA SPEZIA/LODI"}, "geometry": {"coordinates": [12.519805, 41.887061], "type": "Point"}, "type": "Feature"}, {"id": "406", "properties": {"stop_I": "545", "name": "PORTA S. GIOVANNI (MA)"}, "geometry": {"coordinates": [12.509009, 41.886329], "type": "Point"}, "type": "Feature"}, {"id": "407", "properties": {"stop_I": "546", "name": "COLOSSEO (MB)"}, "geometry": {"coordinates": [12.49146, 41.891258], "type": "Point"}, "type": "Feature"}, {"id": "408", "properties": {"stop_I": "547", "name": "FORI IMPERIALI"}, "geometry": {"coordinates": [12.486485, 41.893658], "type": "Point"}, "type": "Feature"}, {"id": "409", "properties": {"stop_I": "548", "name": "FORI IMPERIALI/CAMPIDOGLIO"}, "geometry": {"coordinates": [12.484179, 41.894988], "type": "Point"}, "type": "Feature"}, {"id": "410", "properties": {"stop_I": "549", "name": "LGT MARZIO/PORTO DI RIPETTA"}, "geometry": {"coordinates": [12.474901, 41.904252], "type": "Point"}, "type": "Feature"}, {"id": "411", "properties": {"stop_I": "550", "name": "P.ZA COLA DI RIENZO"}, "geometry": {"coordinates": [12.467078, 41.908452], "type": "Point"}, "type": "Feature"}, {"id": "412", "properties": {"stop_I": "551", "name": "COLA DI RIENZO/REGOLO"}, "geometry": {"coordinates": [12.464622, 41.907869], "type": "Point"}, "type": "Feature"}, {"id": "413", "properties": {"stop_I": "552", "name": "COLA DI RIENZO/TERENZIO"}, "geometry": {"coordinates": [12.462357, 41.907314], "type": "Point"}, "type": "Feature"}, {"id": "414", "properties": {"stop_I": "553", "name": "COLA DI RIENZO/CATONE"}, "geometry": {"coordinates": [12.459467, 41.906575], "type": "Point"}, "type": "Feature"}, {"id": "415", "properties": {"stop_I": "554", "name": "RISORGIMENTO"}, "geometry": {"coordinates": [12.458375, 41.906181], "type": "Point"}, "type": "Feature"}, {"id": "416", "properties": {"stop_I": "555", "name": "COLA DI RIENZO/CATONE"}, "geometry": {"coordinates": [12.459547, 41.906481], "type": "Point"}, "type": "Feature"}, {"id": "417", "properties": {"stop_I": "556", "name": "COLA DI RIENZO/TERENZIO"}, "geometry": {"coordinates": [12.463483, 41.907406], "type": "Point"}, "type": "Feature"}, {"id": "418", "properties": {"stop_I": "557", "name": "COLA DI RIENZO/TACITO"}, "geometry": {"coordinates": [12.466532, 41.908183], "type": "Point"}, "type": "Feature"}, {"id": "419", "properties": {"stop_I": "558", "name": "MARIA ADELAIDE"}, "geometry": {"coordinates": [12.474345, 41.909806], "type": "Point"}, "type": "Feature"}, {"id": "420", "properties": {"stop_I": "559", "name": "PASSEGGIATA RIPETTA"}, "geometry": {"coordinates": [12.474259, 41.908838], "type": "Point"}, "type": "Feature"}, {"id": "421", "properties": {"stop_I": "560", "name": "AUGUSTO IMPERATORE"}, "geometry": {"coordinates": [12.477298, 41.905312], "type": "Point"}, "type": "Feature"}, {"id": "422", "properties": {"stop_I": "561", "name": "TOMACELLI"}, "geometry": {"coordinates": [12.477738, 41.904595], "type": "Point"}, "type": "Feature"}, {"id": "423", "properties": {"stop_I": "562", "name": "CORSO/L.GO CHIGI"}, "geometry": {"coordinates": [12.479963, 41.901825], "type": "Point"}, "type": "Feature"}, {"id": "424", "properties": {"stop_I": "563", "name": "GRANDE MURAGLIA/PIANETA SATURNO"}, "geometry": {"coordinates": [12.444626, 41.81495], "type": "Point"}, "type": "Feature"}, {"id": "425", "properties": {"stop_I": "564", "name": "CAVOUR/RICCI"}, "geometry": {"coordinates": [12.488968, 41.89364], "type": "Point"}, "type": "Feature"}, {"id": "426", "properties": {"stop_I": "565", "name": "FORI IMPERIALI"}, "geometry": {"coordinates": [12.486877, 41.893321], "type": "Point"}, "type": "Feature"}, {"id": "427", "properties": {"stop_I": "566", "name": "GRANDE MURAGLIA/PIANETA SATURNO"}, "geometry": {"coordinates": [12.44473, 41.814748], "type": "Point"}, "type": "Feature"}, {"id": "428", "properties": {"stop_I": "567", "name": "LABICANA/COLOSSEO"}, "geometry": {"coordinates": [12.495126, 41.890237], "type": "Point"}, "type": "Feature"}, {"id": "429", "properties": {"stop_I": "568", "name": "LABICANA/MERULANA"}, "geometry": {"coordinates": [12.502846, 41.889103], "type": "Point"}, "type": "Feature"}, {"id": "430", "properties": {"stop_I": "569", "name": "GRANDE MURAGLIA/DECIMA"}, "geometry": {"coordinates": [12.447657, 41.81657], "type": "Point"}, "type": "Feature"}, {"id": "431", "properties": {"stop_I": "570", "name": "PORTA S. GIOVANNI (MA)"}, "geometry": {"coordinates": [12.508507, 41.886688], "type": "Point"}, "type": "Feature"}, {"id": "432", "properties": {"stop_I": "571", "name": "P.LE APPIO (MA)"}, "geometry": {"coordinates": [12.509949, 41.88524], "type": "Point"}, "type": "Feature"}, {"id": "433", "properties": {"stop_I": "572", "name": "PONTE CASILINO"}, "geometry": {"coordinates": [12.522559, 41.888424], "type": "Point"}, "type": "Feature"}, {"id": "434", "properties": {"stop_I": "573", "name": "CASILINA/S. ELENA"}, "geometry": {"coordinates": [12.526014, 41.887139], "type": "Point"}, "type": "Feature"}, {"id": "435", "properties": {"stop_I": "574", "name": "GRANDE MURAGLIA/SIVIGLIA"}, "geometry": {"coordinates": [12.451353, 41.818722], "type": "Point"}, "type": "Feature"}, {"id": "436", "properties": {"stop_I": "575", "name": "GRANDE MURAGLIA/ROTTERDAM"}, "geometry": {"coordinates": [12.454535, 41.820438], "type": "Point"}, "type": "Feature"}, {"id": "437", "properties": {"stop_I": "576", "name": "PRENESTINA/GIOVENALE"}, "geometry": {"coordinates": [12.531574, 41.891858], "type": "Point"}, "type": "Feature"}, {"id": "438", "properties": {"stop_I": "577", "name": "PRENESTINA/GIUSSANO"}, "geometry": {"coordinates": [12.534657, 41.892168], "type": "Point"}, "type": "Feature"}, {"id": "439", "properties": {"stop_I": "578", "name": "DAL VERME/GATTAMELATA"}, "geometry": {"coordinates": [12.537158, 41.888601], "type": "Point"}, "type": "Feature"}, {"id": "440", "properties": {"stop_I": "579", "name": "DAL VERME/DEGLI UBERTINI"}, "geometry": {"coordinates": [12.539621, 41.888592], "type": "Point"}, "type": "Feature"}, {"id": "441", "properties": {"stop_I": "580", "name": "GRANDE MURAGLIA/OCEANO PACIFICO"}, "geometry": {"coordinates": [12.456302, 41.823779], "type": "Point"}, "type": "Feature"}, {"id": "442", "properties": {"stop_I": "581", "name": "P.ZA VENEZIA"}, "geometry": {"coordinates": [12.482038, 41.895989], "type": "Point"}, "type": "Feature"}, {"id": "443", "properties": {"stop_I": "582", "name": "ARDEATINA/CECCHIGNOLA"}, "geometry": {"coordinates": [12.5195, 41.822154], "type": "Point"}, "type": "Feature"}, {"id": "444", "properties": {"stop_I": "583", "name": "S. GIOVANNI IN LATERANO/S. CLEMENTE"}, "geometry": {"coordinates": [12.498453, 41.888698], "type": "Point"}, "type": "Feature"}, {"id": "445", "properties": {"stop_I": "584", "name": "S. GIOVANNI IN LATERANO"}, "geometry": {"coordinates": [12.500357, 41.888126], "type": "Point"}, "type": "Feature"}, {"id": "446", "properties": {"stop_I": "585", "name": "PZA S. GIOVANNI IN LATERANO (H)"}, "geometry": {"coordinates": [12.504399, 41.887012], "type": "Point"}, "type": "Feature"}, {"id": "447", "properties": {"stop_I": "586", "name": "PORTA S. GIOVANNI (MA)"}, "geometry": {"coordinates": [12.507857, 41.886403], "type": "Point"}, "type": "Feature"}, {"id": "448", "properties": {"stop_I": "587", "name": "TARANTO/PONTREMOLI"}, "geometry": {"coordinates": [12.51258, 41.88498], "type": "Point"}, "type": "Feature"}, {"id": "449", "properties": {"stop_I": "588", "name": "TARANTO/AOSTA"}, "geometry": {"coordinates": [12.515427, 41.884332], "type": "Point"}, "type": "Feature"}, {"id": "450", "properties": {"stop_I": "589", "name": "TARANTO/CASALMAGGIORE"}, "geometry": {"coordinates": [12.517725, 41.883805], "type": "Point"}, "type": "Feature"}, {"id": "451", "properties": {"stop_I": "590", "name": "TARANTO/LUGO"}, "geometry": {"coordinates": [12.521015, 41.882881], "type": "Point"}, "type": "Feature"}, {"id": "452", "properties": {"stop_I": "591", "name": "RAGUSA"}, "geometry": {"coordinates": [12.522261, 41.881759], "type": "Point"}, "type": "Feature"}, {"id": "453", "properties": {"stop_I": "592", "name": "MONSELICE/STAZIONE TUSCOLANA"}, "geometry": {"coordinates": [12.522428, 41.87994], "type": "Point"}, "type": "Feature"}, {"id": "454", "properties": {"stop_I": "593", "name": "TUSCOLANA/GELA"}, "geometry": {"coordinates": [12.522111, 41.879098], "type": "Point"}, "type": "Feature"}, {"id": "455", "properties": {"stop_I": "594", "name": "TUSCOLANA/AMELIA"}, "geometry": {"coordinates": [12.524655, 41.877455], "type": "Point"}, "type": "Feature"}, {"id": "456", "properties": {"stop_I": "595", "name": "TUSCOLANA/CLELIA"}, "geometry": {"coordinates": [12.528195, 41.874967], "type": "Point"}, "type": "Feature"}, {"id": "457", "properties": {"stop_I": "596", "name": "S. M. AUSILIATRICE"}, "geometry": {"coordinates": [12.529869, 41.873784], "type": "Point"}, "type": "Feature"}, {"id": "458", "properties": {"stop_I": "597", "name": "VOLUMNIA"}, "geometry": {"coordinates": [12.53283, 41.872207], "type": "Point"}, "type": "Feature"}, {"id": "459", "properties": {"stop_I": "598", "name": "ALBANO"}, "geometry": {"coordinates": [12.532537, 41.869993], "type": "Point"}, "type": "Feature"}, {"id": "460", "properties": {"stop_I": "599", "name": "ARDEATINA/CECCHIGNOLA"}, "geometry": {"coordinates": [12.519101, 41.822931], "type": "Point"}, "type": "Feature"}, {"id": "461", "properties": {"stop_I": "600", "name": "NUMITORE"}, "geometry": {"coordinates": [12.52973, 41.872068], "type": "Point"}, "type": "Feature"}, {"id": "462", "properties": {"stop_I": "601", "name": "S. M. AUSILIATRICE"}, "geometry": {"coordinates": [12.530884, 41.87356], "type": "Point"}, "type": "Feature"}, {"id": "463", "properties": {"stop_I": "602", "name": "TUSCOLANA/CLELIA"}, "geometry": {"coordinates": [12.527347, 41.875821], "type": "Point"}, "type": "Feature"}, {"id": "464", "properties": {"stop_I": "603", "name": "TUSCOLANA/AMELIA"}, "geometry": {"coordinates": [12.524683, 41.877623], "type": "Point"}, "type": "Feature"}, {"id": "465", "properties": {"stop_I": "604", "name": "TUSCOLANA/ASSISI"}, "geometry": {"coordinates": [12.523574, 41.87841], "type": "Point"}, "type": "Feature"}, {"id": "466", "properties": {"stop_I": "605", "name": "MONSELICE/STAZIONE TUSCOLANA"}, "geometry": {"coordinates": [12.522752, 41.879973], "type": "Point"}, "type": "Feature"}, {"id": "467", "properties": {"stop_I": "606", "name": "ADRIA"}, "geometry": {"coordinates": [12.520052, 41.8776], "type": "Point"}, "type": "Feature"}, {"id": "468", "properties": {"stop_I": "607", "name": "GELA"}, "geometry": {"coordinates": [12.519767, 41.878153], "type": "Point"}, "type": "Feature"}, {"id": "469", "properties": {"stop_I": "608", "name": "RAGUSA"}, "geometry": {"coordinates": [12.522911, 41.881846], "type": "Point"}, "type": "Feature"}, {"id": "470", "properties": {"stop_I": "609", "name": "OLEVANO ROMANO"}, "geometry": {"coordinates": [12.555265, 41.892167], "type": "Point"}, "type": "Feature"}, {"id": "471", "properties": {"stop_I": "610", "name": "TARANTO/CASALMAGGIORE"}, "geometry": {"coordinates": [12.516768, 41.884134], "type": "Point"}, "type": "Feature"}, {"id": "472", "properties": {"stop_I": "611", "name": "RAGUSA"}, "geometry": {"coordinates": [12.523198, 41.881654], "type": "Point"}, "type": "Feature"}, {"id": "473", "properties": {"stop_I": "612", "name": "TARANTO/MONZA"}, "geometry": {"coordinates": [12.514644, 41.884632], "type": "Point"}, "type": "Feature"}, {"id": "474", "properties": {"stop_I": "613", "name": "VILLA FIORELLI"}, "geometry": {"coordinates": [12.522787, 41.884105], "type": "Point"}, "type": "Feature"}, {"id": "475", "properties": {"stop_I": "614", "name": "RIMINI"}, "geometry": {"coordinates": [12.512198, 41.884503], "type": "Point"}, "type": "Feature"}, {"id": "476", "properties": {"stop_I": "615", "name": "ALGHERO"}, "geometry": {"coordinates": [12.521607, 41.886522], "type": "Point"}, "type": "Feature"}, {"id": "477", "properties": {"stop_I": "616", "name": "P.LE APPIO (MA)"}, "geometry": {"coordinates": [12.510346, 41.885156], "type": "Point"}, "type": "Feature"}, {"id": "478", "properties": {"stop_I": "617", "name": "VEIENTANA VETERE/ROMANENGO"}, "geometry": {"coordinates": [12.488758, 41.988959], "type": "Point"}, "type": "Feature"}, {"id": "479", "properties": {"stop_I": "618", "name": "P.ZA S. GIOVANNI IN LATERANO (H)"}, "geometry": {"coordinates": [12.505061, 41.887271], "type": "Point"}, "type": "Feature"}, {"id": "480", "properties": {"stop_I": "619", "name": "MONZA/LA SPEZIA"}, "geometry": {"coordinates": [12.51555, 41.885927], "type": "Point"}, "type": "Feature"}, {"id": "481", "properties": {"stop_I": "620", "name": "VIA S. CROCE IN GERUSALEMME/STATILIA"}, "geometry": {"coordinates": [12.511295, 41.890769], "type": "Point"}, "type": "Feature"}, {"id": "482", "properties": {"stop_I": "621", "name": "CONTE VERDE/MANZONI"}, "geometry": {"coordinates": [12.508354, 41.892394], "type": "Point"}, "type": "Feature"}, {"id": "483", "properties": {"stop_I": "622", "name": "CONTE VERDE/P.ZA VITTORIO EMANUELE"}, "geometry": {"coordinates": [12.506346, 41.893501], "type": "Point"}, "type": "Feature"}, {"id": "484", "properties": {"stop_I": "623", "name": "P.ZA VITTORIO EMANUELE (MA)"}, "geometry": {"coordinates": [12.502027, 41.895909], "type": "Point"}, "type": "Feature"}, {"id": "485", "properties": {"stop_I": "624", "name": "CARLO ALBERTO"}, "geometry": {"coordinates": [12.500074, 41.896929], "type": "Point"}, "type": "Feature"}, {"id": "486", "properties": {"stop_I": "625", "name": "GIOBERTI"}, "geometry": {"coordinates": [12.501364, 41.899497], "type": "Point"}, "type": "Feature"}, {"id": "487", "properties": {"stop_I": "626", "name": "MAZZOLARI/FOLLEREAU"}, "geometry": {"coordinates": [12.678013, 41.892298], "type": "Point"}, "type": "Feature"}, {"id": "488", "properties": {"stop_I": "627", "name": "CRIVELLUCCI"}, "geometry": {"coordinates": [12.525772, 41.868323], "type": "Point"}, "type": "Feature"}, {"id": "489", "properties": {"stop_I": "628", "name": "FORTIFIOCCA/DENINA"}, "geometry": {"coordinates": [12.522685, 41.870739], "type": "Point"}, "type": "Feature"}, {"id": "490", "properties": {"stop_I": "629", "name": "TERMINI (MA-MB-FS)"}, "geometry": {"coordinates": [12.499102, 41.901517], "type": "Point"}, "type": "Feature"}, {"id": "491", "properties": {"stop_I": "630", "name": "VOLTURNO/GAETA"}, "geometry": {"coordinates": [12.500355, 41.904027], "type": "Point"}, "type": "Feature"}, {"id": "492", "properties": {"stop_I": "631", "name": "VOLTURNO/CERNAIA"}, "geometry": {"coordinates": [12.498911, 41.905172], "type": "Point"}, "type": "Feature"}, {"id": "493", "properties": {"stop_I": "632", "name": "BACCARINI/PAPI"}, "geometry": {"coordinates": [12.517213, 41.873528], "type": "Point"}, "type": "Feature"}, {"id": "494", "properties": {"stop_I": "633", "name": "GOITO/XX SETTEMBRE"}, "geometry": {"coordinates": [12.499224, 41.907052], "type": "Point"}, "type": "Feature"}, {"id": "495", "properties": {"stop_I": "634", "name": "FIUME"}, "geometry": {"coordinates": [12.4982, 41.910887], "type": "Point"}, "type": "Feature"}, {"id": "496", "properties": {"stop_I": "635", "name": "BACCARINI/C.NE APPIA"}, "geometry": {"coordinates": [12.516728, 41.875607], "type": "Point"}, "type": "Feature"}, {"id": "497", "properties": {"stop_I": "636", "name": "DON ORIONE"}, "geometry": {"coordinates": [12.515125, 41.878504], "type": "Point"}, "type": "Feature"}, {"id": "498", "properties": {"stop_I": "637", "name": "ALBALONGA"}, "geometry": {"coordinates": [12.513187, 41.879408], "type": "Point"}, "type": "Feature"}, {"id": "499", "properties": {"stop_I": "638", "name": "CENEDA"}, "geometry": {"coordinates": [12.510927, 41.880673], "type": "Point"}, "type": "Feature"}, {"id": "500", "properties": {"stop_I": "639", "name": "MAGNA GRECIA/TUSCOLO"}, "geometry": {"coordinates": [12.50822, 41.881008], "type": "Point"}, "type": "Feature"}, {"id": "501", "properties": {"stop_I": "640", "name": "PAISIELLO/MONTEVERDI"}, "geometry": {"coordinates": [12.493558, 41.917831], "type": "Point"}, "type": "Feature"}, {"id": "502", "properties": {"stop_I": "641", "name": "FALERIA"}, "geometry": {"coordinates": [12.510814, 41.883285], "type": "Point"}, "type": "Feature"}, {"id": "503", "properties": {"stop_I": "642", "name": "PAISIELLO/BELLINI"}, "geometry": {"coordinates": [12.492657, 41.919777], "type": "Point"}, "type": "Feature"}, {"id": "504", "properties": {"stop_I": "643", "name": "BERTOLONI"}, "geometry": {"coordinates": [12.491446, 41.92124], "type": "Point"}, "type": "Feature"}, {"id": "505", "properties": {"stop_I": "644", "name": "PARIOLI/UNGHERIA"}, "geometry": {"coordinates": [12.491247, 41.923525], "type": "Point"}, "type": "Feature"}, {"id": "506", "properties": {"stop_I": "645", "name": "PARIOLI/OXILIA"}, "geometry": {"coordinates": [12.489592, 41.925115], "type": "Point"}, "type": "Feature"}, {"id": "507", "properties": {"stop_I": "646", "name": "SANTIAGO DEL CILE"}, "geometry": {"coordinates": [12.48733, 41.925777], "type": "Point"}, "type": "Feature"}, {"id": "508", "properties": {"stop_I": "647", "name": "PARIOLI/STUPARICH"}, "geometry": {"coordinates": [12.486055, 41.929002], "type": "Point"}, "type": "Feature"}, {"id": "509", "properties": {"stop_I": "648", "name": "PARCO RIMEMBRANZA"}, "geometry": {"coordinates": [12.480025, 41.928427], "type": "Point"}, "type": "Feature"}, {"id": "510", "properties": {"stop_I": "649", "name": "DE COUBERTIN"}, "geometry": {"coordinates": [12.476578, 41.930763], "type": "Point"}, "type": "Feature"}, {"id": "511", "properties": {"stop_I": "650", "name": "SALVINI"}, "geometry": {"coordinates": [12.493025, 41.929358], "type": "Point"}, "type": "Feature"}, {"id": "512", "properties": {"stop_I": "651", "name": "MUSE"}, "geometry": {"coordinates": [12.490286, 41.930329], "type": "Point"}, "type": "Feature"}, {"id": "513", "properties": {"stop_I": "652", "name": "DIGIONE"}, "geometry": {"coordinates": [12.491086, 41.927591], "type": "Point"}, "type": "Feature"}, {"id": "514", "properties": {"stop_I": "653", "name": "VILLA S. FILIPPO"}, "geometry": {"coordinates": [12.492713, 41.927032], "type": "Point"}, "type": "Feature"}, {"id": "515", "properties": {"stop_I": "654", "name": "ROMANIA"}, "geometry": {"coordinates": [12.492829, 41.924543], "type": "Point"}, "type": "Feature"}, {"id": "516", "properties": {"stop_I": "655", "name": "UNGHERIA"}, "geometry": {"coordinates": [12.49241, 41.923228], "type": "Point"}, "type": "Feature"}, {"id": "517", "properties": {"stop_I": "656", "name": "GUIDO D'AREZZO"}, "geometry": {"coordinates": [12.493176, 41.920839], "type": "Point"}, "type": "Feature"}, {"id": "518", "properties": {"stop_I": "657", "name": "BELLINI"}, "geometry": {"coordinates": [12.49497, 41.920242], "type": "Point"}, "type": "Feature"}, {"id": "519", "properties": {"stop_I": "658", "name": "ZANARDELLI"}, "geometry": {"coordinates": [12.472219, 41.900998], "type": "Point"}, "type": "Feature"}, {"id": "520", "properties": {"stop_I": "659", "name": "CIMAROSA"}, "geometry": {"coordinates": [12.496682, 41.919534], "type": "Point"}, "type": "Feature"}, {"id": "521", "properties": {"stop_I": "660", "name": "SALARIA/ADDA"}, "geometry": {"coordinates": [12.497235, 41.914516], "type": "Point"}, "type": "Feature"}, {"id": "522", "properties": {"stop_I": "661", "name": "COLOSSEO (MB)"}, "geometry": {"coordinates": [12.491594, 41.891062], "type": "Point"}, "type": "Feature"}, {"id": "523", "properties": {"stop_I": "662", "name": "MERULANA/S. GIOVANNI"}, "geometry": {"coordinates": [12.504049, 41.888051], "type": "Point"}, "type": "Feature"}, {"id": "524", "properties": {"stop_I": "663", "name": "MAGNA GRECIA (MA)"}, "geometry": {"coordinates": [12.509223, 41.884407], "type": "Point"}, "type": "Feature"}, {"id": "525", "properties": {"stop_I": "664", "name": "MAGNA GRECIA/TUSCOLO"}, "geometry": {"coordinates": [12.508098, 41.881207], "type": "Point"}, "type": "Feature"}, {"id": "526", "properties": {"stop_I": "665", "name": "ETRURIA/TUSCOLO"}, "geometry": {"coordinates": [12.50922, 41.879777], "type": "Point"}, "type": "Feature"}, {"id": "527", "properties": {"stop_I": "666", "name": "ETRURIA/ALBALONGA"}, "geometry": {"coordinates": [12.511891, 41.879137], "type": "Point"}, "type": "Feature"}, {"id": "528", "properties": {"stop_I": "667", "name": "EMANUELE FILIBERTO/DANTE"}, "geometry": {"coordinates": [12.505537, 41.892467], "type": "Point"}, "type": "Feature"}, {"id": "529", "properties": {"stop_I": "668", "name": "L.GO DON ORIONE"}, "geometry": {"coordinates": [12.515798, 41.878198], "type": "Point"}, "type": "Feature"}, {"id": "530", "properties": {"stop_I": "669", "name": "MANZONI (MA)"}, "geometry": {"coordinates": [12.506943, 41.889707], "type": "Point"}, "type": "Feature"}, {"id": "531", "properties": {"stop_I": "670", "name": "BACCARINI/C.NE APPIA"}, "geometry": {"coordinates": [12.516516, 41.875847], "type": "Point"}, "type": "Feature"}, {"id": "532", "properties": {"stop_I": "671", "name": "MAZZOLARI/FOLLEREAU"}, "geometry": {"coordinates": [12.677696, 41.892328], "type": "Point"}, "type": "Feature"}, {"id": "533", "properties": {"stop_I": "672", "name": "EPIRO"}, "geometry": {"coordinates": [12.504846, 41.877719], "type": "Point"}, "type": "Feature"}, {"id": "534", "properties": {"stop_I": "673", "name": "LATINA"}, "geometry": {"coordinates": [12.504241, 41.875589], "type": "Point"}, "type": "Feature"}, {"id": "535", "properties": {"stop_I": "674", "name": "ACAIA"}, "geometry": {"coordinates": [12.507204, 41.874868], "type": "Point"}, "type": "Feature"}, {"id": "536", "properties": {"stop_I": "675", "name": "ZAMA"}, "geometry": {"coordinates": [12.509985, 41.876338], "type": "Point"}, "type": "Feature"}, {"id": "537", "properties": {"stop_I": "676", "name": "BACCARINI/PAPI"}, "geometry": {"coordinates": [12.517006, 41.873646], "type": "Point"}, "type": "Feature"}, {"id": "538", "properties": {"stop_I": "677", "name": "BARONIO"}, "geometry": {"coordinates": [12.519419, 41.872002], "type": "Point"}, "type": "Feature"}, {"id": "539", "properties": {"stop_I": "678", "name": "EPIRO"}, "geometry": {"coordinates": [12.505712, 41.878516], "type": "Point"}, "type": "Feature"}, {"id": "540", "properties": {"stop_I": "679", "name": "SATURNIA"}, "geometry": {"coordinates": [12.506395, 41.880275], "type": "Point"}, "type": "Feature"}, {"id": "541", "properties": {"stop_I": "680", "name": "FORTIFIOCCA/BARONIO"}, "geometry": {"coordinates": [12.520739, 41.872333], "type": "Point"}, "type": "Feature"}, {"id": "542", "properties": {"stop_I": "681", "name": "FORTIFIOCCA/DENINA"}, "geometry": {"coordinates": [12.522855, 41.870316], "type": "Point"}, "type": "Feature"}, {"id": "543", "properties": {"stop_I": "682", "name": "DE SANCTIS"}, "geometry": {"coordinates": [12.524643, 41.868953], "type": "Point"}, "type": "Feature"}, {"id": "544", "properties": {"stop_I": "683", "name": "MANZONI (MA)"}, "geometry": {"coordinates": [12.506505, 41.890844], "type": "Point"}, "type": "Feature"}, {"id": "545", "properties": {"stop_I": "684", "name": "EMANUELE FILIBERTO/DANTE"}, "geometry": {"coordinates": [12.505591, 41.89277], "type": "Point"}, "type": "Feature"}, {"id": "546", "properties": {"stop_I": "685", "name": "LENORMANT/ZELIA NUTTAL"}, "geometry": {"coordinates": [12.332573, 41.773855], "type": "Point"}, "type": "Feature"}, {"id": "547", "properties": {"stop_I": "686", "name": "ZAMA"}, "geometry": {"coordinates": [12.510177, 41.876122], "type": "Point"}, "type": "Feature"}, {"id": "548", "properties": {"stop_I": "687", "name": "SATRICO/COLLAZIA"}, "geometry": {"coordinates": [12.507314, 41.877233], "type": "Point"}, "type": "Feature"}, {"id": "549", "properties": {"stop_I": "688", "name": "EPIRO"}, "geometry": {"coordinates": [12.50404, 41.878855], "type": "Point"}, "type": "Feature"}, {"id": "550", "properties": {"stop_I": "689", "name": "PANNONIA/DE MATTIAS"}, "geometry": {"coordinates": [12.501153, 41.880211], "type": "Point"}, "type": "Feature"}, {"id": "551", "properties": {"stop_I": "690", "name": "PANNONIA/TRACIA"}, "geometry": {"coordinates": [12.499851, 41.881472], "type": "Point"}, "type": "Feature"}, {"id": "552", "properties": {"stop_I": "691", "name": "TERME CARACALLA/VALLE CAMENE"}, "geometry": {"coordinates": [12.494864, 41.880999], "type": "Point"}, "type": "Feature"}, {"id": "553", "properties": {"stop_I": "692", "name": "TERME CARACALLA/PORTA CAPENA"}, "geometry": {"coordinates": [12.490411, 41.883574], "type": "Point"}, "type": "Feature"}, {"id": "554", "properties": {"stop_I": "693", "name": "CERCHI/BOCCA DELLA VERITA'"}, "geometry": {"coordinates": [12.482673, 41.888572], "type": "Point"}, "type": "Feature"}, {"id": "555", "properties": {"stop_I": "694", "name": "PETROSELLI"}, "geometry": {"coordinates": [12.480956, 41.890148], "type": "Point"}, "type": "Feature"}, {"id": "556", "properties": {"stop_I": "695", "name": "PRENESTINA/CONTI"}, "geometry": {"coordinates": [12.540169, 41.89228], "type": "Point"}, "type": "Feature"}, {"id": "557", "properties": {"stop_I": "696", "name": "AZUNI/MIN. MARINA"}, "geometry": {"coordinates": [12.472269, 41.914697], "type": "Point"}, "type": "Feature"}, {"id": "558", "properties": {"stop_I": "697", "name": "SETTEMBRINI/MARTIRI BELFIORE"}, "geometry": {"coordinates": [12.467779, 41.914792], "type": "Point"}, "type": "Feature"}, {"id": "559", "properties": {"stop_I": "698", "name": "SETTEMBRINI/MAZZINI"}, "geometry": {"coordinates": [12.464723, 41.91564], "type": "Point"}, "type": "Feature"}, {"id": "560", "properties": {"stop_I": "699", "name": "OSLAVIA/MAZZINI"}, "geometry": {"coordinates": [12.46312, 41.916723], "type": "Point"}, "type": "Feature"}, {"id": "561", "properties": {"stop_I": "700", "name": "LGT VITTORIA/MARESCIALLO GIARDINO"}, "geometry": {"coordinates": [12.46076, 41.923247], "type": "Point"}, "type": "Feature"}, {"id": "562", "properties": {"stop_I": "701", "name": "LGT VITTORIA/TIMAVO"}, "geometry": {"coordinates": [12.463342, 41.921888], "type": "Point"}, "type": "Feature"}, {"id": "563", "properties": {"stop_I": "702", "name": "CARSO"}, "geometry": {"coordinates": [12.462862, 41.92], "type": "Point"}, "type": "Feature"}, {"id": "564", "properties": {"stop_I": "703", "name": "OSLAVIA/MAZZINI"}, "geometry": {"coordinates": [12.462924, 41.916598], "type": "Point"}, "type": "Feature"}, {"id": "565", "properties": {"stop_I": "704", "name": "AUGUSTO IMPERATORE/ARA PACIS"}, "geometry": {"coordinates": [12.476647, 41.906415], "type": "Point"}, "type": "Feature"}, {"id": "566", "properties": {"stop_I": "705", "name": "TEATRO MARCELLO/ARA COELI"}, "geometry": {"coordinates": [12.481153, 41.893109], "type": "Point"}, "type": "Feature"}, {"id": "567", "properties": {"stop_I": "706", "name": "PETROSELLI"}, "geometry": {"coordinates": [12.480699, 41.890249], "type": "Point"}, "type": "Feature"}, {"id": "568", "properties": {"stop_I": "707", "name": "LIEGI/BELLINI"}, "geometry": {"coordinates": [12.497016, 41.92056], "type": "Point"}, "type": "Feature"}, {"id": "569", "properties": {"stop_I": "708", "name": "GRECA"}, "geometry": {"coordinates": [12.481583, 41.887521], "type": "Point"}, "type": "Feature"}, {"id": "570", "properties": {"stop_I": "709", "name": "LIEGI/UNGHERIA"}, "geometry": {"coordinates": [12.494353, 41.92176], "type": "Point"}, "type": "Feature"}, {"id": "571", "properties": {"stop_I": "710", "name": "CIRCO MASSIMO/ROSETO COMUNALE"}, "geometry": {"coordinates": [12.485337, 41.884948], "type": "Point"}, "type": "Feature"}, {"id": "572", "properties": {"stop_I": "711", "name": "ROMANIA"}, "geometry": {"coordinates": [12.493294, 41.92519], "type": "Point"}, "type": "Feature"}, {"id": "573", "properties": {"stop_I": "712", "name": "CIRCO MASSIMO (MB)"}, "geometry": {"coordinates": [12.48691, 41.884058], "type": "Point"}, "type": "Feature"}, {"id": "574", "properties": {"stop_I": "713", "name": "SALVINI/BLIGNY"}, "geometry": {"coordinates": [12.493406, 41.927231], "type": "Point"}, "type": "Feature"}, {"id": "575", "properties": {"stop_I": "714", "name": "CAMPO FARNIA/CIV. 166"}, "geometry": {"coordinates": [12.577518, 41.830245], "type": "Point"}, "type": "Feature"}, {"id": "576", "properties": {"stop_I": "715", "name": "TERME CARACALLA/PORTA CAPENA"}, "geometry": {"coordinates": [12.491122, 41.882918], "type": "Point"}, "type": "Feature"}, {"id": "577", "properties": {"stop_I": "716", "name": "PORTA METRONIA"}, "geometry": {"coordinates": [12.498512, 41.882072], "type": "Point"}, "type": "Feature"}, {"id": "578", "properties": {"stop_I": "717", "name": "ALBALONGA/RE DI ROMA"}, "geometry": {"coordinates": [12.513805, 41.880883], "type": "Point"}, "type": "Feature"}, {"id": "579", "properties": {"stop_I": "718", "name": "AOSTA/RE DI ROMA"}, "geometry": {"coordinates": [12.514503, 41.882666], "type": "Point"}, "type": "Feature"}, {"id": "580", "properties": {"stop_I": "719", "name": "PANNONIA/TRACIA"}, "geometry": {"coordinates": [12.500391, 41.880713], "type": "Point"}, "type": "Feature"}, {"id": "581", "properties": {"stop_I": "720", "name": "DE MATTIAS/PANNONIA"}, "geometry": {"coordinates": [12.501935, 41.879443], "type": "Point"}, "type": "Feature"}, {"id": "582", "properties": {"stop_I": "721", "name": "MONZA/TARANTO"}, "geometry": {"coordinates": [12.515294, 41.884773], "type": "Point"}, "type": "Feature"}, {"id": "583", "properties": {"stop_I": "722", "name": "SATRICO/EPIRO"}, "geometry": {"coordinates": [12.505448, 41.877866], "type": "Point"}, "type": "Feature"}, {"id": "584", "properties": {"stop_I": "723", "name": "SATRICO/ZAMA"}, "geometry": {"coordinates": [12.508713, 41.876445], "type": "Point"}, "type": "Feature"}, {"id": "585", "properties": {"stop_I": "724", "name": "CAMPO FARNIA/CIV. 100"}, "geometry": {"coordinates": [12.57587, 41.831953], "type": "Point"}, "type": "Feature"}, {"id": "586", "properties": {"stop_I": "725", "name": "CAMPO FARNIA/PELLARO"}, "geometry": {"coordinates": [12.575322, 41.833376], "type": "Point"}, "type": "Feature"}, {"id": "587", "properties": {"stop_I": "726", "name": "TORRE DI PRATOLUNGO/S. GIOVANNI IN ARGENTELLA"}, "geometry": {"coordinates": [12.605251, 41.946624], "type": "Point"}, "type": "Feature"}, {"id": "588", "properties": {"stop_I": "727", "name": "S. M. BATTAGLIA (MB)"}, "geometry": {"coordinates": [12.504338, 41.905381], "type": "Point"}, "type": "Feature"}, {"id": "589", "properties": {"stop_I": "728", "name": "UNIVERSITA'/MIN. AERONAUTICA"}, "geometry": {"coordinates": [12.507739, 41.902792], "type": "Point"}, "type": "Feature"}, {"id": "590", "properties": {"stop_I": "729", "name": "POLICLINICO/V.LE UNIVERSITA'"}, "geometry": {"coordinates": [12.510646, 41.90461], "type": "Point"}, "type": "Feature"}, {"id": "591", "properties": {"stop_I": "730", "name": "POLICLINICO (H)"}, "geometry": {"coordinates": [12.509516, 41.906401], "type": "Point"}, "type": "Feature"}, {"id": "592", "properties": {"stop_I": "731", "name": "TERME CARACALLA/VALLE CAMENE"}, "geometry": {"coordinates": [12.494608, 41.880688], "type": "Point"}, "type": "Feature"}, {"id": "593", "properties": {"stop_I": "732", "name": "PROVINCIE"}, "geometry": {"coordinates": [12.521072, 41.908705], "type": "Point"}, "type": "Feature"}, {"id": "594", "properties": {"stop_I": "733", "name": "PROVINCIE/VALERIO MASSIMO"}, "geometry": {"coordinates": [12.521295, 41.906934], "type": "Point"}, "type": "Feature"}, {"id": "595", "properties": {"stop_I": "734", "name": "TIBURTINA/VALERIO MASSIMO"}, "geometry": {"coordinates": [12.522781, 41.906147], "type": "Point"}, "type": "Feature"}, {"id": "596", "properties": {"stop_I": "735", "name": "TIBURTINA/CROCIATE"}, "geometry": {"coordinates": [12.525703, 41.90788], "type": "Point"}, "type": "Feature"}, {"id": "597", "properties": {"stop_I": "736", "name": "LICIA"}, "geometry": {"coordinates": [12.503152, 41.879502], "type": "Point"}, "type": "Feature"}, {"id": "598", "properties": {"stop_I": "737", "name": "MACEDONIA/LATINA"}, "geometry": {"coordinates": [12.511848, 41.873423], "type": "Point"}, "type": "Feature"}, {"id": "599", "properties": {"stop_I": "738", "name": "GREGOROVIUS"}, "geometry": {"coordinates": [12.513246, 41.871752], "type": "Point"}, "type": "Feature"}, {"id": "600", "properties": {"stop_I": "739", "name": "TOMMASO DA CELANO/GREGOROVIUS"}, "geometry": {"coordinates": [12.514832, 41.872043], "type": "Point"}, "type": "Feature"}, {"id": "601", "properties": {"stop_I": "740", "name": "TOMMASO DA CELANO/DIACONO"}, "geometry": {"coordinates": [12.515868, 41.870347], "type": "Point"},